$GPGSV,3,1,11,02,16,042,21,06,19,234,34,07,18,192,24,14,64,323,21,1*6E
$GPGSV,3,2,11,17,41,322,23,19,20,295,38,30,31,227,36,01,42,032,,1*6E
$GPGSV,3,3,11,03,48,097,,08,11,084,,22,42,323,,1*55
$GLGSV,2,1,08,78,66,300,24,77,41,168,20,87,09,037,23,81,30,270,37,1*79
$GLGSV,2,2,08,79,16,329,,65,11,115,,88,47,343,,72,07,063,,1*77
$GAGSV,2,1,06,13,07,039,,21,39,129,,23,80,008,,26,56,022,,7*7C
$GAGSV,2,2,06,31,29,322,,33,63,251,,7*7C
$GBGSV,4,1,16,02,36,236,31,08,30,177,25,09,38,230,31,16,28,202,36,1*72
$GBGSV,4,2,16,01,49,135,,03,56,202,,04,37,116,,05,14,254,,1*79
$GBGSV,4,3,16,06,33,213,,07,60,340,,10,51,322,,13,20,187,,1*7E
$GBGSV,4,4,16,19,05,172,,20,21,127,,26,04,320,,29,54,329,,1*7E
$GPGSA,A,1,,,,,,,,,,,,,,,,*32
$GPVTG,,T,,M,,N,,K,N*2C
$GPDTM,,,,,,,,*4A
$GPRMC,,V,,,,,,,,,,N,V*29
$GPGNS,,,,,,N,,,,,,,V*79
$GPGGA,,,,,,0,,,,,,,,*66
$GPGSV,3,1,11,02,16,042,20,06,19,234,30,07,18,192,24,14,64,323,21,1*6B
$GPGSV,3,2,11,19,20,295,31,22,42,323,22,30,31,227,35,01,42,032,,1*61
$GPGSV,3,3,11,03,48,097,,08,11,084,,17,41,322,,1*51
$GLGSV,2,1,08,78,66,300,26,77,41,168,27,87,09,037,22,81,30,270,37,1*7D
$GLGSV,2,2,08,79,16,329,,65,11,115,,88,47,343,,72,07,063,,1*77
$GAGSV,2,1,06,33,63,251,38,13,07,039,,21,39,129,,23,80,008,,7*73
$GAGSV,2,2,06,26,56,022,,31,29,322,,7*78
$GQGSV,1,1,01,-188,28,147,20,1*42
$GBGSV,4,1,16,02,36,236,29,03,56,202,29,08,30,177,32,09,38,230,30,1*7F
$GBGSV,4,2,16,16,28,202,30,01,49,135,,04,37,116,,05,14,254,,1*77
$GBGSV,4,3,16,06,33,213,,07,60,340,,10,51,322,,13,20,187,,1*7E
$GBGSV,4,4,16,19,05,172,,20,21,127,,26,04,320,,29,54,329,,1*7E
$GNGSA,A,3,02,06,07,14,17,19,22,30,,,,,1.1,0.8,0.8,1*3A
$GNGSA,A,3,78,81,,,,,,,,,,,1.1,0.8,0.8,2*34
$GNGSA,A,3,33,,,,,,,,,,,,1.1,0.8,0.8,3*33
$GNGSA,A,3,02,03,08,09,16,,,,,,,,1.1,0.8,0.8,4*33
$GNGSA,A,3,04,,,,,,,,,,,,1.1,0.8,0.8,5*31
$GNVTG,,T,,M,0.0,N,0.0,K,A*3D
$GNDTM,P90,,0000.000020,S,00000.000001,W,0.991,W84*4E
$GNRMC,045621.00,A,2500.263892,N,12119.282332,E,0.0,,020425,3.1,W,A,V*69
$GNGNS,045621.00,2500.263892,N,12119.282332,E,AAAAA,17,0.8,118.0,16.6,,,V*63
$GNGGA,045621.00,2500.263892,N,12119.282332,E,1,12,0.8,118.0,M,16.6,M,,*77
$GPGSV,3,1,11,02,16,042,19,06,19,234,31,07,18,192,24,14,64,323,20,1*61
$GPGSV,3,2,11,17,41,322,22,19,20,295,28,22,42,323,21,30,31,227,39,1*60
$GPGSV,3,3,11,01,42,032,,03,48,097,,08,11,084,,1*57
$GLGSV,2,1,08,78,66,300,24,77,41,168,25,87,09,037,22,81,30,270,30,1*7A
$GLGSV,2,2,08,79,16,329,,65,11,115,,88,47,343,,72,07,063,,1*77
$GAGSV,2,1,06,33,63,251,37,13,07,039,,21,39,129,,23,80,008,,7*7C
$GAGSV,2,2,06,26,56,022,,31,29,322,,7*78
$GQGSV,1,1,01,-188,28,147,20,1*42
$GBGSV,4,1,16,02,36,236,28,03,56,202,30,06,33,213,28,08,30,177,31,1*79
$GBGSV,4,2,16,09,38,230,28,16,28,202,28,01,49,135,,04,37,116,,1*74
$GBGSV,4,3,16,05,14,254,,07,60,340,,10,51,322,,13,20,187,,1*7B
$GBGSV,4,4,16,19,05,172,,20,21,127,,26,04,320,,29,54,329,,1*7E
$GNGSA,A,3,02,06,07,14,17,19,22,30,,,,,1.1,0.8,0.8,1*3A
$GNGSA,A,3,78,81,,,,,,,,,,,1.1,0.8,0.8,2*34
$GNGSA,A,3,33,,,,,,,,,,,,1.1,0.8,0.8,3*33
$GNGSA,A,3,02,03,08,09,16,,,,,,,,1.1,0.8,0.8,4*33
$GNGSA,A,3,04,,,,,,,,,,,,1.1,0.8,0.8,5*31
$GNVTG,,T,,M,0.0,N,0.0,K,A*3D
$GNDTM,P90,,0000.000020,S,00000.000001,W,0.991,W84*4E
$GNRMC,045622.00,A,2500.267576,N,12119.290433,E,0.0,,020425,3.1,W,A,V*6C
$GNGNS,045622.00,2500.267576,N,12119.290433,E,AAAAA,17,0.8,106.7,16.6,,,V*6E
$GNGGA,045622.00,2500.267576,N,12119.290433,E,1,12,0.8,106.7,M,16.6,M,,*7A
$GPGSV,3,1,11,02,16,042,19,06,19,234,34,07,18,192,23,14,64,323,20,1*63
$GPGSV,3,2,11,17,41,322,21,19,20,295,32,22,42,323,20,30,31,227,32,1*62
$GPGSV,3,3,11,01,42,032,,03,48,097,,08,11,084,,1*57
$GLGSV,2,1,08,78,66,300,24,77,41,168,29,87,09,037,23,81,30,270,37,1*70
$GLGSV,2,2,08,79,16,329,,65,11,115,,88,47,343,,72,07,063,,1*77
$GAGSV,2,1,06,33,63,251,31,13,07,039,,21,39,129,,23,80,008,,7*7A
$GAGSV,2,2,06,26,56,022,,31,29,322,,7*78
$GQGSV,1,1,01,-188,28,147,20,1*42
$GBGSV,4,1,16,02,36,236,30,03,56,202,38,06,33,213,34,08,30,177,29,1*7C
$GBGSV,4,2,16,09,38,230,31,16,28,202,29,01,49,135,,04,37,116,,1*7D
$GBGSV,4,3,16,05,14,254,,07,60,340,,10,51,322,,13,20,187,,1*7B
$GBGSV,4,4,16,19,05,172,,20,21,127,,26,04,320,,29,54,329,,1*7E
$GNGSA,A,3,02,06,07,14,17,19,22,30,,,,,1.1,0.8,0.8,1*3A
$GNGSA,A,3,78,81,,,,,,,,,,,1.1,0.8,0.8,2*34
$GNGSA,A,3,33,,,,,,,,,,,,1.1,0.8,0.8,3*33
$GNGSA,A,3,02,03,08,09,16,,,,,,,,1.1,0.8,0.8,4*33
$GNGSA,A,3,04,,,,,,,,,,,,1.1,0.8,0.8,5*31
$GNVTG,95.3,T,95.3,M,1.4,N,2.6,K,A*3C
$GNDTM,P90,,0000.000020,S,00000.000001,W,0.991,W84*4E
$GNRMC,045623.00,A,2500.268291,N,12119.292663,E,1.4,95.3,020425,3.1,W,A,V*7D
$GNGNS,045623.00,2500.268291,N,12119.292663,E,AAAAA,17,0.8,111.5,16.6,,,V*6F
$GNGGA,045623.00,2500.268291,N,12119.292663,E,1,12,0.8,111.5,M,16.6,M,,*7B
$GPGSV,3,1,11,02,16,042,19,06,19,234,31,07,18,192,23,14,64,323,20,1*66
$GPGSV,3,2,11,19,20,295,27,22,42,323,20,30,31,227,34,01,42,032,,1*65
$GPGSV,3,3,11,03,48,097,,08,11,084,,17,41,322,,1*51
$GLGSV,2,1,08,78,66,300,31,77,41,168,29,79,16,329,16,87,09,037,24,1*7E
$GLGSV,2,2,08,81,30,270,36,65,11,115,,88,47,343,,72,07,063,,1*7C
$GAGSV,2,1,06,33,63,251,28,13,07,039,,21,39,129,,23,80,008,,7*72
$GAGSV,2,2,06,26,56,022,,31,29,322,,7*78
$GQGSV,1,1,01,-188,28,147,19,1*48
$GBGSV,4,1,16,02,36,236,30,03,56,202,34,06,33,213,34,08,30,177,30,1*78
$GBGSV,4,2,16,09,38,230,27,16,28,202,27,01,49,135,,04,37,116,,1*74
$GBGSV,4,3,16,05,14,254,,07,60,340,,10,51,322,,13,20,187,,1*7B
$GBGSV,4,4,16,19,05,172,,20,21,127,,26,04,320,,29,54,329,,1*7E
$GNGSA,A,3,02,06,07,14,17,19,22,30,,,,,1.1,0.8,0.8,1*3A
$GNGSA,A,3,78,79,81,,,,,,,,,,1.1,0.8,0.8,2*3A
$GNGSA,A,3,33,,,,,,,,,,,,1.1,0.8,0.8,3*33
$GNGSA,A,3,02,03,08,09,16,,,,,,,,1.1,0.8,0.8,4*33
$GNGSA,A,3,04,,,,,,,,,,,,1.1,0.8,0.8,5*31
$GNVTG,,T,,M,0.0,N,0.0,K,A*3D
$GNDTM,P90,,0000.000020,S,00000.000001,W,0.991,W84*4E
$GNRMC,045624.00,A,2500.270199,N,12119.294951,E,0.0,,020425,3.1,W,A,V*64
$GNGNS,045624.00,2500.270199,N,12119.294951,E,AAAAA,18,0.8,115.1,16.6,,,V*6D
$GNGGA,045624.00,2500.270199,N,12119.294951,E,1,12,0.8,115.1,M,16.6,M,,*76
$GPGSV,3,1,11,02,16,042,19,06,19,234,36,07,18,192,22,14,64,323,20,1*60
$GPGSV,3,2,11,19,20,295,26,22,42,323,20,30,31,227,34,01,42,032,,1*64
$GPGSV,3,3,11,03,48,097,,08,11,084,,17,41,322,,1*51
$GLGSV,2,1,08,78,66,300,24,77,41,168,28,79,16,329,17,87,09,037,23,1*7D
$GLGSV,2,2,08,81,30,270,40,65,11,115,,88,47,343,,72,07,063,,1*7D
$GAGSV,2,1,06,33,63,251,34,13,07,039,,21,39,129,,23,80,008,,7*7F
$GAGSV,2,2,06,26,56,022,,31,29,322,,7*78
$GQGSV,1,1,01,-188,28,147,20,1*42
$GBGSV,4,1,16,02,36,236,32,03,56,202,38,06,33,213,25,08,30,177,31,1*77
$GBGSV,4,2,16,09,38,230,25,16,28,202,32,01,49,135,,04,37,116,,1*72
$GBGSV,4,3,16,05,14,254,,07,60,340,,10,51,322,,13,20,187,,1*7B
$GBGSV,4,4,16,19,05,172,,20,21,127,,26,04,320,,29,54,329,,1*7E
$GNGSA,A,3,02,06,07,14,17,19,22,30,,,,,1.1,0.8,0.8,1*3A
$GNGSA,A,3,78,79,81,,,,,,,,,,1.1,0.8,0.8,2*3A
$GNGSA,A,3,33,,,,,,,,,,,,1.1,0.8,0.8,3*33
$GNGSA,A,3,02,03,08,09,16,,,,,,,,1.1,0.8,0.8,4*33
$GNGSA,A,3,04,,,,,,,,,,,,1.1,0.8,0.8,5*31
$GNVTG,,T,,M,0.0,N,0.0,K,A*3D
$GNDTM,P90,,0000.000020,S,00000.000001,W,0.991,W84*4E
$GNRMC,045625.00,A,2500.270846,N,12119.295816,E,0.0,,020425,3.1,W,A,V*6D
$GNGNS,045625.00,2500.270846,N,12119.295816,E,AAAAA,18,0.8,116.8,16.6,,,V*6E
$GNGGA,045625.00,2500.270846,N,12119.295816,E,1,12,0.8,116.8,M,16.6,M,,*75
$GPGSV,3,1,11,02,16,042,19,06,19,234,35,07,18,192,29,14,64,323,19,1*62
$GPGSV,3,2,11,17,41,322,22,19,20,295,27,22,42,323,20,30,31,227,32,1*65
$GPGSV,3,3,11,01,42,032,,03,48,097,,08,11,084,,1*57
$GLGSV,2,1,08,78,66,300,20,77,41,168,28,79,16,329,17,87,09,037,19,1*70
$GLGSV,2,2,08,81,30,270,38,65,11,115,,88,47,343,,72,07,063,,1*72
$GAGSV,2,1,06,33,63,251,35,13,07,039,,21,39,129,,23,80,008,,7*7E
$GAGSV,2,2,06,26,56,022,,31,29,322,,7*78
$GQGSV,1,1,01,-188,28,147,20,1*42
$GBGSV,4,1,16,02,36,236,32,03,56,202,37,06,33,213,23,08,30,177,29,1*77
$GBGSV,4,2,16,09,38,230,28,16,28,202,33,01,49,135,,04,37,116,,1*7E
$GBGSV,4,3,16,05,14,254,,07,60,340,,10,51,322,,13,20,187,,1*7B
$GBGSV,4,4,16,19,05,172,,20,21,127,,26,04,320,,29,54,329,,1*7E
$GNGSA,A,3,02,06,07,14,17,19,22,30,,,,,1.1,0.8,0.8,1*3A
$GNGSA,A,3,78,79,81,,,,,,,,,,1.1,0.8,0.8,2*3A
$GNGSA,A,3,33,,,,,,,,,,,,1.1,0.8,0.8,3*33
$GNGSA,A,3,02,03,08,09,16,,,,,,,,1.1,0.8,0.8,4*33
$GNGSA,A,3,04,,,,,,,,,,,,1.1,0.8,0.8,5*31
$GNVTG,,T,,M,0.0,N,0.0,K,A*3D
$GNDTM,P90,,0000.000020,S,00000.000001,W,0.991,W84*4E
$GNRMC,045626.00,A,2500.271388,N,12119.297861,E,0.0,,020425,3.1,W,A,V*64
$GNGNS,045626.00,2500.271388,N,12119.297861,E,AAAAA,18,0.8,114.5,16.6,,,V*68
$GNGGA,045626.00,2500.271388,N,12119.297861,E,1,12,0.8,114.5,M,16.6,M,,*73
$GPGSV,3,1,11,01,42,032,17,02,16,042,17,06,19,234,34,07,18,192,27,1*6E
$GPGSV,3,2,11,14,64,323,19,17,41,322,24,19,20,295,32,22,42,323,21,1*6C
$GPGSV,3,3,11,30,31,227,32,03,48,097,,08,11,084,,1*56
$GLGSV,2,1,08,78,66,300,22,77,41,168,30,79,16,329,17,87,09,037,19,1*7B
$GLGSV,2,2,08,81,30,270,31,65,11,115,,88,47,343,,72,07,063,,1*7B
$GAGSV,2,1,06,33,63,251,33,13,07,039,,21,39,129,,23,80,008,,7*78
$GAGSV,2,2,06,26,56,022,,31,29,322,,7*78
$GQGSV,1,1,01,-188,28,147,20,1*42
$GBGSV,4,1,16,02,36,236,32,03,56,202,35,06,33,213,25,08,30,177,31,1*7A
$GBGSV,4,2,16,09,38,230,29,10,51,322,18,16,28,202,31,01,49,135,,1*74
$GBGSV,4,3,16,04,37,116,,05,14,254,,07,60,340,,13,20,187,,1*7B
$GBGSV,4,4,16,19,05,172,,20,21,127,,26,04,320,,29,54,329,,1*7E
$GNGSA,A,3,01,02,06,07,14,17,19,22,30,,,,1.1,0.7,0.8,1*34
$GNGSA,A,3,78,79,81,,,,,,,,,,1.1,0.7,0.8,2*35
$GNGSA,A,3,33,,,,,,,,,,,,1.1,0.7,0.8,3*3C
$GNGSA,A,3,02,03,08,09,16,,,,,,,,1.1,0.7,0.8,4*3C
$GNGSA,A,3,04,,,,,,,,,,,,1.1,0.7,0.8,5*3E
$GNVTG,,T,,M,0.0,N,0.0,K,A*3D
$GNDTM,P90,,0000.000020,S,00000.000001,W,0.991,W84*4E
$GNRMC,045627.00,A,2500.271298,N,12119.297861,E,0.0,,020425,3.1,W,A,V*65
$GNGNS,045627.00,2500.271298,N,12119.297861,E,AAAAA,19,0.7,116.9,16.6,,,V*69
$GNGGA,045627.00,2500.271298,N,12119.297861,E,1,12,0.7,116.9,M,16.6,M,,*73
$GPGSV,3,1,11,01,42,032,17,02,16,042,17,06,19,234,37,07,18,192,21,1*6B
$GPGSV,3,2,11,14,64,323,19,17,41,322,24,19,20,295,35,22,42,323,21,1*6B
$GPGSV,3,3,11,30,31,227,32,03,48,097,,08,11,084,,1*56
$GLGSV,2,1,05,78,66,300,26,77,41,168,30,79,16,329,17,81,30,270,32,1*76
$GLGSV,2,2,05,88,47,343,,1*4A
$GAGSV,2,1,05,33,63,251,35,21,39,129,,23,80,008,,26,56,022,,7*75
$GAGSV,2,2,05,31,29,322,,7*4C
$GQGSV,1,1,01,-188,28,147,20,1*42
$GBGSV,4,1,15,02,36,236,31,03,56,202,35,06,33,213,25,08,30,177,28,1*72
$GBGSV,4,2,15,09,38,230,24,10,51,322,18,16,28,202,34,01,49,135,,1*7F
$GBGSV,4,3,15,04,37,116,,05,14,254,,07,60,340,,13,20,187,,1*78
$GBGSV,4,4,15,20,21,127,,29,54,329,,30,31,043,,1*43
$GNGSA,A,3,01,02,06,07,14,17,19,22,30,,,,1.0,0.7,0.8,1*35
$GNGSA,A,3,78,79,81,,,,,,,,,,1.0,0.7,0.8,2*34
$GNGSA,A,3,33,,,,,,,,,,,,1.0,0.7,0.8,3*3D
$GNGSA,A,3,02,03,08,09,10,16,,,,,,,1.0,0.7,0.8,4*3C
$GNGSA,A,3,04,,,,,,,,,,,,1.0,0.7,0.8,5*3F
$GNVTG,,T,,M,0.0,N,0.0,K,A*3D
$GNDTM,P90,,0000.000020,S,00000.000001,W,0.991,W84*4E
$GNRMC,045628.00,A,2500.271244,N,12119.298084,E,0.0,,020425,3.1,W,A,V*67
$GNGNS,045628.00,2500.271244,N,12119.298084,E,AAAAA,20,0.7,120.3,16.6,,,V*6E
$GNGGA,045628.00,2500.271244,N,12119.298084,E,1,12,0.7,120.3,M,16.6,M,,*7E
$GPGSV,3,1,11,01,42,032,17,02,16,042,17,06,19,234,21,07,18,192,22,1*6F
$GPGSV,3,2,11,14,64,323,19,17,41,322,24,19,20,295,30,22,42,323,21,1*6E
$GPGSV,3,3,11,30,31,227,30,03,48,097,,08,11,084,,1*54
$GLGSV,2,1,05,78,66,300,24,77,41,168,29,79,16,329,17,81,30,270,35,1*7B
$GLGSV,2,2,05,88,47,343,,1*4A
$GAGSV,2,1,05,33,63,251,34,21,39,129,,23,80,008,,26,56,022,,7*74
$GAGSV,2,2,05,31,29,322,,7*4C
$GQGSV,1,1,01,-188,28,147,20,1*42
$GBGSV,4,1,15,02,36,236,31,03,56,202,35,06,33,213,27,08,30,177,27,1*7F
$GBGSV,4,2,15,09,38,230,28,10,51,322,18,16,28,202,30,01,49,135,,1*77
$GBGSV,4,3,15,04,37,116,,05,14,254,,07,60,340,,13,20,187,,1*78
$GBGSV,4,4,15,20,21,127,,29,54,329,,30,31,043,,1*43
$GNGSA,A,3,01,02,06,07,14,17,19,22,30,,,,1.0,0.7,0.8,1*35
$GNGSA,A,3,78,79,81,,,,,,,,,,1.0,0.7,0.8,2*34
$GNGSA,A,3,33,,,,,,,,,,,,1.0,0.7,0.8,3*3D
$GNGSA,A,3,02,03,08,09,10,16,,,,,,,1.0,0.7,0.8,4*3C
$GNGSA,A,3,04,,,,,,,,,,,,1.0,0.7,0.8,5*3F
$GNVTG,,T,,M,0.0,N,0.0,K,A*3D
$GNDTM,P90,,0000.000020,S,00000.000001,W,0.991,W84*4E
$GNRMC,045629.00,A,2500.271532,N,12119.299475,E,0.0,,020425,3.1,W,A,V*6B
$GNGNS,045629.00,2500.271532,N,12119.299475,E,AAAAA,20,0.7,118.3,16.6,,,V*69
$GNGGA,045629.00,2500.271532,N,12119.299475,E,1,12,0.7,118.3,M,16.6,M,,*79
$GPGSV,3,1,11,01,42,032,17,02,16,042,17,06,19,234,21,07,18,192,22,1*6F
$GPGSV,3,2,11,14,64,323,19,17,41,322,22,19,20,295,30,22,42,323,21,1*68
$GPGSV,3,3,11,30,31,227,36,03,48,097,,08,11,084,,1*52
$GLGSV,2,1,05,78,66,300,26,77,41,168,25,79,16,329,17,81,30,270,33,1*73
$GLGSV,2,2,05,88,47,343,,1*4A
$GAGSV,2,1,05,33,63,251,36,21,39,129,,23,80,008,,26,56,022,,7*76
$GAGSV,2,2,05,31,29,322,,7*4C
$GQGSV,1,1,01,-188,28,147,20,1*42
$GBGSV,4,1,15,02,36,236,31,03,56,202,34,06,33,213,27,08,30,177,28,1*71
$GBGSV,4,2,15,09,38,230,33,10,51,322,18,16,28,202,32,01,49,135,,1*7F
$GBGSV,4,3,15,04,37,116,,05,14,254,,07,60,340,,13,20,187,,1*78
$GBGSV,4,4,15,20,21,127,,29,54,329,,30,31,043,,1*43
$GNGSA,A,3,01,02,06,07,14,17,19,22,30,,,,1.0,0.7,0.8,1*35
$GNGSA,A,3,78,79,81,,,,,,,,,,1.0,0.7,0.8,2*34
$GNGSA,A,3,33,,,,,,,,,,,,1.0,0.7,0.8,3*3D
$GNGSA,A,3,02,03,08,09,10,16,,,,,,,1.0,0.7,0.8,4*3C
$GNGSA,A,3,04,,,,,,,,,,,,1.0,0.7,0.8,5*3F
$GNVTG,,T,,M,0.0,N,0.0,K,A*3D
$GNDTM,P90,,0000.000020,S,00000.000001,W,0.991,W84*4E
$GNRMC,045630.00,A,2500.271608,N,12119.300012,E,0.0,,020425,3.1,W,A,V*6D
$GNGNS,045630.00,2500.271608,N,12119.300012,E,AAAAA,20,0.7,118.5,16.6,,,V*69
$GNGGA,045630.00,2500.271608,N,12119.300012,E,1,12,0.7,118.5,M,16.6,M,,*79
$GPGSV,3,1,11,01,42,032,17,02,16,042,17,06,19,234,33,07,18,192,21,1*6F
$GPGSV,3,2,11,14,64,323,22,17,41,322,22,19,20,295,30,22,42,323,25,1*64
$GPGSV,3,3,11,30,31,227,37,03,48,097,,08,11,084,,1*53
$GLGSV,2,1,05,78,66,300,29,77,41,168,31,79,16,329,17,81,30,270,35,1*7F
$GLGSV,2,2,05,88,47,343,,1*4A
$GAGSV,2,1,05,33,63,251,41,21,39,129,,23,80,008,,26,56,022,,7*76
$GAGSV,2,2,05,31,29,322,,7*4C
$GQGSV,1,1,01,-188,28,147,20,1*42
$GBGSV,4,1,15,02,36,236,30,03,56,202,38,06,33,213,28,08,30,177,24,1*7F
$GBGSV,4,2,15,09,38,230,36,10,51,322,18,16,28,202,31,01,49,135,,1*79
$GBGSV,4,3,15,04,37,116,,05,14,254,,07,60,340,,13,20,187,,1*78
$GBGSV,4,4,15,20,21,127,,29,54,329,,30,31,043,,1*43
$GNGSA,A,3,01,02,06,07,14,17,19,22,30,,,,1.0,0.7,0.8,1*35
$GNGSA,A,3,78,79,81,,,,,,,,,,1.0,0.7,0.8,2*34
$GNGSA,A,3,33,,,,,,,,,,,,1.0,0.7,0.8,3*3D
$GNGSA,A,3,02,03,08,09,10,16,,,,,,,1.0,0.7,0.8,4*3C
$GNGSA,A,3,04,,,,,,,,,,,,1.0,0.7,0.8,5*3F
$GNVTG,,T,,M,0.0,N,0.0,K,A*3D
$GNDTM,P90,,0000.000020,S,00000.000001,W,0.991,W84*4E
$GNRMC,045631.00,A,2500.272018,N,12119.300559,E,0.0,,020425,3.1,W,A,V*62
$GNGNS,045631.00,2500.272018,N,12119.300559,E,AAAAA,20,0.7,117.7,16.6,,,V*6B
$GNGGA,045631.00,2500.272018,N,12119.300559,E,1,12,0.7,117.7,M,16.6,M,,*7B
$GPGSV,3,1,11,01,42,032,17,02,16,042,17,06,19,234,34,07,18,192,21,1*68
$GPGSV,3,2,11,14,64,323,22,17,41,322,22,19,20,295,29,22,42,323,23,1*6A
$GPGSV,3,3,11,30,31,227,31,03,48,097,,08,11,084,,1*55
$GLGSV,2,1,05,78,66,300,26,77,41,168,33,79,16,329,17,88,47,343,19,1*74
$GLGSV,2,2,05,81,30,270,33,1*42
$GAGSV,2,1,05,33,63,251,37,21,39,129,,23,80,008,,26,56,022,,7*77
$GAGSV,2,2,05,31,29,322,,7*4C
$GQGSV,1,1,01,-188,28,147,20,1*42
$GBGSV,4,1,15,02,36,236,30,03,56,202,34,06,33,213,28,08,30,177,24,1*73
$GBGSV,4,2,15,09,38,230,35,10,51,322,18,16,28,202,23,01,49,135,,1*79
$GBGSV,4,3,15,04,37,116,,05,14,254,,07,60,340,,13,20,187,,1*78
$GBGSV,4,4,15,20,21,127,,29,54,329,,30,31,043,,1*43
$GNGSA,A,3,01,02,06,07,14,17,19,22,30,,,,1.0,0.7,0.8,1*35
$GNGSA,A,3,78,79,81,88,,,,,,,,,1.0,0.7,0.8,2*34
$GNGSA,A,3,33,,,,,,,,,,,,1.0,0.7,0.8,3*3D
$GNGSA,A,3,02,03,08,09,10,16,,,,,,,1.0,0.7,0.8,4*3C
$GNGSA,A,3,04,,,,,,,,,,,,1.0,0.7,0.8,5*3F
$GNVTG,,T,,M,0.0,N,0.0,K,A*3D
$GNDTM,P90,,0000.000020,S,00000.000001,W,0.991,W84*4E
$GNRMC,045632.00,A,2500.273566,N,12119.301941,E,0.0,,020425,3.1,W,A,V*68
$GNGNS,045632.00,2500.273566,N,12119.301941,E,AAAAA,21,0.7,116.3,16.6,,,V*65
$GNGGA,045632.00,2500.273566,N,12119.301941,E,1,12,0.7,116.3,M,16.6,M,,*74
$GPGSV,3,1,11,01,42,032,17,02,16,042,17,06,19,234,31,07,18,192,19,1*66
$GPGSV,3,2,11,14,64,323,22,17,41,322,17,19,20,295,31,22,42,323,23,1*65
$GPGSV,3,3,11,30,31,227,30,03,48,097,,08,11,084,,1*54
$GLGSV,2,1,05,78,66,300,27,77,41,168,26,79,16,329,17,88,47,343,19,1*71
$GLGSV,2,2,05,81,30,270,31,1*40
$GAGSV,2,1,05,33,63,251,37,21,39,129,,23,80,008,,26,56,022,,7*77
$GAGSV,2,2,05,31,29,322,,7*4C
$GQGSV,1,1,01,-188,28,147,20,1*42
$GBGSV,4,1,15,02,36,236,30,03,56,202,34,06,33,213,23,08,30,177,24,1*78
$GBGSV,4,2,15,09,38,230,29,10,51,322,18,16,28,202,27,01,49,135,,1*70
$GBGSV,4,3,15,04,37,116,,05,14,254,,07,60,340,,13,20,187,,1*78
$GBGSV,4,4,15,20,21,127,,29,54,329,,30,31,043,,1*43
$GNGSA,A,3,06,07,17,19,22,30,,,,,,,1.5,1.2,0.9,1*33
$GNGSA,A,3,78,81,88,,,,,,,,,,1.5,1.2,0.9,2*3A
$GNGSA,A,3,33,,,,,,,,,,,,1.5,1.2,0.9,3*3D
$GNGSA,A,3,02,03,08,09,10,16,,,,,,,1.5,1.2,0.9,4*3C
$GNVTG,,T,,M,0.0,N,0.0,K,A*3D
$GNDTM,P90,,0000.000020,S,00000.000001,W,0.991,W84*4E
$GNRMC,045633.00,A,2500.273716,N,12119.302201,E,0.0,,020425,3.1,W,A,V*60
$GNGNS,045633.00,2500.273716,N,12119.302201,E,AAAA,16,1.2,117.6,16.6,,,V*28
$GNGGA,045633.00,2500.273716,N,12119.302201,E,1,12,1.2,117.6,M,16.6,M,,*7C
$GPGSV,3,1,11,01,42,032,17,02,16,042,17,06,19,234,31,07,18,192,19,1*66
$GPGSV,3,2,11,14,64,323,22,17,41,322,17,19,20,295,25,22,42,323,23,1*60
$GPGSV,3,3,11,30,31,227,35,03,48,097,,08,11,084,,1*51
$GLGSV,2,1,05,78,66,300,27,77,41,168,25,79,16,329,17,88,47,343,19,1*72
$GLGSV,2,2,05,81,30,270,25,1*45
$GAGSV,2,1,05,33,63,251,34,21,39,129,,23,80,008,,26,56,022,,7*74
$GAGSV,2,2,05,31,29,322,,7*4C
$GQGSV,1,1,01,-188,28,147,20,1*42
$GBGSV,4,1,15,02,36,236,28,03,56,202,34,06,33,213,30,08,30,177,21,1*76
$GBGSV,4,2,15,09,38,230,29,10,51,322,18,16,28,202,27,01,49,135,,1*70
$GBGSV,4,3,15,04,37,116,,05,14,254,,07,60,340,,13,20,187,,1*78
$GBGSV,4,4,15,20,21,127,,29,54,329,,30,31,043,,1*43
$GNGSA,A,3,06,07,17,19,22,30,,,,,,,1.5,1.2,0.9,1*33
$GNGSA,A,3,78,81,88,,,,,,,,,,1.5,1.2,0.9,2*3A
$GNGSA,A,3,33,,,,,,,,,,,,1.5,1.2,0.9,3*3D
$GNGSA,A,3,02,03,08,09,16,,,,,,,,1.5,1.2,0.9,4*3D
$GNVTG,,T,,M,0.0,N,0.0,K,A*3D
$GNDTM,P90,,0000.000020,S,00000.000001,W,0.991,W84*4E
$GNRMC,045634.00,A,2500.273749,N,12119.302206,E,0.0,,020425,3.1,W,A,V*6A
$GNGNS,045634.00,2500.273749,N,12119.302206,E,AAAA,15,1.2,118.0,16.6,,,V*28
$GNGGA,045634.00,2500.273749,N,12119.302206,E,1,12,1.2,118.0,M,16.6,M,,*7F
$GPGSV,3,1,11,01,42,032,17,02,16,042,17,06,19,234,18,07,18,192,19,1*6D
$GPGSV,3,2,11,14,64,323,22,17,41,322,17,19,20,295,21,22,42,323,23,1*64
$GPGSV,3,3,11,30,31,227,33,03,48,097,,08,11,084,,1*57
$GLGSV,2,1,05,78,66,300,27,77,41,168,25,79,16,329,17,88,47,343,19,1*72
$GLGSV,2,2,05,81,30,270,31,1*40
$GAGSV,2,1,05,33,63,251,30,21,39,129,,23,80,008,,26,56,022,,7*70
$GAGSV,2,2,05,31,29,322,,7*4C
$GQGSV,1,1,01,-188,28,147,20,1*42
$GBGSV,4,1,15,02,36,236,28,03,56,202,30,06,33,213,27,08,30,177,21,1*74
$GBGSV,4,2,15,09,38,230,29,10,51,322,18,16,28,202,27,01,49,135,,1*70
$GBGSV,4,3,15,04,37,116,,05,14,254,,07,60,340,,13,20,187,,1*78
$GBGSV,4,4,15,20,21,127,,29,54,329,,30,31,043,,1*43
$GNGSA,A,3,06,07,17,19,22,30,,,,,,,1.5,1.2,0.9,1*33
$GNGSA,A,3,78,81,88,,,,,,,,,,1.5,1.2,0.9,2*3A
$GNGSA,A,3,33,,,,,,,,,,,,1.5,1.2,0.9,3*3D
$GNGSA,A,3,02,03,08,09,16,,,,,,,,1.5,1.2,0.9,4*3D
$GNVTG,,T,,M,0.0,N,0.0,K,A*3D
$GNDTM,P90,,0000.000020,S,00000.000001,W,0.991,W84*4E
$GNRMC,045635.00,A,2500.273752,N,12119.302184,E,0.0,,020425,3.1,W,A,V*68
$GNGNS,045635.00,2500.273752,N,12119.302184,E,AAAA,15,1.2,118.0,16.6,,,V*2A
$GNGGA,045635.00,2500.273752,N,12119.302184,E,1,12,1.2,118.0,M,16.6,M,,*7D
$GPGSV,3,1,11,01,42,032,17,02,16,042,17,06,19,234,20,07,18,192,19,1*66
$GPGSV,3,2,11,14,64,323,22,17,41,322,18,19,20,295,22,22,42,323,23,1*68
$GPGSV,3,3,11,30,31,227,31,03,48,097,,08,11,084,,1*55
$GLGSV,2,1,05,78,66,300,27,77,41,168,21,79,16,329,17,88,47,343,19,1*76
$GLGSV,2,2,05,81,30,270,28,1*48
$GAGSV,2,1,05,33,63,251,28,21,39,129,,23,80,008,,26,56,022,,7*79
$GAGSV,2,2,05,31,29,322,,7*4C
$GQGSV,1,1,01,-188,28,147,20,1*42
$GBGSV,4,1,15,02,36,236,28,03,56,202,34,06,33,213,28,08,30,177,21,1*7F
$GBGSV,4,2,15,09,38,230,29,10,51,322,18,16,28,202,19,01,49,135,,1*7D
$GBGSV,4,3,15,04,37,116,,05,14,254,,07,60,340,,13,20,187,,1*78
$GBGSV,4,4,15,20,21,127,,29,54,329,,30,31,043,,1*43
$GNGSA,A,3,06,07,17,19,22,30,,,,,,,1.5,1.2,0.9,1*33
$GNGSA,A,3,78,81,88,,,,,,,,,,1.5,1.2,0.9,2*3A
$GNGSA,A,3,33,,,,,,,,,,,,1.5,1.2,0.9,3*3D
$GNGSA,A,3,02,03,08,09,16,,,,,,,,1.5,1.2,0.9,4*3D
$GNVTG,,T,,M,0.0,N,0.0,K,A*3D
$GNDTM,P90,,0000.000020,S,00000.000001,W,0.991,W84*4E
$GNRMC,045636.00,A,2500.273748,N,12119.302051,E,0.0,,020425,3.1,W,A,V*69
$GNGNS,045636.00,2500.273748,N,12119.302051,E,AAAA,15,1.2,118.1,16.6,,,V*2A
$GNGGA,045636.00,2500.273748,N,12119.302051,E,1,12,1.2,118.1,M,16.6,M,,*7D
$GPGSV,3,1,11,01,42,032,17,02,16,042,17,06,19,234,20,07,18,192,19,1*66
$GPGSV,3,2,11,14,64,323,22,17,41,322,21,19,20,295,21,22,42,323,23,1*61
$GPGSV,3,3,11,30,31,227,29,03,48,097,,08,11,084,,1*5C
$GLGSV,2,1,05,78,66,300,27,77,41,168,21,79,16,329,17,88,47,343,19,1*76
$GLGSV,2,2,05,81,30,270,28,1*48
$GAGSV,2,1,05,33,63,251,30,21,39,129,,23,80,008,,26,56,022,,7*70
$GAGSV,2,2,05,31,29,322,,7*4C
$GQGSV,1,1,01,-188,28,147,20,1*42
$GBGSV,4,1,15,02,36,236,29,03,56,202,34,06,33,213,29,08,30,177,19,1*74
$GBGSV,4,2,15,09,38,230,32,10,51,322,18,16,28,202,19,01,49,135,,1*77
$GBGSV,4,3,15,04,37,116,,05,14,254,,07,60,340,,13,20,187,,1*78
$GBGSV,4,4,15,20,21,127,,29,54,329,,30,31,043,,1*43
$GNGSA,A,3,06,07,17,19,22,30,,,,,,,1.5,1.2,0.9,1*33
$GNGSA,A,3,78,81,88,,,,,,,,,,1.5,1.2,0.9,2*3A
$GNGSA,A,3,33,,,,,,,,,,,,1.5,1.2,0.9,3*3D
$GNGSA,A,3,02,03,08,09,16,,,,,,,,1.5,1.2,0.9,4*3D
$GNVTG,,T,,M,0.0,N,0.0,K,A*3D
$GNDTM,P90,,0000.000020,S,00000.000001,W,0.991,W84*4E
$GNRMC,045637.00,A,2500.273799,N,12119.302098,E,0.0,,020425,3.1,W,A,V*61
$GNGNS,045637.00,2500.273799,N,12119.302098,E,AAAA,15,1.2,118.0,16.6,,,V*23
$GNGGA,045637.00,2500.273799,N,12119.302098,E,1,12,1.2,118.0,M,16.6,M,,*74
$GPGSV,3,1,11,01,42,032,17,02,16,042,17,06,19,234,20,07,18,192,19,1*66
$GPGSV,3,2,11,14,64,323,22,17,41,322,22,19,20,295,21,22,42,323,23,1*62
$GPGSV,3,3,11,30,31,227,31,03,48,097,,08,11,084,,1*55
$GLGSV,2,1,05,78,66,300,27,77,41,168,21,79,16,329,17,88,47,343,19,1*76
$GLGSV,2,2,05,81,30,270,24,1*44
$GAGSV,2,1,05,33,63,251,32,21,39,129,,23,80,008,,26,56,022,,7*72
$GAGSV,2,2,05,31,29,322,,7*4C
$GQGSV,1,1,01,-188,28,147,20,1*42
$GBGSV,4,1,15,02,36,236,29,03,56,202,35,06,33,213,30,08,30,177,19,1*7D
$GBGSV,4,2,15,09,38,230,32,10,51,322,18,16,28,202,19,01,49,135,,1*77
$GBGSV,4,3,15,04,37,116,,05,14,254,,07,60,340,,13,20,187,,1*78
$GBGSV,4,4,15,20,21,127,,29,54,329,,30,31,043,,1*43
$GNGSA,A,3,06,07,17,19,30,,,,,,,,1.7,1.4,0.9,1*37
$GNGSA,A,3,78,81,,,,,,,,,,,1.7,1.4,0.9,2*3E
$GNGSA,A,3,33,,,,,,,,,,,,1.7,1.4,0.9,3*39
$GNGSA,A,3,02,03,08,09,16,,,,,,,,1.7,1.4,0.9,4*39
$GNVTG,,T,,M,0.0,N,0.0,K,A*3D
$GNDTM,P90,,0000.000020,S,00000.000001,W,0.991,W84*4E
$GNRMC,045638.00,A,2500.273823,N,12119.302114,E,0.0,,020425,3.1,W,A,V*65
$GNGNS,045638.00,2500.273823,N,12119.302114,E,AAAA,13,1.4,118.0,16.6,,,V*27
$GNGGA,045638.00,2500.273823,N,12119.302114,E,1,12,1.4,118.0,M,16.6,M,,*76
$GPGSV,3,1,11,01,42,032,17,02,16,042,17,06,19,234,20,07,18,192,19,1*66
$GPGSV,3,2,11,14,64,323,22,17,41,322,20,19,20,295,20,22,42,323,23,1*61
$GPGSV,3,3,11,30,31,227,32,03,48,097,,08,11,084,,1*56
$GLGSV,2,1,05,78,66,300,27,77,41,168,21,79,16,329,17,88,47,343,19,1*76
$GLGSV,2,2,05,81,30,270,30,1*41
$GAGSV,2,1,05,33,63,251,31,21,39,129,,23,80,008,,26,56,022,,7*71
$GAGSV,2,2,05,31,29,322,,7*4C
$GQGSV,1,1,01,-188,28,147,20,1*42
$GBGSV,4,1,15,02,36,236,29,03,56,202,35,06,33,213,26,08,30,177,19,1*7A
$GBGSV,4,2,15,09,38,230,26,10,51,322,18,16,28,202,19,01,49,135,,1*72
$GBGSV,4,3,15,04,37,116,,05,14,254,,07,60,340,,13,20,187,,1*78
$GBGSV,4,4,15,20,21,127,,29,54,329,,30,31,043,,1*43
$GNGSA,A,3,06,17,19,30,,,,,,,,,1.9,1.7,0.9,1*3D
$GNGSA,A,3,81,,,,,,,,,,,,1.9,1.7,0.9,2*3C
$GNGSA,A,3,33,,,,,,,,,,,,1.9,1.7,0.9,3*34
$GNGSA,A,3,02,03,08,09,16,,,,,,,,1.9,1.7,0.9,4*34
$GNVTG,,T,,M,0.0,N,0.0,K,A*3D
$GNDTM,P90,,0000.000020,S,00000.000001,W,0.991,W84*4E
$GNRMC,045639.00,A,2500.273748,N,12119.302013,E,0.0,,020425,3.1,W,A,V*60
$GNGNS,045639.00,2500.273748,N,12119.302013,E,AAAA,11,1.7,118.2,16.6,,,V*21
$GNGGA,045639.00,2500.273748,N,12119.302013,E,1,11,1.7,118.2,M,16.6,M,,*71
$GPGSV,3,1,11,01,42,032,17,02,16,042,17,06,19,234,15,07,18,192,19,1*60
$GPGSV,3,2,11,14,64,323,22,17,41,322,21,19,20,295,22,22,42,323,23,1*62
$GPGSV,3,3,11,30,31,227,30,03,48,097,,08,11,084,,1*54
$GLGSV,2,1,05,78,66,300,27,77,41,168,21,79,16,329,17,88,47,343,19,1*76
$GLGSV,2,2,05,81,30,270,29,1*49
$GAGSV,2,1,05,33,63,251,31,21,39,129,,23,80,008,,26,56,022,,7*71
$GAGSV,2,2,05,31,29,322,,7*4C
$GQGSV,1,1,01,-188,28,147,20,1*42
$GBGSV,4,1,15,02,36,236,29,03,56,202,35,06,33,213,28,08,30,177,22,1*7C
$GBGSV,4,2,15,09,38,230,28,10,51,322,18,16,28,202,19,01,49,135,,1*7C
$GBGSV,4,3,15,04,37,116,,05,14,254,,07,60,340,,13,20,187,,1*78
$GBGSV,4,4,15,20,21,127,,29,54,329,,30,31,043,,1*43
$GNGSA,A,3,06,17,19,30,,,,,,,,,1.9,1.7,0.9,1*3D
$GNGSA,A,3,81,,,,,,,,,,,,1.9,1.7,0.9,2*3C
$GNGSA,A,3,33,,,,,,,,,,,,1.9,1.7,0.9,3*34
$GNGSA,A,3,02,03,08,09,16,,,,,,,,1.9,1.7,0.9,4*34
$GNVTG,,T,,M,0.0,N,0.0,K,A*3D
$GNDTM,P90,,0000.000020,S,00000.000001,W,0.991,W84*4E
$GNRMC,045640.00,A,2500.273617,N,12119.301842,E,0.0,,020425,3.1,W,A,V*6A
$GNGNS,045640.00,2500.273617,N,12119.301842,E,AAAA,11,1.7,118.5,16.6,,,V*2C
$GNGGA,045640.00,2500.273617,N,12119.301842,E,1,11,1.7,118.5,M,16.6,M,,*7C
$GPGSV,3,1,11,01,42,032,17,02,16,042,17,06,19,234,23,07,18,192,19,1*65
$GPGSV,3,2,11,14,64,323,22,17,41,322,21,19,20,295,23,22,42,323,23,1*63
$GPGSV,3,3,11,30,31,227,26,03,48,097,,08,11,084,,1*53
$GLGSV,2,1,05,78,66,300,27,77,41,168,19,79,16,329,17,88,47,343,19,1*7D
$GLGSV,2,2,05,81,30,270,31,1*40
$GAGSV,2,1,05,33,63,251,33,21,39,129,,23,80,008,,26,56,022,,7*73
$GAGSV,2,2,05,31,29,322,,7*4C
$GQGSV,1,1,01,-188,28,147,20,1*42
$GBGSV,4,1,15,02,36,236,29,03,56,202,31,06,33,213,26,08,30,177,25,1*71
$GBGSV,4,2,15,09,38,230,27,10,51,322,18,16,28,202,19,01,49,135,,1*73
$GBGSV,4,3,15,04,37,116,,05,14,254,,07,60,340,,13,20,187,,1*78
$GBGSV,4,4,15,20,21,127,,29,54,329,,30,31,043,,1*43
$GNGSA,A,3,06,17,19,30,,,,,,,,,1.9,1.7,0.9,1*3D
$GNGSA,A,3,81,,,,,,,,,,,,1.9,1.7,0.9,2*3C
$GNGSA,A,3,33,,,,,,,,,,,,1.9,1.7,0.9,3*34
$GNGSA,A,3,02,03,08,09,16,,,,,,,,1.9,1.7,0.9,4*34
$GNVTG,,T,,M,0.0,N,0.0,K,A*3D
$GNDTM,P90,,0000.000020,S,00000.000001,W,0.991,W84*4E
$GNRMC,045641.00,A,2500.273816,N,12119.302129,E,0.0,,020425,3.1,W,A,V*63
$GNGNS,045641.00,2500.273816,N,12119.302129,E,AAAA,11,1.7,118.0,16.6,,,V*20
$GNGGA,045641.00,2500.273816,N,12119.302129,E,1,11,1.7,118.0,M,16.6,M,,*70
$GPGSV,3,1,11,01,42,032,17,02,16,042,17,06,19,234,26,07,18,192,19,1*60
$GPGSV,3,2,11,14,64,323,22,17,41,322,21,19,20,295,25,22,42,323,16,1*63
$GPGSV,3,3,11,30,31,227,26,03,48,097,,08,11,084,,1*53
$GLGSV,2,1,05,78,66,300,15,77,41,168,21,79,16,329,17,88,47,343,19,1*77
$GLGSV,2,2,05,81,30,270,34,1*45
$GAGSV,2,1,05,33,63,251,33,21,39,129,,23,80,008,,26,56,022,,7*73
$GAGSV,2,2,05,31,29,322,,7*4C
$GQGSV,1,1,01,-188,28,147,20,1*42
$GBGSV,4,1,15,02,36,236,29,03,56,202,31,06,33,213,26,08,30,177,25,1*71
$GBGSV,4,2,15,09,38,230,26,10,51,322,18,16,28,202,19,01,49,135,,1*72
$GBGSV,4,3,15,04,37,116,,05,14,254,,07,60,340,,13,20,187,,1*78
$GBGSV,4,4,15,20,21,127,,29,54,329,,30,31,043,,1*43
$GNGSA,A,3,06,17,19,22,30,,,,,,,,1.7,1.5,0.9,1*31
$GNGSA,A,3,78,81,,,,,,,,,,,1.7,1.5,0.9,2*3F
$GNGSA,A,3,33,,,,,,,,,,,,1.7,1.5,0.9,3*38
$GNGSA,A,3,02,03,08,09,16,,,,,,,,1.7,1.5,0.9,4*38
$GNVTG,,T,,M,0.0,N,0.0,K,A*3D
$GNDTM,P90,,0000.000020,S,00000.000001,W,0.991,W84*4E
$GNRMC,045642.00,A,2500.273863,N,12119.302205,E,0.0,,020425,3.1,W,A,V*6F
$GNGNS,045642.00,2500.273863,N,12119.302205,E,AAAA,13,1.5,117.9,16.6,,,V*2A
$GNGGA,045642.00,2500.273863,N,12119.302205,E,1,12,1.5,117.9,M,16.6,M,,*7B
$GPGSV,3,1,11,01,42,032,17,02,16,042,17,06,19,234,26,14,64,323,22,1*69
$GPGSV,3,2,11,17,41,322,21,19,20,295,25,22,42,323,16,30,31,227,26,1*64
$GPGSV,3,3,11,03,48,097,,07,18,192,,08,11,084,,1*55
$GLGSV,2,1,05,78,66,300,15,77,41,168,22,79,16,329,17,88,47,343,19,1*74
$GLGSV,2,2,05,81,30,270,35,1*44
$GAGSV,2,1,05,33,63,251,34,21,39,129,,23,80,008,,26,56,022,,7*74
$GAGSV,2,2,05,31,29,322,,7*4C
$GQGSV,1,1,01,-188,28,147,20,1*42
$GBGSV,4,1,15,02,36,236,29,03,56,202,31,06,33,213,28,08,30,177,22,1*78
$GBGSV,4,2,15,09,38,230,25,10,51,322,18,16,28,202,19,01,49,135,,1*71
$GBGSV,4,3,15,04,37,116,,05,14,254,,07,60,340,,13,20,187,,1*78
$GBGSV,4,4,15,20,21,127,,29,54,329,,30,31,043,,1*43
$GNGSA,A,3,06,17,19,22,30,,,,,,,,1.8,1.5,0.9,1*3E
$GNGSA,A,3,78,81,,,,,,,,,,,1.8,1.5,0.9,2*30
$GNGSA,A,3,33,,,,,,,,,,,,1.8,1.5,0.9,3*37
$GNGSA,A,3,03,08,09,16,,,,,,,,,1.8,1.5,0.9,4*35
$GNVTG,,T,,M,0.0,N,0.0,K,A*3D
$GNDTM,P90,,0000.000020,S,00000.000001,W,0.991,W84*4E
$GNRMC,045643.00,A,2500.273857,N,12119.302196,E,0.0,,020425,3.1,W,A,V*60
$GNGNS,045643.00,2500.273857,N,12119.302196,E,AAAA,12,1.5,118.0,16.6,,,V*22
$GNGGA,045643.00,2500.273857,N,12119.302196,E,1,12,1.5,118.0,M,16.6,M,,*72
$GPGSV,3,1,11,01,42,032,17,02,16,042,17,06,19,234,27,14,64,323,22,1*68
$GPGSV,3,2,11,17,41,322,22,19,20,295,26,22,42,323,21,30,31,227,26,1*60
$GPGSV,3,3,11,03,48,097,,07,18,192,,08,11,084,,1*55
$GLGSV,2,1,05,78,66,300,15,77,41,168,23,79,16,329,17,88,47,343,19,1*75
$GLGSV,2,2,05,81,30,270,36,1*47
$GAGSV,2,1,05,33,63,251,34,21,39,129,,23,80,008,,26,56,022,,7*74
$GAGSV,2,2,05,31,29,322,,7*4C
$GQGSV,1,1,01,-188,28,147,20,1*42
$GBGSV,4,1,15,02,36,236,29,03,56,202,31,06,33,213,26,08,30,177,22,1*76
$GBGSV,4,2,15,09,38,230,26,10,51,322,18,16,28,202,19,01,49,135,,1*72
$GBGSV,4,3,15,04,37,116,,05,14,254,,07,60,340,,13,20,187,,1*78
$GBGSV,4,4,15,20,21,127,,29,54,329,,30,31,043,,1*43
$GNGSA,A,3,06,17,19,22,30,,,,,,,,1.8,1.5,0.9,1*3E
$GNGSA,A,3,78,81,,,,,,,,,,,1.8,1.5,0.9,2*30
$GNGSA,A,3,33,,,,,,,,,,,,1.8,1.5,0.9,3*37
$GNGSA,A,3,03,08,09,16,,,,,,,,,1.8,1.5,0.9,4*35
$GNVTG,,T,,M,0.0,N,0.0,K,A*3D
$GNDTM,P90,,0000.000020,S,00000.000001,W,0.991,W84*4E
$GNRMC,045644.00,A,2500.273922,N,12119.302293,E,0.0,,020425,3.1,W,A,V*62
$GNGNS,045644.00,2500.273922,N,12119.302293,E,AAAA,12,1.5,117.9,16.6,,,V*26
$GNGGA,045644.00,2500.273922,N,12119.302293,E,1,12,1.5,117.9,M,16.6,M,,*76
$GPGSV,3,1,11,01,42,032,17,02,16,042,17,06,19,234,26,14,64,323,22,1*69
$GPGSV,3,2,11,17,41,322,21,19,20,295,27,22,42,323,22,30,31,227,26,1*61
$GPGSV,3,3,11,03,48,097,,07,18,192,,08,11,084,,1*55
$GLGSV,2,1,05,78,66,300,18,77,41,168,24,79,16,329,17,88,47,343,19,1*7F
$GLGSV,2,2,05,81,30,270,36,1*47
$GAGSV,2,1,05,33,63,251,34,21,39,129,,23,80,008,,26,56,022,,7*74
$GAGSV,2,2,05,31,29,322,,7*4C
$GQGSV,1,1,01,-188,28,147,20,1*42
$GBGSV,4,1,15,02,36,236,29,03,56,202,31,06,33,213,26,08,30,177,22,1*76
$GBGSV,4,2,15,09,38,230,27,10,51,322,18,16,28,202,18,01,49,135,,1*72
$GBGSV,4,3,15,04,37,116,,05,14,254,,07,60,340,,13,20,187,,1*78
$GBGSV,4,4,15,20,21,127,,29,54,329,,30,31,043,,1*43
$GNGSA,A,3,06,17,19,22,30,,,,,,,,1.8,1.5,0.9,1*3E
$GNGSA,A,3,78,81,,,,,,,,,,,1.8,1.5,0.9,2*30
$GNGSA,A,3,33,,,,,,,,,,,,1.8,1.5,0.9,3*37
$GNGSA,A,3,03,08,09,16,,,,,,,,,1.8,1.5,0.9,4*35
$GNVTG,,T,,M,0.0,N,0.0,K,A*3D
$GNDTM,P90,,0000.000020,S,00000.000001,W,0.991,W84*4E
$GNRMC,045645.00,A,2500.274046,N,12119.302479,E,0.0,,020425,3.1,W,A,V*6D
$GNGNS,045645.00,2500.274046,N,12119.302479,E,AAAA,12,1.5,117.6,16.6,,,V*26
$GNGGA,045645.00,2500.274046,N,12119.302479,E,1,12,1.5,117.6,M,16.6,M,,*76
$GPGSV,3,1,11,01,42,032,17,02,16,042,17,06,19,234,26,14,64,323,22,1*69
$GPGSV,3,2,11,17,41,322,22,19,20,295,27,22,42,323,22,30,31,227,26,1*62
$GPGSV,3,3,11,03,48,097,,07,18,192,,08,11,084,,1*55
$GLGSV,2,1,05,78,66,300,18,77,41,168,23,79,16,329,17,88,47,343,19,1*78
$GLGSV,2,2,05,81,30,270,36,1*47
$GAGSV,2,1,05,33,63,251,34,21,39,129,,23,80,008,,26,56,022,,7*74
$GAGSV,2,2,05,31,29,322,,7*4C
$GQGSV,1,1,01,-188,28,147,20,1*42
$GBGSV,4,1,15,02,36,236,29,03,56,202,32,06,33,213,26,08,30,177,23,1*74
$GBGSV,4,2,15,09,38,230,27,10,51,322,18,16,28,202,18,01,49,135,,1*72
$GBGSV,4,3,15,04,37,116,,05,14,254,,07,60,340,,13,20,187,,1*78
$GBGSV,4,4,15,20,21,127,,29,54,329,,30,31,043,,1*43
$GNGSA,A,3,06,17,19,22,30,,,,,,,,1.8,1.5,0.9,1*3E
$GNGSA,A,3,78,81,,,,,,,,,,,1.8,1.5,0.9,2*30
$GNGSA,A,3,33,,,,,,,,,,,,1.8,1.5,0.9,3*37
$GNGSA,A,3,03,08,09,16,,,,,,,,,1.8,1.5,0.9,4*35
$GNVTG,,T,,M,0.0,N,0.0,K,A*3D
$GNDTM,P90,,0000.000020,S,00000.000001,W,0.991,W84*4E
$GNRMC,045646.00,A,2500.274031,N,12119.302470,E,0.0,,020425,3.1,W,A,V*67
$GNGNS,045646.00,2500.274031,N,12119.302470,E,AAAA,12,1.5,117.7,16.6,,,V*2D
$GNGGA,045646.00,2500.274031,N,12119.302470,E,1,12,1.5,117.7,M,16.6,M,,*7D
$GPGSV,3,1,11,01,42,032,17,02,16,042,17,06,19,234,26,14,64,323,22,1*69
$GPGSV,3,2,11,17,41,322,24,19,20,295,27,22,42,323,19,30,31,227,26,1*6C
$GPGSV,3,3,11,03,48,097,,07,18,192,,08,11,084,,1*55
$GLGSV,2,1,05,78,66,300,17,77,41,168,23,79,16,329,17,88,47,343,19,1*77
$GLGSV,2,2,05,81,30,270,36,1*47
$GAGSV,2,1,05,33,63,251,34,21,39,129,,23,80,008,,26,56,022,,7*74
$GAGSV,2,2,05,31,29,322,,7*4C
$GQGSV,1,1,01,-188,28,147,20,1*42
$GBGSV,4,1,15,02,36,236,29,03,56,202,32,06,33,213,25,08,30,177,22,1*76
$GBGSV,4,2,15,09,38,230,26,10,51,322,18,16,28,202,18,01,49,135,,1*73
$GBGSV,4,3,15,04,37,116,,05,14,254,,07,60,340,,13,20,187,,1*78
$GBGSV,4,4,15,20,21,127,,29,54,329,,30,31,043,,1*43
$GNGSA,A,3,06,17,19,22,,,,,,,,,1.8,1.6,0.9,1*3E
$GNGSA,A,3,78,81,,,,,,,,,,,1.8,1.6,0.9,2*33
$GNGSA,A,3,33,,,,,,,,,,,,1.8,1.6,0.9,3*34
$GNGSA,A,3,03,08,09,16,,,,,,,,,1.8,1.6,0.9,4*36
$GNVTG,,T,,M,0.0,N,0.0,K,A*3D
$GNDTM,P90,,0000.000020,S,00000.000001,W,0.991,W84*4E
$GNRMC,045647.00,A,2500.274069,N,12119.302533,E,0.0,,020425,3.1,W,A,V*6D
$GNGNS,045647.00,2500.274069,N,12119.302533,E,AAAA,11,1.6,117.6,16.6,,,V*26
$GNGGA,045647.00,2500.274069,N,12119.302533,E,1,11,1.6,117.6,M,16.6,M,,*76
$GPGSV,3,1,11,06,19,234,26,14,64,323,22,17,41,322,23,19,20,295,27,1*6C
$GPGSV,3,2,11,22,42,323,19,30,31,227,26,01,42,032,,02,16,042,,1*6E
$GPGSV,3,3,11,03,48,097,,07,18,192,,08,11,084,,1*55
$GLGSV,2,1,05,78,66,300,17,77,41,168,23,88,47,343,19,81,30,270,35,1*79
$GLGSV,2,2,05,65,16,329,,1*41
$GAGSV,2,1,05,33,63,251,34,21,39,129,,23,80,008,,26,56,022,,7*74
$GAGSV,2,2,05,31,29,322,,7*4C
$GBGSV,4,1,15,02,36,236,29,03,56,202,32,06,33,213,26,08,30,177,23,1*74
$GBGSV,4,2,15,09,38,230,27,16,28,202,18,01,49,135,,04,37,116,,1*7B
$GBGSV,4,3,15,05,14,254,,07,60,340,,10,51,322,,13,20,187,,1*78
$GBGSV,4,4,15,20,21,127,,29,54,329,,30,31,043,,1*43
$GNGSA,A,3,06,17,19,22,,,,,,,,,1.8,1.6,0.9,1*3E
$GNGSA,A,3,78,81,,,,,,,,,,,1.8,1.6,0.9,2*33
$GNGSA,A,3,33,,,,,,,,,,,,1.8,1.6,0.9,3*34
$GNGSA,A,3,03,08,09,16,,,,,,,,,1.8,1.6,0.9,4*36
$GNVTG,,T,,M,0.0,N,0.0,K,A*3D
$GNDTM,P90,,0000.000020,S,00000.000001,W,0.991,W84*4E
$GNRMC,045648.00,A,2500.274055,N,12119.302524,E,0.0,,020425,3.1,W,A,V*6B
$GNGNS,045648.00,2500.274055,N,12119.302524,E,AAAA,11,1.6,117.7,16.6,,,V*21
$GNGGA,045648.00,2500.274055,N,12119.302524,E,1,11,1.6,117.7,M,16.6,M,,*71
$GPGSV,3,1,11,06,19,234,26,14,64,323,22,17,41,322,22,19,20,295,27,1*6D
$GPGSV,3,2,11,22,42,323,19,30,31,227,26,01,42,032,,02,16,042,,1*6E
$GPGSV,3,3,11,03,48,097,,07,18,192,,08,11,084,,1*55
$GLGSV,2,1,05,78,66,300,17,77,41,168,24,88,47,343,19,81,30,270,35,1*7E
$GLGSV,2,2,05,79,16,329,,1*4C
$GAGSV,2,1,05,31,29,322,18,33,63,251,34,21,39,129,,23,80,008,,7*70
$GAGSV,2,2,05,26,56,022,,7*41
$GBGSV,4,1,15,02,36,236,29,03,56,202,32,06,33,213,26,08,30,177,23,1*74
$GBGSV,4,2,15,09,38,230,27,16,28,202,18,01,49,135,,04,37,116,,1*7B
$GBGSV,4,3,15,05,14,254,,07,60,340,,10,51,322,,13,20,187,,1*78
$GBGSV,4,4,15,20,21,127,,29,54,329,,30,31,043,,1*43
$GNGSA,A,3,06,17,19,22,,,,,,,,,1.8,1.6,0.9,1*3E
$GNGSA,A,3,78,81,,,,,,,,,,,1.8,1.6,0.9,2*33
$GNGSA,A,3,31,33,,,,,,,,,,,1.8,1.6,0.9,3*36
$GNGSA,A,3,03,08,09,16,,,,,,,,,1.8,1.6,0.9,4*36
$GNVTG,,T,,M,0.0,N,0.0,K,A*3D
$GNDTM,P90,,0000.000020,S,00000.000001,W,0.991,W84*4E
$GNRMC,045649.00,A,2500.274022,N,12119.302490,E,0.0,,020425,3.1,W,A,V*64
$GNGNS,045649.00,2500.274022,N,12119.302490,E,AAAA,12,1.6,117.8,16.6,,,V*22
$GNGGA,045649.00,2500.274022,N,12119.302490,E,1,12,1.6,117.8,M,16.6,M,,*72
$GPGSV,3,1,11,06,19,234,27,14,64,323,22,17,41,322,25,19,20,295,27,1*6B
$GPGSV,3,2,11,22,42,323,19,30,31,227,26,01,42,032,,02,16,042,,1*6E
$GPGSV,3,3,11,03,48,097,,07,18,192,,08,11,084,,1*55
$GLGSV,2,1,05,78,66,300,17,77,41,168,20,88,47,343,19,81,30,270,36,1*79
$GLGSV,2,2,05,79,16,329,,1*4C
$GAGSV,2,1,05,31,29,322,18,33,63,251,34,21,39,129,,23,80,008,,7*70
$GAGSV,2,2,05,26,56,022,,7*41
$GBGSV,4,1,15,02,36,236,29,03,56,202,33,06,33,213,27,08,30,177,22,1*75
$GBGSV,4,2,15,09,38,230,27,16,28,202,18,01,49,135,,04,37,116,,1*7B
$GBGSV,4,3,15,05,14,254,,07,60,340,,10,51,322,,13,20,187,,1*78
$GBGSV,4,4,15,20,21,127,,29,54,329,,30,31,043,,1*43
$GNGSA,A,3,06,17,19,22,,,,,,,,,1.8,1.6,0.9,1*3E
$GNGSA,A,3,78,81,,,,,,,,,,,1.8,1.6,0.9,2*33
$GNGSA,A,3,31,33,,,,,,,,,,,1.8,1.6,0.9,3*36
$GNGSA,A,3,03,08,09,16,,,,,,,,,1.8,1.6,0.9,4*36
$GNVTG,,T,,M,0.0,N,0.0,K,A*3D
$GNDTM,P90,,0000.000020,S,00000.000001,W,0.991,W84*4E
$GNRMC,045650.00,A,2500.274033,N,12119.302514,E,0.0,,020425,3.1,W,A,V*61
$GNGNS,045650.00,2500.274033,N,12119.302514,E,AAAA,12,1.6,117.8,16.6,,,V*27
$GNGGA,045650.00,2500.274033,N,12119.302514,E,1,12,1.6,117.8,M,16.6,M,,*77
$GPGSV,3,1,11,06,19,234,25,14,64,323,22,17,41,322,22,19,20,295,25,1*6C
$GPGSV,3,2,11,22,42,323,19,01,42,032,,02,16,042,,03,48,097,,1*6D
$GPGSV,3,3,11,07,18,192,,08,11,084,,30,31,227,,1*52
$GLGSV,2,1,05,78,66,300,17,77,41,168,22,88,47,343,19,81,30,270,36,1*7B
$GLGSV,2,2,05,79,16,329,,1*4C
$GAGSV,2,1,05,31,29,322,18,33,63,251,34,21,39,129,,23,80,008,,7*70
$GAGSV,2,2,05,26,56,022,,7*41
$GBGSV,4,1,15,02,36,236,29,03,56,202,33,06,33,213,26,08,30,177,23,1*75
$GBGSV,4,2,15,09,38,230,27,16,28,202,18,01,49,135,,04,37,116,,1*7B
$GBGSV,4,3,15,05,14,254,,07,60,340,,10,51,322,,13,20,187,,1*78
$GBGSV,4,4,15,20,21,127,,29,54,329,,30,31,043,,1*43
$GNGSA,A,3,06,17,19,22,,,,,,,,,1.8,1.6,0.9,1*3E
$GNGSA,A,3,78,81,,,,,,,,,,,1.8,1.6,0.9,2*33
$GNGSA,A,3,31,33,,,,,,,,,,,1.8,1.6,0.9,3*36
$GNGSA,A,3,03,08,09,,,,,,,,,,1.8,1.6,0.9,4*31
$GNVTG,,T,,M,0.0,N,0.0,K,A*3D
$GNDTM,P90,,0000.000020,S,00000.000001,W,0.991,W84*4E
$GNRMC,045651.00,A,2500.274023,N,12119.302504,E,0.0,,020425,3.1,W,A,V*60
$GNGNS,045651.00,2500.274023,N,12119.302504,E,AAAA,11,1.6,117.8,16.6,,,V*25
$GNGGA,045651.00,2500.274023,N,12119.302504,E,1,11,1.6,117.8,M,16.6,M,,*75
$GPGSV,3,1,11,06,19,234,23,14,64,323,22,17,41,322,22,19,20,295,25,1*6A
$GPGSV,3,2,11,22,42,323,20,01,42,032,,02,16,042,,03,48,097,,1*67
$GPGSV,3,3,11,07,18,192,,08,11,084,,30,31,227,,1*52
$GLGSV,2,1,05,78,66,300,17,77,41,168,21,88,47,343,19,81,30,270,35,1*7B
$GLGSV,2,2,05,79,16,329,,1*4C
$GAGSV,2,1,05,31,29,322,18,33,63,251,34,21,39,129,,23,80,008,,7*70
$GAGSV,2,2,05,26,56,022,,7*41
$GBGSV,4,1,15,02,36,236,29,03,56,202,32,06,33,213,27,08,30,177,23,1*75
$GBGSV,4,2,15,09,38,230,26,16,28,202,18,01,49,135,,04,37,116,,1*7A
$GBGSV,4,3,15,05,14,254,,07,60,340,,10,51,322,,13,20,187,,1*78
$GBGSV,4,4,15,20,21,127,,29,54,329,,30,31,043,,1*43
$GNGSA,A,3,06,17,19,22,,,,,,,,,1.8,1.6,0.9,1*3E
$GNGSA,A,3,78,81,,,,,,,,,,,1.8,1.6,0.9,2*33
$GNGSA,A,3,31,33,,,,,,,,,,,1.8,1.6,0.9,3*36
$GNGSA,A,3,03,08,09,,,,,,,,,,1.8,1.6,0.9,4*31
$GNVTG,,T,,M,0.0,N,0.0,K,A*3D
$GNDTM,P90,,0000.000020,S,00000.000001,W,0.991,W84*4E
$GNRMC,045652.00,A,2500.274018,N,12119.302503,E,0.0,,020425,3.1,W,A,V*6C
$GNGNS,045652.00,2500.274018,N,12119.302503,E,AAAA,11,1.6,117.9,16.6,,,V*28
$GNGGA,045652.00,2500.274018,N,12119.302503,E,1,11,1.6,117.9,M,16.6,M,,*78
$GPGSV,3,1,11,06,19,234,20,07,18,192,15,14,64,323,22,17,41,322,22,1*6A
$GPGSV,3,2,11,19,20,295,22,22,42,323,20,01,42,032,,02,16,042,,1*62
$GPGSV,3,3,11,03,48,097,,08,11,084,,30,31,227,,1*57
$GLGSV,2,1,05,78,66,300,17,77,41,168,21,88,47,343,19,81,30,270,34,1*7A
$GLGSV,2,2,05,79,16,329,,1*4C
$GAGSV,2,1,05,31,29,322,18,33,63,251,35,21,39,129,,23,80,008,,7*71
$GAGSV,2,2,05,26,56,022,,7*41
$GBGSV,4,1,15,02,36,236,29,03,56,202,32,06,33,213,27,08,30,177,23,1*75
$GBGSV,4,2,15,09,38,230,25,16,28,202,18,01,49,135,,04,37,116,,1*79
$GBGSV,4,3,15,05,14,254,,07,60,340,,10,51,322,,13,20,187,,1*78
$GBGSV,4,4,15,20,21,127,,29,54,329,,30,31,043,,1*43
$GNGSA,A,3,06,07,17,19,22,,,,,,,,1.7,1.5,0.9,1*35
$GNGSA,A,3,78,81,,,,,,,,,,,1.7,1.5,0.9,2*3F
$GNGSA,A,3,31,33,,,,,,,,,,,1.7,1.5,0.9,3*3A
$GNGSA,A,3,03,08,09,,,,,,,,,,1.7,1.5,0.9,4*3D
$GNVTG,,T,,M,0.0,N,0.0,K,A*3D
$GNDTM,P90,,0000.000020,S,00000.000001,W,0.991,W84*4E
$GNRMC,045653.00,A,2500.274015,N,12119.302500,E,0.0,,020425,3.1,W,A,V*63
$GNGNS,045653.00,2500.274015,N,12119.302500,E,AAAA,12,1.5,117.9,16.6,,,V*27
$GNGGA,045653.00,2500.274015,N,12119.302500,E,1,12,1.5,117.9,M,16.6,M,,*77
$GPGSV,3,1,11,06,19,234,20,07,18,192,15,14,64,323,22,17,41,322,21,1*69
$GPGSV,3,2,11,19,20,295,20,22,42,323,20,30,31,227,20,01,42,032,,1*67
$GPGSV,3,3,11,02,16,042,,03,48,097,,08,11,084,,1*52
$GLGSV,2,1,05,78,66,300,17,77,41,168,21,88,47,343,19,81,30,270,34,1*7A
$GLGSV,2,2,05,79,16,329,,1*4C
$GAGSV,2,1,05,31,29,322,18,33,63,251,34,21,39,129,,23,80,008,,7*70
$GAGSV,2,2,05,26,56,022,,7*41
$GBGSV,4,1,15,02,36,236,29,03,56,202,32,06,33,213,27,08,30,177,24,1*72
$GBGSV,4,2,15,09,38,230,24,16,28,202,18,01,49,135,,04,37,116,,1*78
$GBGSV,4,3,15,05,14,254,,07,60,340,,10,51,322,,13,20,187,,1*78
$GBGSV,4,4,15,20,21,127,,29,54,329,,30,31,043,,1*43
$GNGSA,A,3,06,07,17,19,22,30,,,,,,,1.6,1.4,0.9,1*36
$GNGSA,A,3,78,81,,,,,,,,,,,1.6,1.4,0.9,2*3F
$GNGSA,A,3,31,33,,,,,,,,,,,1.6,1.4,0.9,3*3A
$GNGSA,A,3,03,08,09,,,,,,,,,,1.6,1.4,0.9,4*3D
$GNVTG,,T,,M,0.0,N,0.0,K,A*3D
$GNDTM,P90,,0000.000020,S,00000.000001,W,0.991,W84*4E
$GNRMC,045654.00,A,2500.274013,N,12119.302500,E,0.0,,020425,3.1,W,A,V*62
$GNGNS,045654.00,2500.274013,N,12119.302500,E,AAAA,13,1.4,117.9,16.6,,,V*26
$GNGGA,045654.00,2500.274013,N,12119.302500,E,1,12,1.4,117.9,M,16.6,M,,*77
$GPGSV,3,1,11,06,19,234,21,07,18,192,15,17,41,322,23,19,20,295,20,1*69
$GPGSV,3,2,11,22,42,323,20,30,31,227,20,01,42,032,,02,16,042,,1*62
$GPGSV,3,3,11,03,48,097,,08,11,084,,14,64,323,,1*54
$GLGSV,2,1,05,78,66,300,15,77,41,168,18,88,47,343,13,81,30,270,35,1*79
$GLGSV,2,2,05,79,16,329,,1*4C
$GAGSV,2,1,05,31,29,322,18,33,63,251,34,21,39,129,,23,80,008,,7*70
$GAGSV,2,2,05,26,56,022,,7*41
$GBGSV,4,1,15,02,36,236,29,03,56,202,32,06,33,213,25,08,30,177,25,1*71
$GBGSV,4,2,15,09,38,230,27,16,28,202,18,01,49,135,,04,37,116,,1*7B
$GBGSV,4,3,15,05,14,254,,07,60,340,,10,51,322,,13,20,187,,1*78
$GBGSV,4,4,15,20,21,127,,29,54,329,,30,31,043,,1*43
$GNGSA,A,3,06,07,17,19,22,30,,,,,,,1.6,1.3,0.9,1*31
$GNGSA,A,3,78,81,88,,,,,,,,,,1.6,1.3,0.9,2*38
$GNGSA,A,3,33,,,,,,,,,,,,1.6,1.3,0.9,3*3F
$GNGSA,A,3,03,08,09,,,,,,,,,,1.6,1.3,0.9,4*3A
$GNVTG,,T,,M,0.0,N,0.0,K,A*3D
$GNDTM,P90,,0000.000020,S,00000.000001,W,0.991,W84*4E
$GNRMC,045655.00,A,2500.274010,N,12119.302497,E,0.0,,020425,3.1,W,A,V*6F
$GNGNS,045655.00,2500.274010,N,12119.302497,E,AAAA,13,1.3,117.9,16.6,,,V*2C
$GNGGA,045655.00,2500.274010,N,12119.302497,E,1,12,1.3,117.9,M,16.6,M,,*7D
$GPGSV,3,1,11,06,19,234,24,07,18,192,15,17,41,322,24,19,20,295,19,1*61
$GPGSV,3,2,11,22,42,323,20,30,31,227,22,01,42,032,,02,16,042,,1*60
$GPGSV,3,3,11,03,48,097,,08,11,084,,14,64,323,,1*54
$GLGSV,2,1,05,78,66,300,15,77,41,168,18,88,47,343,13,81,30,270,34,1*78
$GLGSV,2,2,05,79,16,329,,1*4C
$GAGSV,2,1,05,31,29,322,18,33,63,251,34,21,39,129,,23,80,008,,7*70
$GAGSV,2,2,05,26,56,022,,7*41
$GBGSV,4,1,15,02,36,236,29,03,56,202,32,06,33,213,28,08,30,177,22,1*7B
$GBGSV,4,2,15,09,38,230,25,16,28,202,18,01,49,135,,04,37,116,,1*79
$GBGSV,4,3,15,05,14,254,,07,60,340,,10,51,322,,13,20,187,,1*78
$GBGSV,4,4,15,20,21,127,,29,54,329,,30,31,043,,1*43
$GNGSA,A,3,06,07,17,19,22,30,,,,,,,1.6,1.3,0.9,1*31
$GNGSA,A,3,78,81,88,,,,,,,,,,1.6,1.3,0.9,2*38
$GNGSA,A,3,33,,,,,,,,,,,,1.6,1.3,0.9,3*3F
$GNGSA,A,3,03,08,09,,,,,,,,,,1.6,1.3,0.9,4*3A
$GNVTG,,T,,M,0.0,N,0.0,K,A*3D
$GNDTM,P90,,0000.000020,S,00000.000001,W,0.991,W84*4E
$GNRMC,045656.00,A,2500.274016,N,12119.302509,E,0.0,,020425,3.1,W,A,V*6C
$GNGNS,045656.00,2500.274016,N,12119.302509,E,AAAA,13,1.3,117.9,16.6,,,V*2F
$GNGGA,045656.00,2500.274016,N,12119.302509,E,1,12,1.3,117.9,M,16.6,M,,*7E
$GPGSV,3,1,11,06,19,234,24,07,18,192,15,17,41,322,20,19,20,295,19,1*65
$GPGSV,3,2,11,22,42,323,22,30,31,227,22,01,42,032,,02,16,042,,1*62
$GPGSV,3,3,11,03,48,097,,08,11,084,,14,64,323,,1*54
$GLGSV,2,1,05,78,66,300,15,77,41,168,20,88,47,343,13,81,30,270,31,1*76
$GLGSV,2,2,05,79,16,329,,1*4C
$GAGSV,2,1,05,31,29,322,18,33,63,251,36,21,39,129,,23,80,008,,7*72
$GAGSV,2,2,05,26,56,022,,7*41
$GBGSV,4,1,15,02,36,236,29,03,56,202,33,06,33,213,25,08,30,177,22,1*77
$GBGSV,4,2,15,09,38,230,27,16,28,202,12,01,49,135,,04,37,116,,1*71
$GBGSV,4,3,15,05,14,254,,07,60,340,,10,51,322,,13,20,187,,1*78
$GBGSV,4,4,15,20,21,127,,29,54,329,,30,31,043,,1*43
$GNGSA,A,3,06,07,17,19,22,30,,,,,,,1.6,1.3,0.9,1*31
$GNGSA,A,3,78,81,88,,,,,,,,,,1.6,1.3,0.9,2*38
$GNGSA,A,3,33,,,,,,,,,,,,1.6,1.3,0.9,3*3F
$GNGSA,A,3,03,08,09,16,,,,,,,,,1.6,1.3,0.9,4*3D
$GNVTG,,T,,M,0.0,N,0.0,K,A*3D
$GNDTM,P90,,0000.000020,S,00000.000001,W,0.991,W84*4E
$GNRMC,045657.00,A,2500.274021,N,12119.302514,E,0.0,,020425,3.1,W,A,V*65
$GNGNS,045657.00,2500.274021,N,12119.302514,E,AAAA,14,1.3,117.9,16.6,,,V*21
$GNGGA,045657.00,2500.274021,N,12119.302514,E,1,12,1.3,117.9,M,16.6,M,,*77
$GPGSV,3,1,11,06,19,234,23,07,18,192,15,17,41,322,20,19,20,295,22,1*6A
$GPGSV,3,2,11,22,42,323,22,30,31,227,22,01,42,032,,02,16,042,,1*62
$GPGSV,3,3,11,03,48,097,,08,11,084,,14,64,323,,1*54
$GLGSV,2,1,05,78,66,300,15,77,41,168,20,88,47,343,13,81,30,270,31,1*76
$GLGSV,2,2,05,79,16,329,,1*4C
$GAGSV,2,1,05,31,29,322,18,33,63,251,35,21,39,129,,23,80,008,,7*71
$GAGSV,2,2,05,26,56,022,,7*41
$GBGSV,4,1,14,02,36,236,29,03,56,202,33,06,33,213,24,08,30,177,22,1*77
$GBGSV,4,2,14,09,38,230,27,16,28,202,12,04,37,116,,05,14,254,,1*78
$GBGSV,4,3,14,07,60,340,,10,51,322,,13,20,187,,20,21,127,,1*7F
$GBGSV,4,4,14,29,54,329,,30,31,043,,1*77
$GNGSA,A,3,06,07,17,19,22,30,,,,,,,1.6,1.3,0.9,1*31
$GNGSA,A,3,78,81,88,,,,,,,,,,1.6,1.3,0.9,2*38
$GNGSA,A,3,33,,,,,,,,,,,,1.6,1.3,0.9,3*3F
$GNGSA,A,3,03,08,09,16,,,,,,,,,1.6,1.3,0.9,4*3D
$GNVTG,,T,,M,0.0,N,0.0,K,A*3D
$GNDTM,P90,,0000.000020,S,00000.000001,W,0.991,W84*4E
$GNRMC,045658.00,A,2500.274021,N,12119.302511,E,0.0,,020425,3.1,W,A,V*6F
$GNGNS,045658.00,2500.274021,N,12119.302511,E,AAAA,14,1.3,117.9,16.6,,,V*2B
$GNGGA,045658.00,2500.274021,N,12119.302511,E,1,12,1.3,117.9,M,16.6,M,,*7D
$GPGSV,3,1,11,06,19,234,23,07,18,192,15,17,41,322,20,19,20,295,25,1*6D
$GPGSV,3,2,11,22,42,323,22,30,31,227,20,01,42,032,,02,16,042,,1*60
$GPGSV,3,3,11,03,48,097,,08,11,084,,14,64,323,,1*54
$GLGSV,2,1,05,78,66,300,15,77,41,168,19,88,47,343,13,81,30,270,31,1*7C
$GLGSV,2,2,05,79,16,329,,1*4C
$GAGSV,2,1,05,31,29,322,18,33,63,251,35,21,39,129,,23,80,008,,7*71
$GAGSV,2,2,05,26,56,022,,7*41
$GBGSV,4,1,14,02,36,236,29,03,56,202,34,06,33,213,26,08,30,177,22,1*72
$GBGSV,4,2,14,09,38,230,28,16,28,202,12,04,37,116,,05,14,254,,1*77
$GBGSV,4,3,14,07,60,340,,10,51,322,,13,20,187,,20,21,127,,1*7F
$GBGSV,4,4,14,29,54,329,,30,31,043,,1*77
$GNGSA,A,3,06,17,19,22,30,,,,,,,,1.7,1.4,0.9,1*30
$GNGSA,A,3,78,81,88,,,,,,,,,,1.7,1.4,0.9,2*3E
$GNGSA,A,3,33,,,,,,,,,,,,1.7,1.4,0.9,3*39
$GNGSA,A,3,03,08,09,16,,,,,,,,,1.7,1.4,0.9,4*3B
$GNVTG,,T,,M,0.0,N,0.0,K,A*3D
$GNDTM,P90,,0000.000020,S,00000.000001,W,0.991,W84*4E
$GNRMC,045659.00,A,2500.274019,N,12119.302514,E,0.0,,020425,3.1,W,A,V*60
$GNGNS,045659.00,2500.274019,N,12119.302514,E,AAAA,13,1.4,117.9,16.6,,,V*24
$GNGGA,045659.00,2500.274019,N,12119.302514,E,1,12,1.4,117.9,M,16.6,M,,*75
$GPGSV,3,1,11,06,19,234,23,07,18,192,15,17,41,322,20,19,20,295,22,1*6A
$GPGSV,3,2,11,22,42,323,19,30,31,227,20,01,42,032,,02,16,042,,1*68
$GPGSV,3,3,11,03,48,097,,08,11,084,,14,64,323,,1*54
$GLGSV,2,1,05,78,66,300,15,77,41,168,21,88,47,343,13,81,30,270,33,1*75
$GLGSV,2,2,05,79,16,329,,1*4C
$GAGSV,2,1,05,31,29,322,18,33,63,251,35,21,39,129,,23,80,008,,7*71
$GAGSV,2,2,05,26,56,022,,7*41
$GBGSV,4,1,14,02,36,236,29,03,56,202,34,06,33,213,25,08,30,177,22,1*71
$GBGSV,4,2,14,09,38,230,27,16,28,202,12,04,37,116,,05,14,254,,1*78
$GBGSV,4,3,14,07,60,340,,10,51,322,,13,20,187,,20,21,127,,1*7F
$GBGSV,4,4,14,29,54,329,,30,31,043,,1*77
$GNGSA,A,3,06,17,19,22,30,,,,,,,,1.7,1.4,0.9,1*30
$GNGSA,A,3,78,81,88,,,,,,,,,,1.7,1.4,0.9,2*3E
$GNGSA,A,3,33,,,,,,,,,,,,1.7,1.4,0.9,3*39
$GNGSA,A,3,03,08,09,16,,,,,,,,,1.7,1.4,0.9,4*3B
$GNVTG,,T,,M,0.0,N,0.0,K,A*3D
$GNDTM,P90,,0000.000020,S,00000.000001,W,0.991,W84*4E
$GNRMC,045700.00,A,2500.274016,N,12119.302515,E,0.0,,020425,3.1,W,A,V*63
$GNGNS,045700.00,2500.274016,N,12119.302515,E,AAAA,13,1.4,117.9,16.6,,,V*27
$GNGGA,045700.00,2500.274016,N,12119.302515,E,1,12,1.4,117.9,M,16.6,M,,*76
$GPGSV,3,1,11,06,19,234,23,07,18,192,15,17,41,322,22,19,20,295,22,1*68
$GPGSV,3,2,11,22,42,323,22,30,31,227,20,01,42,032,,02,16,042,,1*60
$GPGSV,3,3,11,03,48,097,,08,11,084,,14,64,323,,1*54
$GLGSV,2,1,05,78,66,300,15,77,41,168,21,88,47,343,13,81,30,270,33,1*75
$GLGSV,2,2,05,79,16,329,,1*4C
$GAGSV,2,1,05,31,29,322,18,33,63,251,35,21,39,129,,23,80,008,,7*71
$GAGSV,2,2,05,26,56,022,,7*41
$GBGSV,4,1,13,03,56,202,33,06,33,213,26,08,30,177,18,09,38,230,27,1*76
$GBGSV,4,2,13,16,28,202,12,04,37,116,,05,14,254,,07,60,340,,1*7F
$GBGSV,4,3,13,10,51,322,,13,20,187,,20,21,127,,29,54,329,,1*7C
$GBGSV,4,4,13,30,31,043,,1*42
$GNGSA,A,3,06,17,19,22,30,,,,,,,,1.8,1.5,0.9,1*3E
$GNGSA,A,3,78,81,,,,,,,,,,,1.8,1.5,0.9,2*30
$GNGSA,A,3,33,,,,,,,,,,,,1.8,1.5,0.9,3*37
$GNGSA,A,3,03,08,09,16,,,,,,,,,1.8,1.5,0.9,4*35
$GNVTG,,T,,M,0.0,N,0.0,K,A*3D
$GNDTM,P90,,0000.000020,S,00000.000001,W,0.991,W84*4E
$GNRMC,045701.00,A,2500.274011,N,12119.302513,E,0.0,,020425,3.1,W,A,V*63
$GNGNS,045701.00,2500.274011,N,12119.302513,E,AAAA,12,1.5,117.9,16.6,,,V*27
$GNGGA,045701.00,2500.274011,N,12119.302513,E,1,12,1.5,117.9,M,16.6,M,,*77
$GPGSV,3,1,11,06,19,234,16,07,18,192,15,17,41,322,22,19,20,295,20,1*6C
$GPGSV,3,2,11,22,42,323,22,30,31,227,22,01,42,032,,02,16,042,,1*62
$GPGSV,3,3,11,03,48,097,,08,11,084,,14,64,323,,1*54
$GLGSV,2,1,05,78,66,300,17,77,41,168,17,88,47,343,13,81,30,270,33,1*72
$GLGSV,2,2,05,79,16,329,,1*4C
$GAGSV,2,1,05,31,29,322,18,33,63,251,35,21,39,129,,23,80,008,,7*71
$GAGSV,2,2,05,26,56,022,,7*41
$GBGSV,4,1,14,03,56,202,33,06,33,213,25,08,30,177,18,09,38,230,28,1*7D
$GBGSV,4,2,14,16,28,202,12,02,36,236,,04,37,116,,05,14,254,,1*7E
$GBGSV,4,3,14,07,60,340,,10,51,322,,13,20,187,,20,21,127,,1*7F
$GBGSV,4,4,14,29,54,329,,30,31,043,,1*77
$GNGSA,A,3,06,17,19,22,30,,,,,,,,1.8,1.5,0.9,1*3E
$GNGSA,A,3,78,81,,,,,,,,,,,1.8,1.5,0.9,2*30
$GNGSA,A,3,33,,,,,,,,,,,,1.8,1.5,0.9,3*37
$GNGSA,A,3,03,08,09,16,,,,,,,,,1.8,1.5,0.9,4*35
$GNVTG,,T,,M,0.0,N,0.0,K,A*3D
$GNDTM,P90,,0000.000020,S,00000.000001,W,0.991,W84*4E
$GNRMC,045702.00,A,2500.274013,N,12119.302516,E,0.0,,020425,3.1,W,A,V*67
$GNGNS,045702.00,2500.274013,N,12119.302516,E,AAAA,12,1.5,117.9,16.6,,,V*23
$GNGGA,045702.00,2500.274013,N,12119.302516,E,1,12,1.5,117.9,M,16.6,M,,*73
$GPGSV,3,1,11,06,19,234,20,07,18,192,15,17,41,322,24,19,20,295,22,1*6D
$GPGSV,3,2,11,22,42,323,24,30,31,227,22,01,42,032,,02,16,042,,1*64
$GPGSV,3,3,11,03,48,097,,08,11,084,,14,64,323,,1*54
$GLGSV,2,1,05,78,66,300,17,77,41,168,20,88,47,343,13,81,30,270,32,1*77
$GLGSV,2,2,05,79,16,329,,1*4C
$GAGSV,2,1,05,31,29,322,18,33,63,251,36,21,39,129,,23,80,008,,7*72
$GAGSV,2,2,05,26,56,022,,7*41
$GBGSV,4,1,13,03,56,202,33,06,33,213,26,08,30,177,18,09,38,230,27,1*76
$GBGSV,4,2,13,16,28,202,12,04,37,116,,05,14,254,,07,60,340,,1*7F
$GBGSV,4,3,13,10,51,322,,13,20,187,,20,21,127,,29,54,329,,1*7C
$GBGSV,4,4,13,30,31,043,,1*42
$GNGSA,A,3,06,17,19,22,30,,,,,,,,1.8,1.6,0.9,1*3D
$GNGSA,A,3,78,81,,,,,,,,,,,1.8,1.6,0.9,2*33
$GNGSA,A,3,33,,,,,,,,,,,,1.8,1.6,0.9,3*34
$GNGSA,A,3,03,08,09,,,,,,,,,,1.8,1.6,0.9,4*31
$GNVTG,,T,,M,0.0,N,0.0,K,A*3D
$GNDTM,P90,,0000.000020,S,00000.000001,W,0.991,W84*4E
$GNRMC,045703.00,A,2500.274013,N,12119.302517,E,0.0,,020425,3.1,W,A,V*67
$GNGNS,045703.00,2500.274013,N,12119.302517,E,AAAA,11,1.6,117.9,16.6,,,V*23
$GNGGA,045703.00,2500.274013,N,12119.302517,E,1,11,1.6,117.9,M,16.6,M,,*73
$GPGSV,3,1,11,06,19,234,21,07,18,192,15,17,41,322,24,19,20,295,22,1*6C
$GPGSV,3,2,11,22,42,323,22,30,31,227,22,01,42,032,,02,16,042,,1*62
$GPGSV,3,3,11,03,48,097,,08,11,084,,14,64,323,,1*54
$GLGSV,2,1,05,78,66,300,17,77,41,168,19,88,47,343,13,81,30,270,30,1*7F
$GLGSV,2,2,05,79,16,329,,1*4C
$GAGSV,2,1,05,31,29,322,18,33,63,251,35,21,39,129,,23,80,008,,7*71
$GAGSV,2,2,05,26,56,022,,7*41
$GBGSV,4,1,14,03,56,202,33,06,33,213,25,08,30,177,18,09,38,230,28,1*7D
$GBGSV,4,2,14,16,28,202,12,02,36,236,,04,37,116,,05,14,254,,1*7E
$GBGSV,4,3,14,07,60,340,,10,51,322,,13,20,187,,20,21,127,,1*7F
$GBGSV,4,4,14,29,54,329,,30,31,043,,1*77
$GNGSA,A,3,06,17,19,22,30,,,,,,,,1.8,1.6,0.9,1*3D
$GNGSA,A,3,78,81,,,,,,,,,,,1.8,1.6,0.9,2*33
$GNGSA,A,3,33,,,,,,,,,,,,1.8,1.6,0.9,3*34
$GNGSA,A,3,03,08,09,,,,,,,,,,1.8,1.6,0.9,4*31
$GNVTG,,T,,M,0.0,N,0.0,K,A*3D
$GNDTM,P90,,0000.000020,S,00000.000001,W,0.991,W84*4E
$GNRMC,045704.00,A,2500.274015,N,12119.302523,E,0.0,,020425,3.1,W,A,V*61
$GNGNS,045704.00,2500.274015,N,12119.302523,E,AAAA,11,1.6,117.9,16.6,,,V*25
$GNGGA,045704.00,2500.274015,N,12119.302523,E,1,11,1.6,117.9,M,16.6,M,,*75
$GPGSV,3,1,11,06,19,234,25,07,18,192,15,17,41,322,23,19,20,295,24,1*69
$GPGSV,3,2,11,22,42,323,22,30,31,227,21,01,42,032,,02,16,042,,1*61
$GPGSV,3,3,11,03,48,097,,08,11,084,,14,64,323,,1*54
$GLGSV,2,1,05,78,66,300,17,77,41,168,20,88,47,343,13,81,30,271,27,1*72
$GLGSV,2,2,05,79,16,329,,1*4C
$GAGSV,2,1,05,31,29,322,18,33,63,251,35,21,39,129,,23,80,008,,7*71
$GAGSV,2,2,05,26,56,022,,7*41
$GBGSV,4,1,14,03,56,202,32,06,33,213,22,08,30,177,18,09,38,230,28,1*7B
$GBGSV,4,2,14,16,28,202,12,02,36,236,,04,37,116,,05,14,254,,1*7E
$GBGSV,4,3,14,07,60,340,,10,51,322,,13,20,187,,20,21,127,,1*7F
$GBGSV,4,4,14,29,54,329,,30,31,043,,1*77
$GNGSA,A,3,06,17,19,22,30,,,,,,,,1.8,1.6,0.9,1*3D
$GNGSA,A,3,78,81,,,,,,,,,,,1.8,1.6,0.9,2*33
$GNGSA,A,3,33,,,,,,,,,,,,1.8,1.6,0.9,3*34
$GNGSA,A,3,03,08,09,,,,,,,,,,1.8,1.6,0.9,4*31
$GNVTG,,T,,M,0.0,N,0.0,K,A*3D
$GNDTM,P90,,0000.000020,S,00000.000001,W,0.991,W84*4E
$GNRMC,045705.00,A,2500.274021,N,12119.302536,E,0.0,,020425,3.1,W,A,V*63
$GNGNS,045705.00,2500.274021,N,12119.302536,E,AAAA,11,1.6,117.9,16.6,,,V*27
$GNGGA,045705.00,2500.274021,N,12119.302536,E,1,11,1.6,117.9,M,16.6,M,,*77
$GPGSV,3,1,11,06,19,234,22,07,18,192,15,17,41,322,24,19,20,295,24,1*69
$GPGSV,3,2,11,22,42,323,24,30,31,227,24,01,42,032,,02,16,042,,1*62
$GPGSV,3,3,11,03,48,097,,08,11,084,,14,64,323,,1*54
$GLGSV,2,1,05,78,66,300,17,77,41,168,20,88,47,343,13,81,30,271,32,1*76
$GLGSV,2,2,05,79,16,329,,1*4C
$GAGSV,2,1,05,31,29,322,18,33,63,251,36,21,39,129,,23,80,008,,7*72
$GAGSV,2,2,05,26,56,022,,7*41
$GBGSV,4,1,14,03,56,202,32,06,33,213,24,08,30,177,21,09,38,230,28,1*77
$GBGSV,4,2,14,16,28,202,12,02,36,236,,04,37,116,,05,14,254,,1*7E
$GBGSV,4,3,14,07,60,340,,10,51,322,,13,20,187,,20,21,127,,1*7F
$GBGSV,4,4,14,29,54,329,,30,31,043,,1*77
$GNGSA,A,3,06,17,19,22,30,,,,,,,,1.8,1.6,0.9,1*3D
$GNGSA,A,3,78,81,,,,,,,,,,,1.8,1.6,0.9,2*33
$GNGSA,A,3,33,,,,,,,,,,,,1.8,1.6,0.9,3*34
$GNGSA,A,3,03,08,09,,,,,,,,,,1.8,1.6,0.9,4*31
$GNVTG,,T,,M,0.0,N,0.0,K,A*3D
$GNDTM,P90,,0000.000020,S,00000.000001,W,0.991,W84*4E
$GNRMC,045706.00,A,2500.274024,N,12119.302548,E,0.0,,020425,3.1,W,A,V*6C
$GNGNS,045706.00,2500.274024,N,12119.302548,E,AAAA,11,1.6,117.9,16.6,,,V*28
$GNGGA,045706.00,2500.274024,N,12119.302548,E,1,11,1.6,117.9,M,16.6,M,,*78
$GPGSV,3,1,11,06,19,234,24,07,18,192,15,17,41,322,21,19,20,295,23,1*6D
$GPGSV,3,2,11,22,42,323,22,30,31,227,24,01,42,032,,02,16,042,,1*64
$GPGSV,3,3,11,03,48,097,,08,11,084,,14,64,323,,1*54
$GLGSV,2,1,05,78,66,300,17,77,41,168,20,88,47,343,13,81,30,271,32,1*76
$GLGSV,2,2,05,79,16,329,,1*4C
$GAGSV,2,1,05,31,29,322,18,33,63,251,36,21,39,129,,23,80,008,,7*72
$GAGSV,2,2,05,26,56,022,,7*41
$GBGSV,4,1,14,03,56,202,32,06,33,213,24,08,30,177,23,09,38,230,28,1*75
$GBGSV,4,2,14,16,28,202,12,02,36,236,,04,37,116,,05,14,254,,1*7E
$GBGSV,4,3,14,07,60,340,,10,51,322,,13,20,187,,20,21,127,,1*7F
$GBGSV,4,4,14,29,54,329,,30,31,043,,1*77
$GNGSA,A,3,06,17,19,22,30,,,,,,,,1.8,1.6,0.9,1*3D
$GNGSA,A,3,78,81,,,,,,,,,,,1.8,1.6,0.9,2*33
$GNGSA,A,3,33,,,,,,,,,,,,1.8,1.6,0.9,3*34
$GNGSA,A,3,03,08,09,,,,,,,,,,1.8,1.6,0.9,4*31
$GNVTG,,T,,M,0.0,N,0.0,K,A*3D
$GNDTM,P90,,0000.000020,S,00000.000001,W,0.991,W84*4E
$GNRMC,045707.00,A,2500.274027,N,12119.302559,E,0.0,,020425,3.1,W,A,V*6E
$GNGNS,045707.00,2500.274027,N,12119.302559,E,AAAA,11,1.6,117.9,16.6,,,V*2A
$GNGGA,045707.00,2500.274027,N,12119.302559,E,1,11,1.6,117.9,M,16.6,M,,*7A
$GPGSV,3,1,11,06,19,234,24,07,18,192,15,17,41,322,22,19,20,295,26,1*6B
$GPGSV,3,2,11,22,42,323,22,30,31,227,24,01,42,032,,02,16,042,,1*64
$GPGSV,3,3,11,03,48,097,,08,11,084,,14,64,323,,1*54
$GLGSV,2,1,05,78,66,300,17,77,41,168,20,88,47,343,13,81,30,271,30,1*74
$GLGSV,2,2,05,79,16,329,,1*4C
$GAGSV,2,1,05,31,29,322,18,33,63,251,35,21,39,129,,23,80,008,,7*71
$GAGSV,2,2,05,26,56,022,,7*41
$GBGSV,4,1,14,03,56,202,32,06,33,213,24,08,30,177,23,09,38,230,29,1*74
$GBGSV,4,2,14,16,28,202,12,02,36,236,,04,37,116,,05,14,254,,1*7E
$GBGSV,4,3,14,07,60,340,,10,51,322,,13,20,187,,20,21,127,,1*7F
$GBGSV,4,4,14,29,54,329,,30,31,043,,1*77
$GNGSA,A,3,06,17,19,22,30,,,,,,,,1.9,1.6,0.9,1*3C
$GNGSA,A,3,81,,,,,,,,,,,,1.9,1.6,0.9,2*3D
$GNGSA,A,3,33,,,,,,,,,,,,1.9,1.6,0.9,3*35
$GNGSA,A,3,03,08,09,,,,,,,,,,1.9,1.6,0.9,4*30
$GNVTG,,T,,M,0.0,N,0.0,K,A*3D
$GNDTM,P90,,0000.000020,S,00000.000001,W,0.991,W84*4E
$GNRMC,045708.00,A,2500.274028,N,12119.302572,E,0.0,,020425,3.1,W,A,V*67
$GNGNS,045708.00,2500.274028,N,12119.302572,E,AAAA,10,1.6,117.9,16.6,,,V*22
$GNGGA,045708.00,2500.274028,N,12119.302572,E,1,10,1.6,117.9,M,16.6,M,,*72
$GPGSV,3,1,11,06,19,234,22,07,18,192,15,17,41,322,22,19,20,295,23,1*68
$GPGSV,3,2,11,22,42,323,21,30,31,227,24,01,42,032,,02,16,042,,1*67
$GPGSV,3,3,11,03,48,097,,08,11,084,,14,64,323,,1*54
$GLGSV,2,1,05,78,66,300,17,77,41,168,16,88,47,343,13,81,30,271,30,1*71
$GLGSV,2,2,05,79,16,329,,1*4C
$GAGSV,2,1,05,31,29,322,18,33,63,251,35,21,39,129,,23,80,008,,7*71
$GAGSV,2,2,05,26,56,022,,7*41
$GBGSV,4,1,14,03,56,202,32,06,33,213,25,08,30,177,23,09,38,230,29,1*75
$GBGSV,4,2,14,16,28,202,12,02,36,236,,04,37,116,,05,14,254,,1*7E
$GBGSV,4,3,14,07,60,340,,10,51,322,,13,20,187,,20,21,127,,1*7F
$GBGSV,4,4,14,29,54,329,,30,31,043,,1*77
$GNGSA,A,3,06,17,19,22,30,,,,,,,,1.9,1.6,0.9,1*3C
$GNGSA,A,3,81,,,,,,,,,,,,1.9,1.6,0.9,2*3D
$GNGSA,A,3,33,,,,,,,,,,,,1.9,1.6,0.9,3*35
$GNGSA,A,3,03,08,09,,,,,,,,,,1.9,1.6,0.9,4*30
$GNVTG,,T,,M,0.0,N,0.0,K,A*3D
$GNDTM,P90,,0000.000020,S,00000.000001,W,0.991,W84*4E
$GNRMC,045709.00,A,2500.274024,N,12119.302572,E,0.0,,020425,3.1,W,A,V*6A
$GNGNS,045709.00,2500.274024,N,12119.302572,E,AAAA,10,1.6,118.0,16.6,,,V*29
$GNGGA,045709.00,2500.274024,N,12119.302572,E,1,10,1.6,118.0,M,16.6,M,,*79
$GPGSV,3,1,11,06,19,234,22,07,18,192,15,17,41,322,24,19,20,295,27,1*6A
$GPGSV,3,2,11,22,42,323,22,30,31,227,24,01,42,032,,02,16,042,,1*64
$GPGSV,3,3,11,03,48,097,,08,11,084,,14,64,323,,1*54
$GLGSV,2,1,05,78,66,300,17,77,41,168,16,88,47,343,13,81,30,271,31,1*70
$GLGSV,2,2,05,79,16,329,,1*4C
$GAGSV,1,1,04,33,63,251,35,21,39,129,,23,80,008,,26,56,022,,7*77
$GBGSV,4,1,14,03,56,202,32,06,33,213,27,08,30,177,23,09,38,230,29,1*77
$GBGSV,4,2,14,16,28,202,12,02,36,236,,04,37,116,,05,14,254,,1*7E
$GBGSV,4,3,14,07,60,340,,10,51,322,,13,20,187,,20,21,127,,1*7F
$GBGSV,4,4,14,29,54,329,,30,31,043,,1*77
