GPGGA,045718.000,3730.6802,N,12652.4389,E,1,08,1.2,23.7,M,19.4,M,,0000*6D
$GPGSA,A,3,18,31,30,09,12,14,22,27,,,,,1.8,1.2,1.4*3F
$GPGSV,3,1,11,30,70,124,42,14,63,335,37,22,51,204,37,12,47,057,39*71
$GPGSV,3,2,11,31,33,265,37,18,24,172,33,09,10,063,28,29,05,141,*79
$GPGSV,3,3,11,27,05,066,21,32,04,324,,26,00,113,*4D
$GPRMC,045718.000,A,3730.6802,N,12652.4389,E,31.54,31.03,310510,,,A*6A
$GPGGA,045719.000,3730.6878,N,12652.4447,E,1,08,1.2,23.2,M,19.4,M,,0000*61
$GPGSA,A,3,18,31,30,09,12,14,22,27,,,,,1.8,1.2,1.4*3F
$GPGSV,3,1,11,30,70,124,43,14,63,335,37,22,51,204,37,12,47,057,39*70
$GPGSV,3,2,11,31,33,265,37,18,24,172,33,09,10,063,30,29,05,141,*70
$GPGSV,3,3,11,27,05,066,21,32,04,324,,26,00,113,*4D
$GPRMC,045719.000,A,3730.6878,N,12652.4447,E,31.43,31.25,310510,,,A*61
$GPGGA,045720.000,3730.6953,N,12652.4503,E,1,08,1.2,22.9,M,19.4,M,,0000*68
$GPGSA,A,3,18,31,30,09,12,14,22,27,,,,,1.8,1.2,1.4*3F
$GPGSV,3,1,11,30,70,124,43,14,63,335,37,22,51,204,37,12,47,057,39*70
$GPGSV,3,2,11,31,33,265,37,18,24,172,33,09,10,063,29,29,05,141,*78
$GPGSV,3,3,11,27,05,066,19,32,04,324,,26,00,113,*46
$GPRMC,045720.000,A,3730.6953,N,12652.4503,E,31.03,30.60,310510,,,A*66
$GPGGA,045721.000,3730.7029,N,12652.4557,E,1,08,1.2,22.9,M,19.4,M,,0000*6D
$GPGSA,A,3,18,31,30,09,12,14,22,27,,,,,1.8,1.2,1.4*3F
$GPGSV,3,1,11,30,70,124,43,14,63,335,32,22,51,204,37,12,47,057,39*75
$GPGSV,3,2,11,31,33,265,37,18,24,172,33,09,10,063,29,29,05,141,*78
$GPGSV,3,3,11,27,05,066,20,32,04,324,,26,00,113,*4C
$GPRMC,045721.000,A,3730.7029,N,12652.4557,E,30.60,29.76,310510,,,A*68
$GPGGA,045722.000,3730.7103,N,12652.4610,E,1,08,1.2,23.0,M,19.4,M,,0000*6F
$GPGSA,A,3,18,31,30,09,12,14,22,27,,,,,1.8,1.2,1.4*3F
$GPGSV,3,1,11,30,70,124,43,14,63,335,30,22,51,204,37,12,47,057,39*77
$GPGSV,3,2,11,31,33,265,37,18,24,172,33,09,10,063,29,29,05,141,*78
$GPGSV,3,3,11,27,05,066,21,32,04,324,,26,00,113,*4D
$GPRMC,045722.000,A,3730.7103,N,12652.4610,E,30.01,30.36,310510,,,A*69
$GPGGA,045723.000,3730.7174,N,12652.4664,E,1,08,1.2,22.7,M,19.4,M,,0000*6B
$GPGSA,A,3,18,31,30,09,12,14,22,27,,,,,1.8,1.2,1.4*3F
$GPGSV,3,1,11,30,70,124,43,14,63,335,30,22,51,204,37,12,47,057,38*76
$GPGSV,3,2,11,31,33,265,37,18,24,172,32,09,10,063,29,29,05,141,*79
$GPGSV,3,3,11,27,05,066,24,32,04,324,,26,00,113,*48
$GPRMC,045723.000,A,3730.7174,N,12652.4664,E,29.37,31.70,310510,,,A*65
$GPGGA,045724.000,3730.7242,N,12652.4718,E,1,09,1.1,22.5,M,19.4,M,,0000*60
$GPGSA,A,3,18,31,30,09,12,14,22,27,29,,,,1.7,1.1,1.3*3F
$GPGSV,3,1,11,30,70,124,42,14,63,335,30,22,51,204,37,12,47,057,35*7A
$GPGSV,3,2,11,31,33,265,37,18,24,172,32,09,10,063,29,29,05,141,25*7E
$GPGSV,3,3,11,27,05,066,23,32,04,324,,26,00,113,*4F
$GPRMC,045724.000,A,3730.7242,N,12652.4718,E,28.00,33.85,310510,,,A*63
$GPGGA,045725.000,3730.7306,N,12652.4772,E,1,09,1.1,22.4,M,19.4,M,,0000*6D
$GPGSA,A,3,18,31,30,09,12,14,22,27,29,,,,1.7,1.1,1.3*3F
$GPGSV,3,1,11,30,70,124,42,14,63,335,31,22,51,204,37,12,47,057,35*7B
$GPGSV,3,2,11,31,33,265,37,18,24,172,32,09,10,063,29,29,05,141,24*7F
$GPGSV,3,3,11,27,05,066,22,32,04,324,,26,00,113,*4E
$GPRMC,045725.000,A,3730.7306,N,12652.4772,E,27.27,34.58,310510,,,A*62
$GPGGA,045726.000,3730.7368,N,12652.4827,E,1,09,1.1,22.3,M,19.4,M,,0000*6E
$GPGSA,A,3,18,31,30,09,12,14,22,27,29,,,,1.7,1.1,1.3*3F
$GPGSV,3,1,11,30,70,124,42,14,63,335,31,22,51,204,36,12,47,057,35*7A
$GPGSV,3,2,11,31,33,265,36,18,24,172,32,09,10,063,30,29,05,141,24*76
$GPGSV,3,3,11,27,05,066,23,32,04,324,,26,00,113,*4F
$GPRMC,045726.000,A,3730.7368,N,12652.4827,E,26.98,35.24,310510,,,A*69
$GPGGA,045727.000,3730.7430,N,12652.4881,E,1,09,1.1,22.1,M,19.4,M,,0000*6B
$GPGSA,A,3,18,31,30,09,12,14,22,27,29,,,,1.7,1.1,1.3*3F
$GPGSV,3,1,11,30,70,124,42,14,63,335,31,22,51,204,36,12,47,057,35*7A
$GPGSV,3,2,11,31,33,265,36,18,24,172,32,09,10,063,36,29,05,141,24*70
$GPGSV,3,3,11,27,05,066,23,32,04,324,,26,00,113,*4F
$GPRMC,045727.000,A,3730.7430,N,12652.4881,E,26.55,35.67,310510,,,A*68
$GPGGA,045728.000,3730.7490,N,12652.4935,E,1,09,1.1,22.0,M,19.4,M,,0000*61
$GPGSA,A,3,18,31,30,09,12,14,22,27,29,,,,1.7,1.1,1.3*3F
$GPGSV,3,1,11,30,70,124,41,14,63,335,31,22,51,204,36,12,47,057,35*79
$GPGSV,3,2,11,31,33,265,36,18,24,172,32,09,10,063,33,29,05,141,24*75
$GPGSV,3,3,11,27,05,066,23,32,04,324,,26,00,113,*4F
$GPRMC,045728.000,A,3730.7490,N,12652.4935,E,26.22,35.17,310510,,,A*64
$GPGGA,045729.000,3730.7550,N,12652.4987,E,1,09,1.1,22.0,M,19.4,M,,0000*64
$GPGSA,A,3,18,31,30,09,12,14,22,27,29,,,,1.7,1.1,1.3*3F
$GPGSV,3,1,11,30,70,124,41,14,63,335,32,22,51,204,36,12,47,057,35*7A
$GPGSV,3,2,11,31,33,265,36,18,24,172,32,09,10,063,33,29,05,141,24*75
$GPGSV,3,3,11,27,05,066,23,32,04,324,,26,00,113,*4F
$GPRMC,045729.000,A,3730.7550,N,12652.4987,E,25.70,35.44,310510,,,A*63
$GPGGA,045730.000,3730.7608,N,12652.5039,E,1,09,1.1,21.8,M,19.4,M,,0000*64
$GPGSA,A,3,18,31,30,09,12,14,22,27,29,,,,1.7,1.1,1.3*3F
$GPGSV,3,1,11,30,70,124,41,14,63,335,32,22,51,204,36,12,47,057,35*7A
$GPGSV,3,2,11,31,33,265,35,18,24,172,32,09,10,063,33,29,05,141,24*76
$GPGSV,3,3,11,27,05,066,23,32,04,324,,26,00,113,*4F
$GPRMC,045730.000,A,3730.7608,N,12652.5039,E,25.26,35.97,310510,,,A*65
$GPGGA,045731.000,3730.7665,N,12652.5091,E,1,09,1.1,21.7,M,19.4,M,,0000*63
$GPGSA,A,3,18,31,30,09,12,14,22,27,29,,,,1.7,1.1,1.3*3F
$GPGSV,3,1,11,30,70,124,41,14,63,335,32,22,51,204,36,12,47,057,35*7A
$GPGSV,3,2,11,31,33,265,35,18,24,172,32,09,10,063,31,29,05,141,23*73
$GPGSV,3,3,11,27,05,066,23,32,04,324,,26,00,113,*4F
$GPRMC,045731.000,A,3730.7665,N,12652.5091,E,24.74,35.61,310510,,,A*62
$GPGGA,045732.000,3730.7719,N,12652.5141,E,1,09,1.1,21.6,M,19.4,M,,0000*67
$GPGSA,A,3,18,31,30,09,12,14,22,27,29,,,,1.7,1.1,1.3*3F
$GPGSV,3,1,11,30,70,124,41,14,63,335,32,22,51,204,35,12,47,057,35*79
$GPGSV,3,2,11,31,33,265,35,18,24,172,32,09,10,063,26,29,05,141,23*75
$GPGSV,3,3,11,27,05,066,23,32,04,324,,26,00,113,*4F
$GPRMC,045732.000,A,3730.7719,N,12652.5141,E,24.30,35.97,310510,,,A*6E
$GPGGA,045733.000,3730.7773,N,12652.5191,E,1,09,1.1,21.4,M,19.4,M,,0000*65
$GPGSA,A,3,18,31,30,09,12,14,22,27,29,,,,1.7,1.1,1.3*3F
$GPGSV,3,1,11,30,70,124,40,14,63,335,32,22,51,204,35,12,47,057,35*78
$GPGSV,3,2,11,31,33,265,35,18,24,172,32,09,10,063,28,29,05,141,23*7B
$GPGSV,3,3,11,27,05,066,23,32,04,324,,26,00,113,*4F
$GPRMC,045733.000,A,3730.7773,N,12652.5191,E,24.36,35.81,310510,,,A*6F
$GPGGA,045734.000,3730.7829,N,12652.5241,E,1,09,1.1,21.1,M,19.4,M,,0000*69
$GPGSA,A,3,18,31,30,09,12,14,22,27,29,,,,1.7,1.1,1.3*3F
$GPGSV,3,1,11,30,70,124,40,14,63,335,32,22,51,204,35,12,47,057,35*78
$GPGSV,3,2,11,31,33,265,35,18,24,172,32,09,10,063,34,29,05,141,24*71
$GPGSV,3,3,11,27,05,066,23,32,04,324,,26,00,113,*4F
$GPRMC,045734.000,A,3730.7829,N,12652.5241,E,24.87,35.56,310510,,,A*66
$GPGGA,045735.000,3730.7885,N,12652.5294,E,1,09,1.1,20.9,M,19.4,M,,0000*6F
$GPGSA,A,3,18,31,30,09,12,14,22,27,29,,,,1.7,1.1,1.3*3F
$GPGSV,3,1,11,30,70,124,41,14,63,335,32,22,51,204,35,12,47,057,35*79
$GPGSV,3,2,11,31,33,265,35,18,24,172,32,09,10,063,35,29,05,141,24*70
$GPGSV,3,3,11,27,05,066,28,32,04,324,,26,00,113,*44
$GPRMC,045735.000,A,3730.7885,N,12652.5294,E,25.24,36.38,310510,,,A*6A
$GPGGA,045736.000,3730.7941,N,12652.5348,E,1,09,1.1,20.8,M,19.4,M,,0000*64
$GPGSA,A,3,18,31,30,09,12,14,22,27,29,,,,1.7,1.1,1.3*3F
$GPGSV,3,1,11,30,70,124,41,14,63,335,33,22,51,204,35,12,47,057,35*78
$GPGSV,3,2,11,31,33,265,35,18,24,172,32,09,10,063,34,29,05,141,23*76
$GPGSV,3,3,11,27,05,066,28,32,04,324,,26,00,113,*44
$GPRMC,045736.000,A,3730.7941,N,12652.5348,E,25.49,37.51,310510,,,A*65
$GPGGA,045737.000,3730.7997,N,12652.5404,E,1,09,1.1,20.6,M,19.4,M,,0000*6F
$GPGSA,A,3,18,31,30,09,12,14,22,27,29,,,,1.7,1.1,1.3*3F
$GPGSV,3,1,11,30,70,124,40,14,63,335,33,22,51,204,35,12,47,057,35*79
$GPGSV,3,2,11,31,33,265,30,18,24,172,32,09,10,063,34,29,05,141,23*73
$GPGSV,3,3,11,27,05,066,27,32,04,324,,26,00,113,*4B
$GPRMC,045737.000,A,3730.7997,N,12652.5404,E,25.80,39.46,310510,,,A*6D
$GPGGA,045738.000,3730.8052,N,12652.5463,E,1,09,1.1,20.7,M,19.4,M,,0000*6F
$GPGSA,A,3,18,31,30,09,12,14,22,27,29,,,,1.7,1.1,1.3*3F
$GPGSV,3,1,11,30,70,124,40,14,63,335,33,22,51,204,35,12,47,057,35*79
$GPGSV,3,2,11,31,33,265,28,18,24,172,32,09,10,063,28,29,05,141,23*77
$GPGSV,3,3,11,27,05,066,27,32,04,324,,26,00,113,*4B
$GPRMC,045738.000,A,3730.8052,N,12652.5463,E,26.02,40.35,310510,,,A*6F
$GPGGA,045739.000,3730.8107,N,12652.5524,E,1,09,1.1,20.8,M,19.4,M,,0000*62
$GPGSA,A,3,18,31,30,09,12,14,22,27,29,,,,1.7,1.1,1.3*3F
$GPGSV,3,1,11,30,70,124,40,14,63,335,33,22,51,204,35,12,47,057,35*79
$GPGSV,3,2,11,31,33,265,29,18,24,172,32,09,10,063,27,29,05,141,24*7E
$GPGSV,3,3,11,27,05,066,27,32,04,324,,26,00,113,*4B
$GPRMC,045739.000,A,3730.8107,N,12652.5524,E,26.58,42.11,310510,,,A*66
$GPGGA,045740.000,3730.8163,N,12652.5588,E,1,09,1.1,21.0,M,19.4,M,,0000*61
$GPGSA,A,3,18,31,30,09,12,14,22,27,29,,,,1.7,1.1,1.3*3F
$GPGSV,3,1,11,30,70,124,40,14,63,335,33,22,51,204,35,12,47,057,36*7A
$GPGSV,3,2,11,31,33,265,30,18,24,172,32,09,10,063,27,29,05,141,24*76
$GPGSV,3,3,11,27,05,066,25,32,04,324,,26,00,113,*49
$GPRMC,045740.000,A,3730.8163,N,12652.5588,E,27.59,42.44,310510,,,A*6C
$GPGGA,045741.000,3730.8220,N,12652.5656,E,1,09,1.1,21.1,M,19.4,M,,0000*65
$GPGSA,A,3,18,31,30,09,12,14,22,27,29,,,,1.7,1.1,1.3*3F
$GPGSV,3,1,11,30,70,124,40,14,63,335,33,22,51,204,36,12,47,057,36*79
$GPGSV,3,2,11,31,33,265,30,18,24,172,32,09,10,063,28,29,05,141,24*79
$GPGSV,3,3,11,27,05,066,24,32,04,324,,26,00,113,*48
$GPRMC,045741.000,A,3730.8220,N,12652.5656,E,28.76,42.72,310510,,,A*6E
$GPGGA,045742.000,3730.8280,N,12652.5725,E,1,09,1.1,21.5,M,19.4,M,,0000*6D
$GPGSA,A,3,18,31,30,09,12,14,22,27,29,,,,1.7,1.1,1.3*3F
$GPGSV,3,1,11,30,70,124,40,14,63,335,33,22,51,204,36,12,47,057,36*79
$GPGSV,3,2,11,31,33,265,30,18,24,172,32,09,10,063,28,29,05,141,24*79
$GPGSV,3,3,11,27,05,066,24,32,04,324,,26,00,113,*48
$GPRMC,045742.000,A,3730.8280,N,12652.5725,E,29.28,42.39,310510,,,A*67
$GPGGA,045743.000,3730.8340,N,12652.5794,E,1,09,1.1,21.8,M,19.4,M,,0000*66
$GPGSA,A,3,18,31,30,09,12,14,22,27,29,,,,1.7,1.1,1.3*3F
$GPGSV,3,1,11,30,70,124,39,14,63,335,34,22,51,204,36,12,47,057,36*70
$GPGSV,3,2,11,31,33,265,31,18,24,172,32,09,10,063,29,29,05,141,24*79
$GPGSV,3,3,11,27,05,066,27,32,04,324,,26,00,113,*4B
$GPRMC,045743.000,A,3730.8340,N,12652.5794,E,28.82,42.65,310510,,,A*69
$GPGGA,045744.000,3730.8398,N,12652.5861,E,1,09,1.1,22.0,M,19.4,M,,0000*6A
$GPGSA,A,3,18,31,30,09,12,14,22,27,29,,,,1.7,1.1,1.3*3F
$GPGSV,3,1,11,30,70,124,39,14,63,335,34,22,51,204,36,12,47,057,36*70
$GPGSV,3,2,11,31,33,265,31,18,24,172,32,09,10,063,29,29,05,141,24*79
$GPGSV,3,3,11,27,05,066,31,32,04,324,,26,00,113,*4C
$GPRMC,045744.000,A,3730.8398,N,12652.5861,E,27.87,42.26,310510,,,A*63
$GPGGA,045745.000,3730.8455,N,12652.5925,E,1,09,1.1,22.2,M,19.4,M,,0000*6E
$GPGSA,A,3,18,31,30,09,12,14,22,27,29,,,,1.7,1.1,1.3*3F
$GPGSV,3,1,11,30,70,124,39,14,63,335,34,22,51,204,36,12,47,057,36*70
$GPGSV,3,2,11,31,33,265,31,18,24,172,32,09,10,063,29,29,05,141,29*74
$GPGSV,3,3,11,27,05,066,31,32,04,324,,26,00,113,*4C
$GPRMC,045745.000,A,3730.8455,N,12652.5925,E,27.03,41.14,310510,,,A*6B
$GPGGA,045746.000,3730.8511,N,12652.5985,E,1,09,1.1,22.4,M,19.4,M,,0000*60
$GPGSA,A,3,18,31,30,09,12,14,22,27,29,,,,1.7,1.1,1.3*3F
$GPGSV,3,1,11,30,70,124,39,14,63,335,34,22,51,204,36,12,47,057,36*70
$GPGSV,3,2,11,31,33,265,31,18,24,172,32,09,10,063,30,29,05,141,30*74
$GPGSV,3,3,11,27,05,066,30,32,04,324,,26,00,113,*4D
$GPRMC,045746.000,A,3730.8511,N,12652.5985,E,26.00,38.82,310510,,,A*60
$GPGGA,045747.000,3730.8568,N,12652.6039,E,1,09,1.1,22.3,M,19.4,M,,0000*65
$GPGSA,A,3,18,31,30,09,12,14,22,27,29,,,,1.7,1.1,1.3*3F
$GPGSV,3,1,11,30,70,124,39,14,63,335,34,22,51,204,36,12,47,057,36*70
$GPGSV,3,2,11,31,33,265,31,18,24,172,32,09,10,063,35,29,05,141,30*71
$GPGSV,3,3,11,27,05,066,32,32,04,324,,26,00,113,*4F
$GPRMC,045747.000,A,3730.8568,N,12652.6039,E,25.47,35.77,310510,,,A*65
$GPGGA,045748.000,3730.8627,N,12652.6090,E,1,09,1.1,22.1,M,19.4,M,,0000*63
$GPGSA,A,3,18,31,30,09,12,14,22,27,29,,,,1.7,1.1,1.3*3F
$GPGSV,3,1,11,30,70,124,39,14,63,335,34,22,51,204,36,12,47,057,36*70
$GPGSV,3,2,11,31,33,265,36,18,24,172,32,09,10,063,35,29,05,141,30*76
$GPGSV,3,3,11,27,05,066,32,32,04,324,,26,00,113,*4F
$GPRMC,045748.000,A,3730.8627,N,12652.6090,E,25.43,33.94,310510,,,A*6E
$GPGGA,045749.000,3730.8688,N,12652.6132,E,1,09,1.1,21.9,M,19.4,M,,0000*65
$GPGSA,A,3,18,31,30,09,12,14,22,27,29,,,,1.7,1.1,1.3*3F
$GPGSV,3,1,11,30,70,124,39,14,63,335,34,22,51,204,36,12,47,057,36*70
$GPGSV,3,2,11,31,33,265,37,18,24,172,32,09,10,063,33,29,05,141,30*71
$GPGSV,3,3,11,27,05,066,32,32,04,324,,26,00,113,*4F
$GPRMC,045749.000,A,3730.8688,N,12652.6132,E,25.40,27.29,310510,,,A*63
$GPGGA,045750.000,3730.8753,N,12652.6169,E,1,09,1.1,22.0,M,19.4,M,,0000*6E
$GPGSA,A,3,18,31,30,09,12,14,22,27,29,,,,1.7,1.1,1.3*3F
$GPGSV,3,1,11,30,70,124,39,14,63,335,34,22,51,204,35,12,47,057,36*73
$GPGSV,3,2,11,31,33,265,37,18,24,172,27,09,10,063,34,29,05,141,30*72
$GPGSV,3,3,11,27,05,066,32,32,04,324,,26,00,113,*4F
$GPRMC,045750.000,A,3730.8753,N,12652.6169,E,25.45,22.06,310510,,,A*6F
$GPGGA,045751.000,3730.8820,N,12652.6198,E,1,09,1.1,21.9,M,19.4,M,,0000*60
$GPGSA,A,3,18,31,30,09,12,14,22,27,29,,,,1.7,1.1,1.3*3F
$GPGSV,3,1,11,30,70,124,39,14,63,335,33,22,51,204,35,12,47,057,36*74
$GPGSV,3,2,11,31,33,265,37,18,24,172,22,09,10,063,34,29,05,141,30*77
$GPGSV,3,3,11,27,05,066,32,32,04,324,,26,00,113,*4F
$GPRMC,045751.000,A,3730.8820,N,12652.6198,E,25.79,18.41,310510,,,A*6E
$GPGGA,045752.000,3730.8890,N,12652.6223,E,1,08,1.9,21.8,M,19.4,M,,0000*63
$GPGSA,A,3,18,30,09,12,14,22,27,29,,,,,2.7,1.9,1.9*3C
$GPGSV,3,1,11,30,70,124,39,14,63,335,33,22,51,204,35,12,47,057,36*74
$GPGSV,3,2,11,31,33,265,,18,24,172,22,09,10,063,34,29,05,141,30*73
$GPGSV,3,3,11,27,05,066,32,32,04,324,,26,00,113,*4F
$GPRMC,045752.000,A,3730.8890,N,12652.6223,E,26.06,14.48,310510,,,A*6B
$GPGGA,045753.000,3730.8962,N,12652.6240,E,1,08,1.9,21.9,M,19.4,M,,0000*6A
$GPGSA,A,3,18,30,09,12,14,22,27,29,,,,,2.7,1.9,1.9*3C
$GPGSV,3,1,11,30,70,124,39,14,63,335,33,22,51,204,36,12,47,057,37*76
$GPGSV,3,2,11,31,33,265,,18,24,172,22,09,10,063,34,29,05,141,30*73
$GPGSV,3,3,11,27,05,066,32,32,04,324,,26,00,113,*4F
$GPRMC,045753.000,A,3730.8962,N,12652.6240,E,26.30,10.01,310510,,,A*6F
$GPGGA,045754.000,3730.9036,N,12652.6253,E,1,08,1.9,21.9,M,19.4,M,,0000*66
$GPGSA,A,3,18,30,09,12,14,22,27,29,,,,,2.7,1.9,1.9*3C
$GPGSV,3,1,11,30,70,124,39,14,63,335,33,22,51,204,36,12,47,057,37*76
$GPGSV,3,2,11,31,33,265,,18,24,172,22,09,10,063,34,29,05,141,30*73
$GPGSV,3,3,11,27,05,066,32,32,04,324,,26,00,113,*4F
$GPRMC,045754.000,A,3730.9036,N,12652.6253,E,27.04,6.96,310510,,,A*5C
$GPGGA,045755.000,3730.9112,N,12652.6262,E,1,08,1.9,21.8,M,19.4,M,,0000*63
$GPGSA,A,3,18,30,09,12,14,22,27,29,,,,,2.7,1.9,1.9*3C
$GPGSV,3,1,11,30,70,124,39,14,63,335,33,22,51,204,36,12,47,057,37*76
$GPGSV,3,2,11,31,33,265,,18,24,172,22,09,10,063,34,29,05,141,30*73
$GPGSV,3,3,11,27,05,066,32,32,04,324,,26,00,113,*4F
$GPRMC,045755.000,A,3730.9112,N,12652.6262,E,27.84,5.82,310510,,,A*56
$GPGGA,045756.000,3730.9191,N,12652.6271,E,1,08,1.9,21.6,M,19.4,M,,0000*67
$GPGSA,A,3,18,30,09,12,14,22,27,29,,,,,2.7,1.9,1.9*3C
$GPGSV,3,1,11,30,70,124,39,14,63,335,33,22,51,204,36,12,47,057,37*76
$GPGSV,3,2,11,31,33,265,,18,24,172,22,09,10,063,34,29,05,141,30*73
$GPGSV,3,3,11,27,05,066,32,32,04,324,,26,00,113,*4F
$GPRMC,045756.000,A,3730.9191,N,12652.6271,E,28.17,6.17,310510,,,A*56
$GPGGA,045757.000,3730.9269,N,12652.6279,E,1,08,1.9,21.4,M,19.4,M,,0000*68
$GPGSA,A,3,18,30,09,12,14,22,27,29,,,,,2.7,1.9,1.9*3C
$GPGSV,3,1,11,30,70,124,39,14,63,335,33,22,51,204,35,12,47,057,38*7A
$GPGSV,3,2,11,31,33,265,,18,24,172,23,09,10,063,34,29,05,141,29*7A
$GPGSV,3,3,11,27,05,066,33,32,04,324,,26,00,113,*4E
$GPRMC,045757.000,A,3730.9269,N,12652.6279,E,28.22,5.74,310510,,,A*5B
$GPGGA,045758.000,3730.9348,N,12652.6287,E,1,09,1.1,21.2,M,19.4,M,,0000*6B
$GPGSA,A,3,18,31,30,09,12,14,22,27,29,,,,1.7,1.1,1.3*3F
$GPGSV,3,1,11,30,70,124,39,14,63,335,33,22,51,204,36,12,47,057,38*79
$GPGSV,3,2,11,31,33,265,12,18,24,172,23,09,10,063,34,29,05,141,29*79
$GPGSV,3,3,11,27,05,066,33,32,04,324,,26,00,113,*4E
$GPRMC,045758.000,A,3730.9348,N,12652.6287,E,28.25,4.52,310510,,,A*55
$GPGGA,045759.000,3730.9426,N,12652.6294,E,1,08,1.1,21.2,M,19.4,M,,0000*66
$GPGSA,A,3,18,31,30,12,14,22,27,29,,,,,1.8,1.1,1.4*3E
$GPGSV,3,1,11,30,70,124,39,14,63,335,33,22,51,204,36,12,47,057,38*79
$GPGSV,3,2,11,31,33,265,33,18,24,172,24,09,10,063,,29,05,141,29*7A
$GPGSV,3,3,11,27,05,066,33,32,04,324,,26,00,113,*4E
$GPRMC,045759.000,A,3730.9426,N,12652.6294,E,27.49,4.90,310510,,,A*52
$GPGGA,045800.000,3730.9502,N,12652.6300,E,1,09,1.1,20.7,M,19.4,M,,0000*6B
$GPGSA,A,3,18,31,30,09,12,14,22,27,29,,,,1.7,1.1,1.3*3F
$GPGSV,3,1,11,30,70,124,39,14,63,335,33,22,51,204,36,12,47,057,38*79
$GPGSV,3,2,11,31,33,265,33,18,24,172,24,09,10,063,38,29,05,141,29*71
$GPGSV,3,3,11,27,05,066,33,32,04,324,,26,00,113,*4E
$GPRMC,045800.000,A,3730.9502,N,12652.6300,E,27.03,5.00,310510,,,A*5C
$GPGGA,045801.000,3730.9577,N,12652.6305,E,1,09,1.1,20.1,M,19.4,M,,0000*6B
$GPGSA,A,3,18,31,30,09,12,14,22,27,29,,,,1.7,1.1,1.3*3F
$GPGSV,3,1,11,30,70,124,39,14,63,335,34,22,51,204,36,12,47,057,39*7F
$GPGSV,3,2,11,31,33,265,34,18,24,172,24,09,10,063,37,29,05,141,29*79
$GPGSV,3,3,11,27,05,066,34,32,04,324,15,26,00,113,*4D
$GPRMC,045801.000,A,3730.9577,N,12652.6305,E,26.67,4.35,310510,,,A*5E
$GPGGA,045802.000,3730.9651,N,12652.6311,E,1,09,1.1,19.6,M,19.4,M,,0000*67
$GPGSA,A,3,18,31,30,09,12,14,22,27,29,,,,1.7,1.1,1.3*3F
$GPGSV,3,1,11,30,70,124,39,14,63,335,34,22,51,204,36,12,47,057,39*7F
$GPGSV,3,2,11,31,33,265,34,18,24,172,26,09,10,063,37,29,05,141,29*7B
$GPGSV,3,3,11,27,05,066,34,32,04,324,15,26,00,113,*4D
$GPRMC,045802.000,A,3730.9651,N,12652.6311,E,26.15,5.39,310510,,,A*57
$GPGGA,045803.000,3730.9723,N,12652.6320,E,1,08,1.9,19.2,M,19.4,M,,0000*6D
$GPGSA,A,3,18,30,09,12,14,22,27,29,,,,,2.7,1.9,1.9*3C
$GPGSV,3,1,11,30,70,124,39,14,63,335,34,22,51,204,36,12,47,057,40*71
$GPGSV,3,2,11,31,33,265,,18,24,172,28,09,10,063,37,29,05,141,29*72
$GPGSV,3,3,11,27,05,066,34,32,04,324,14,26,00,113,*4C
$GPRMC,045803.000,A,3730.9723,N,12652.6320,E,25.81,5.69,310510,,,A*5B
$GPGGA,045804.000,3730.9794,N,12652.6328,E,1,07,1.9,18.9,M,19.4,M,,0000*6B
$GPGSA,A,3,30,09,12,14,22,27,29,,,,,,2.7,1.9,2.0*3F
$GPGSV,3,1,11,30,70,124,39,14,63,335,34,22,51,204,36,12,47,057,40*71
$GPGSV,3,2,11,31,33,265,,18,24,172,,09,10,063,36,29,05,141,29*79
$GPGSV,3,3,11,27,05,066,33,32,04,324,14,26,00,113,*4B
$GPRMC,045804.000,A,3730.9794,N,12652.6328,E,25.46,5.87,310510,,,A*53
$GPGGA,045805.000,3730.9865,N,12652.6336,E,1,08,1.2,18.6,M,19.4,M,,0000*6F
$GPGSA,A,3,31,30,09,12,14,22,27,29,,,,,1.8,1.2,1.3*3A
$GPGSV,3,1,11,30,70,124,39,14,63,335,34,22,51,204,36,12,47,057,41*70
$GPGSV,3,2,11,31,33,265,33,18,24,172,,09,10,063,30,29,05,141,22*74
$GPGSV,3,3,11,27,05,066,17,32,04,324,14,26,00,113,*4D
$GPRMC,045805.000,A,3730.9865,N,12652.6336,E,25.70,4.93,310510,,,A*5D
$GPGGA,045806.000,3730.9937,N,12652.6342,E,1,09,1.1,18.1,M,19.4,M,,0000*6C
$GPGSA,A,3,18,31,30,09,12,14,22,27,29,,,,1.7,1.1,1.3*3F
$GPGSV,3,1,11,30,70,124,39,14,63,335,34,22,51,204,36,12,47,057,41*70
$GPGSV,3,2,11,31,33,265,37,18,24,172,30,09,10,063,25,29,05,141,20*75
$GPGSV,3,3,11,27,05,066,20,32,04,324,13,26,00,113,*4E
$GPRMC,045806.000,A,3730.9937,N,12652.6342,E,25.90,5.12,310510,,,A*5D
$GPGGA,045807.000,3731.0009,N,12652.6350,E,1,07,2.0,17.7,M,19.4,M,,0000*67
$GPGSA,A,3,18,30,09,12,14,22,27,,,,,,2.8,2.0,1.9*32
$GPGSV,3,1,11,30,70,124,39,14,63,335,34,22,51,204,36,12,47,057,41*70
$GPGSV,3,2,11,31,33,265,,18,24,172,30,09,10,063,25,29,05,141,19*7B
$GPGSV,3,3,11,27,05,066,21,32,04,324,,26,00,113,*4D
$GPRMC,045807.000,A,3731.0009,N,12652.6350,E,26.03,5.62,310510,,,A*5D
$GPGGA,045808.000,3731.0081,N,12652.6358,E,1,07,2.0,17.2,M,19.4,M,,0000*65
$GPGSA,A,3,18,30,09,12,14,22,27,,,,,,2.8,2.0,1.9*32
$GPGSV,3,1,11,30,70,124,39,14,63,335,34,22,51,204,36,12,47,057,41*70
$GPGSV,3,2,11,31,33,265,,18,24,172,30,09,10,063,25,29,05,141,*73
$GPGSV,3,3,11,27,05,066,20,32,04,324,,26,00,113,*4C
$GPRMC,045808.000,A,3731.0081,N,12652.6358,E,26.09,5.63,310510,,,A*51
$GPGGA,045809.000,3731.0154,N,12652.6366,E,1,07,2.0,16.8,M,19.4,M,,0000*6B
$GPGSA,A,3,18,30,09,12,14,22,27,,,,,,2.8,2.0,1.9*32
$GPGSV,3,1,11,30,70,124,39,14,63,335,34,22,51,204,36,12,47,057,41*70
$GPGSV,3,2,11,31,33,265,,18,24,172,30,09,10,063,23,29,05,141,*75
$GPGSV,3,3,11,27,05,066,20,32,04,324,,26,00,113,*4C
$GPRMC,045809.000,A,3731.0154,N,12652.6366,E,26.39,5.53,310510,,,A*54
$GPGGA,045810.000,3731.0228,N,12652.6374,E,1,06,2.0,16.5,M,19.4,M,,0000*64
$GPGSA,A,3,18,30,09,12,14,22,,,,,,,2.9,2.0,2.2*3E
$GPGSV,3,1,11,30,70,122,39,14,64,336,34,22,51,203,36,12,47,057,41*75
$GPGSV,3,2,11,31,34,265,,18,24,172,30,09,10,063,16,29,06,141,*77
$GPGSV,3,3,11,27,05,066,14,32,04,324,,26,00,114,*4C
$GPRMC,045810.000,A,3731.0228,N,12652.6374,E,27.04,5.02,310510,,,A*5C
$GPGGA,045811.000,3731.0303,N,12652.6383,E,1,07,1.2,16.4,M,19.4,M,,0000*64
$GPGSA,A,3,18,31,30,09,12,14,22,,,,,,2.0,1.2,1.6*33
$GPGSV,3,1,11,30,70,122,39,14,64,336,34,22,51,203,36,12,47,057,41*75
$GPGSV,3,2,11,31,34,265,14,18,24,172,29,09,10,063,15,29,06,141,*79
$GPGSV,3,3,11,27,05,066,10,32,04,324,,26,00,114,*48
$GPRMC,045811.000,A,3731.0303,N,12652.6383,E,26.86,5.22,310510,,,A*54
$GPGGA,045812.000,3731.0376,N,12652.6391,E,1,06,2.0,17.4,M,19.4,M,,0000*67
$GPGSA,A,3,18,30,09,12,14,22,,,,,,,2.9,2.0,2.2*3E
$GPGSV,3,1,11,30,70,122,24,14,64,336,13,22,51,203,27,12,47,057,08*71
$GPGSV,3,2,11,31,34,265,17,18,24,172,27,09,10,063,14,29,06,141,*75
$GPGSV,3,3,11,27,05,066,10,32,04,324,,26,00,114,*48
$GPRMC,045812.000,A,3731.0376,N,12652.6391,E,26.51,3.65,310510,,,A*59
$GPGGA,045813.000,3731.0444,N,12652.6412,E,1,08,1.2,20.0,M,19.4,M,,0000*63
$GPGSA,A,3,18,31,30,09,12,14,22,27,,,,,1.8,1.2,1.4*3F
$GPGSV,3,1,11,30,70,122,25,14,64,336,24,22,51,203,15,12,47,057,29*76
$GPGSV,3,2,11,31,34,265,21,18,24,172,15,09,10,063,15,29,06,141,*70
$GPGSV,3,3,11,27,05,066,12,32,04,324,,26,00,114,*4A
$GPRMC,045813.000,A,3731.0444,N,12652.6412,E,25.11,5.36,310510,,,A*55
$GPGGA,045814.000,3731.0514,N,12652.6420,E,1,09,1.1,20.0,M,19.4,M,,0000*63
$GPGSA,A,3,18,31,30,09,12,14,22,27,29,,,,1.7,1.1,1.3*3F
$GPGSV,3,1,11,30,70,122,36,14,64,336,29,22,51,203,26,12,47,057,38*79
$GPGSV,3,2,11,31,34,265,32,18,24,172,17,09,10,063,17,29,06,141,14*77
$GPGSV,3,3,11,27,05,066,12,32,04,324,,26,00,114,*4A
$GPRMC,045814.000,A,3731.0514,N,12652.6420,E,25.50,4.49,310510,,,A*5B
$GPGGA,045815.000,3731.0582,N,12652.6424,E,1,07,1.1,19.0,M,19.4,M,,0000*6D
$GPGSA,A,3,18,31,30,09,12,14,29,,,,,,1.9,1.1,1.5*32
$GPGSV,3,1,11,30,70,122,38,14,64,336,30,22,51,203,,12,47,057,41*75
$GPGSV,3,2,11,31,34,265,35,18,24,172,24,09,10,063,23,29,06,141,14*77
$GPGSV,3,3,11,27,05,066,12,32,04,324,,26,00,114,*4A
$GPRMC,045815.000,A,3731.0582,N,12652.6424,E,24.16,4.92,310510,,,A*54
$GPGGA,045816.000,3731.0648,N,12652.6431,E,1,07,1.9,18.9,M,19.4,M,,0000*6F
$GPGSA,A,3,18,30,09,12,14,22,29,,,,,,2.8,1.9,2.1*3D
$GPGSV,3,1,11,30,70,122,39,14,64,336,31,22,51,203,34,12,47,057,41*72
$GPGSV,3,2,11,31,34,265,,18,24,172,26,09,10,063,24,29,06,141,13*73
$GPGSV,3,3,11,27,05,066,12,32,04,324,,26,00,114,*4A
$GPRMC,045816.000,A,3731.0648,N,12652.6431,E,23.42,5.58,310510,,,A*57
$GPGGA,045817.000,3731.0712,N,12652.6439,E,1,07,1.9,19.0,M,19.4,M,,0000*60
$GPGSA,A,3,18,30,09,12,14,22,29,,,,,,2.8,1.9,2.1*3D
$GPGSV,3,1,11,30,70,122,39,14,64,336,32,22,51,203,34,12,47,057,41*71
$GPGSV,3,2,11,31,34,265,,18,24,172,26,09,10,063,24,29,06,141,13*73
$GPGSV,3,3,11,27,05,066,11,32,04,324,,26,00,114,*49
$GPRMC,045817.000,A,3731.0712,N,12652.6439,E,22.15,4.79,310510,,,A*51
$GPGGA,045818.000,3731.0771,N,12652.6445,E,1,07,1.9,19.1,M,19.4,M,,0000*60
$GPGSA,A,3,18,30,09,12,14,22,29,,,,,,2.8,1.9,2.1*3D
$GPGSV,3,1,11,30,70,122,40,14,64,336,32,22,51,203,34,12,47,057,41*7F
$GPGSV,3,2,11,31,34,265,,18,24,172,26,09,10,063,23,29,06,141,13*74
$GPGSV,3,3,11,27,05,066,11,32,04,324,,26,00,114,*49
$GPRMC,045818.000,A,3731.0771,N,12652.6445,E,20.89,5.15,310510,,,A*5C
$GPGGA,045819.000,3731.0826,N,12652.6451,E,1,06,2.0,19.2,M,19.4,M,,0000*61
$GPGSA,A,3,18,30,09,12,14,22,,,,,,,2.9,2.0,2.2*3E
$GPGSV,3,1,11,30,70,122,40,14,64,336,33,22,51,203,34,12,47,057,40*7F
$GPGSV,3,2,11,31,34,265,,18,24,172,26,09,10,063,23,29,06,141,*76
$GPGSV,3,3,11,27,05,066,11,32,04,324,,26,00,114,*49
$GPRMC,045819.000,A,3731.0826,N,12652.6451,E,19.24,4.82,310510,,,A*57
$GPGGA,045820.000,3731.0873,N,12652.6457,E,1,06,2.0,19.1,M,19.4,M,,0000*6E
$GPGSA,A,3,18,30,09,12,14,22,,,,,,,2.9,2.0,2.2*3E
$GPGSV,3,1,11,30,70,122,40,14,64,336,33,22,51,203,34,12,47,057,40*7F
$GPGSV,3,2,11,31,34,265,,18,24,172,26,09,10,063,23,29,06,141,*76
$GPGSV,3,3,11,27,05,066,11,32,04,324,,26,00,114,*49
$GPRMC,045820.000,A,3731.0873,N,12652.6457,E,16.65,4.98,310510,,,A*5A
$GPGGA,045821.000,3731.0913,N,12652.6459,E,1,07,1.2,19.0,M,19.4,M,,0000*67
$GPGSA,A,3,18,30,09,12,14,22,31,,,,,,2.0,1.2,1.6*33
$GPGSV,3,1,11,30,70,122,41,14,64,336,33,22,51,203,34,12,47,057,40*7E
$GPGSV,3,2,11,31,34,265,36,18,24,172,26,09,10,063,24,29,06,141,*74
$GPGSV,3,3,11,27,05,066,11,32,04,324,,26,00,114,*49
$GPRMC,045821.000,A,3731.0913,N,12652.6459,E,13.53,5.10,310510,,,A*53
$GPGGA,045822.000,3731.0948,N,12652.6459,E,1,07,1.2,18.2,M,19.4,M,,0000*69
$GPGSA,A,3,18,30,09,12,14,22,31,,,,,,2.0,1.2,1.6*33
$GPGSV,3,1,11,30,70,122,41,14,64,336,33,22,51,203,34,12,47,057,40*7E
$GPGSV,3,2,11,31,34,265,34,18,24,172,26,09,10,063,32,29,06,141,*71
$GPGSV,3,3,11,27,05,066,12,32,04,324,,26,00,114,*4A
$GPRMC,045822.000,A,3731.0948,N,12652.6459,E,11.10,5.64,310510,,,A*58
$GPGGA,045823.000,3731.0975,N,12652.6463,E,1,07,1.2,18.1,M,19.4,M,,0000*6C
$GPGSA,A,3,18,30,09,12,14,22,31,,,,,,2.0,1.2,1.6*33
$GPGSV,3,1,11,30,70,122,41,14,64,336,33,22,51,203,35,12,47,057,40*7F
$GPGSV,3,2,11,31,34,265,34,18,24,172,26,09,10,063,33,29,06,141,*70
$GPGSV,3,3,11,27,05,066,12,32,04,324,,26,00,114,*4A
$GPRMC,045823.000,A,3731.0975,N,12652.6463,E,9.26,5.60,310510,,,A*66
$GPGGA,045824.000,3731.0997,N,12652.6466,E,1,07,1.2,17.8,M,19.4,M,,0000*64
$GPGSA,A,3,18,30,09,12,14,22,31,,,,,,2.0,1.2,1.6*33
$GPGSV,3,1,11,30,70,122,41,14,64,336,33,22,51,203,35,12,47,057,40*7F
$GPGSV,3,2,11,31,34,265,24,18,24,172,26,09,10,063,34,29,06,141,*76
$GPGSV,3,3,11,27,05,066,,32,04,324,,26,00,114,*49
$GPRMC,045824.000,A,3731.0997,N,12652.6466,E,8.10,5.93,310510,,,A*60
$GPGGA,045825.000,3731.1017,N,12652.6469,E,1,09,1.1,17.2,M,19.4,M,,0000*6D
$GPGSA,A,3,18,29,30,09,12,14,22,27,31,,,,1.7,1.1,1.3*3F
$GPGSV,3,1,11,30,70,122,41,14,64,336,33,22,51,203,35,12,47,057,40*7F
$GPGSV,3,2,11,31,34,265,21,18,24,172,27,09,10,063,34,29,06,141,18*7B
$GPGSV,3,3,11,27,05,066,30,32,04,324,,26,00,114,*4A
$GPRMC,045825.000,A,3731.1017,N,12652.6469,E,7.10,4.95,310510,,,A*66
$GPGGA,045826.000,3731.1034,N,12652.6471,E,1,09,1.1,16.8,M,19.4,M,,0000*6D
$GPGSA,A,3,18,29,30,09,12,14,22,27,31,,,,1.7,1.1,1.3*3F
$GPGSV,3,1,11,30,70,122,41,14,64,336,33,22,51,203,35,12,47,057,40*7F
$GPGSV,3,2,11,31,34,265,21,18,24,172,27,09,10,063,35,29,06,141,22*73
$GPGSV,3,3,11,27,05,066,29,32,04,324,,26,00,114,*42
$GPRMC,045826.000,A,3731.1034,N,12652.6471,E,6.16,2.40,310510,,,A*64
$GPGGA,045827.000,3731.1049,N,12652.6472,E,1,09,1.1,16.3,M,19.4,M,,0000*6E
$GPGSA,A,3,18,29,30,09,12,14,22,27,31,,,,1.7,1.1,1.3*3F
$GPGSV,3,1,11,30,70,122,41,14,64,336,34,22,51,203,35,12,47,057,40*78
$GPGSV,3,2,11,31,34,265,21,18,24,172,27,09,10,063,35,29,06,141,20*71
$GPGSV,3,3,11,27,05,066,29,32,04,324,,26,00,114,*42
$GPRMC,045827.000,A,3731.1049,N,12652.6472,E,5.55,2.17,310510,,,A*6A
$GPGGA,045828.000,3731.1065,N,12652.6473,E,1,08,1.1,16.1,M,19.4,M,,0000*6D
$GPGSA,A,3,18,29,30,09,12,14,22,31,,,,,1.8,1.1,1.4*32
$GPGSV,3,1,11,30,70,122,41,14,64,336,34,22,51,203,35,12,47,057,40*78
$GPGSV,3,2,11,31,34,265,24,18,24,172,27,09,10,063,35,29,06,141,20*74
$GPGSV,3,3,11,27,05,066,,32,04,324,,26,00,114,*49
$GPRMC,045828.000,A,3731.1065,N,12652.6473,E,6.54,2.95,310510,,,A*62
$GPGGA,045829.000,3731.1083,N,12652.6474,E,1,09,1.1,15.8,M,19.4,M,,0000*68
$GPGSA,A,3,18,29,30,09,12,14,22,27,31,,,,1.7,1.1,1.3*3F
$GPGSV,3,1,11,30,70,122,41,14,64,336,34,22,51,203,35,12,47,057,40*78
$GPGSV,3,2,11,31,34,265,31,18,24,172,27,09,10,063,35,29,06,141,20*70
$GPGSV,3,3,11,27,05,066,33,32,04,324,,26,00,114,*49
$GPRMC,045829.000,A,3731.1083,N,12652.6474,E,6.84,359.43,310510,,,A*67
$GPGGA,045830.000,3731.1100,N,12652.6475,E,1,09,1.1,15.6,M,19.4,M,,0000*65
$GPGSA,A,3,18,29,30,09,12,14,22,27,31,,,,1.7,1.1,1.3*3F
$GPGSV,3,1,11,30,70,122,41,14,64,336,34,22,51,203,35,12,47,057,40*78
$GPGSV,3,2,11,31,34,265,33,18,24,172,27,09,10,063,35,29,06,141,21*73
$GPGSV,3,3,11,27,05,066,34,32,04,324,,26,00,114,*4E
$GPRMC,045830.000,A,3731.1100,N,12652.6475,E,5.90,3.20,310510,,,A*6B
$GPGGA,045831.000,3731.1115,N,12652.6477,E,1,09,1.1,15.5,M,19.4,M,,0000*61
$GPGSA,A,3,18,29,30,09,12,14,22,27,31,,,,1.7,1.1,1.3*3F
$GPGSV,3,1,11,30,70,122,41,14,64,336,34,22,51,203,35,12,47,057,40*78
$GPGSV,3,2,11,31,34,265,34,18,24,172,27,09,10,063,35,29,06,141,21*74
$GPGSV,3,3,11,27,05,066,33,32,04,324,,26,00,114,*49
$GPRMC,045831.000,A,3731.1115,N,12652.6477,E,5.33,5.46,310510,,,A*63
$GPGGA,045832.000,3731.1130,N,12652.6479,E,1,09,1.1,15.3,M,19.4,M,,0000*6D
$GPGSA,A,3,18,29,30,09,12,14,22,27,31,,,,1.7,1.1,1.3*3F
$GPGSV,3,1,11,30,70,122,41,14,64,336,34,22,51,203,35,12,47,057,40*78
$GPGSV,3,2,11,31,34,265,35,18,24,172,27,09,10,063,35,29,06,141,21*75
$GPGSV,3,3,11,27,05,066,33,32,04,324,,26,00,114,*49
$GPRMC,045832.000,A,3731.1130,N,12652.6479,E,6.38,6.10,310510,,,A*61
$GPGGA,045833.000,3731.1151,N,12652.6483,E,1,09,1.1,15.3,M,19.4,M,,0000*6E
$GPGSA,A,3,18,29,30,09,12,14,22,27,31,,,,1.7,1.1,1.3*3F
$GPGSV,3,1,11,30,70,122,41,14,64,336,34,22,51,203,35,12,47,057,40*78
$GPGSV,3,2,11,31,34,265,35,18,24,172,28,09,10,063,35,29,06,141,17*7F
$GPGSV,3,3,11,27,05,066,33,32,04,324,,26,00,114,*49
$GPRMC,045833.000,A,3731.1151,N,12652.6483,E,8.58,5.97,310510,,,A*66
$GPGGA,045834.000,3731.1177,N,12652.6487,E,1,09,1.1,15.1,M,19.4,M,,0000*6B
$GPGSA,A,3,18,29,30,09,12,14,22,27,31,,,,1.7,1.1,1.3*3F
$GPGSV,3,1,11,30,70,122,41,14,64,336,34,22,51,203,35,12,47,057,40*78
$GPGSV,3,2,11,31,34,265,35,18,24,172,28,09,10,063,35,29,06,141,16*7E
$GPGSV,3,3,11,27,05,066,32,32,04,324,,26,00,114,*48
$GPRMC,045834.000,A,3731.1177,N,12652.6487,E,10.31,6.91,310510,,,A*52
$GPGGA,045835.000,3731.1207,N,12652.6492,E,1,09,1.1,15.0,M,19.4,M,,0000*6B
$GPGSA,A,3,18,29,30,09,12,14,22,27,31,,,,1.7,1.1,1.3*3F
$GPGSV,3,1,11,30,70,122,41,14,64,336,33,22,51,203,35,12,47,057,40*7F
$GPGSV,3,2,11,31,34,265,35,18,24,172,28,09,10,063,35,29,06,141,15*7D
$GPGSV,3,3,11,27,05,066,32,32,04,324,,26,00,114,*48
$GPRMC,045835.000,A,3731.1207,N,12652.6492,E,11.26,6.89,310510,,,A*5D
$GPGGA,045836.000,3731.1239,N,12652.6496,E,1,09,1.1,15.1,M,19.4,M,,0000*60
$GPGSA,A,3,18,29,30,09,12,14,22,27,31,,,,1.7,1.1,1.3*3F
$GPGSV,3,1,11,30,70,122,41,14,64,336,33,22,51,203,35,12,47,057,40*7F
$GPGSV,3,2,11,31,34,265,35,18,24,172,28,09,10,063,35,29,06,141,15*7D
$GPGSV,3,3,11,27,05,066,32,32,04,324,,26,00,114,*48
$GPRMC,045836.000,A,3731.1239,N,12652.6496,E,11.33,6.22,310510,,,A*52
$GPGGA,045837.000,3731.1270,N,12652.6501,E,1,09,1.1,15.1,M,19.4,M,,0000*63
$GPGSA,A,3,18,29,30,09,12,14,22,27,31,,,,1.7,1.1,1.3*3F
$GPGSV,3,1,11,30,70,122,41,14,64,336,33,22,51,203,35,12,47,057,40*7F
$GPGSV,3,2,11,31,34,265,36,18,24,172,28,09,10,063,35,29,06,141,14*7F
$GPGSV,3,3,11,27,05,066,32,32,04,324,,26,00,114,*48
$GPRMC,045837.000,A,3731.1270,N,12652.6501,E,11.27,5.88,310510,,,A*57
$GPGGA,045838.000,3731.1299,N,12652.6504,E,1,09,1.1,15.2,M,19.4,M,,0000*6D
$GPGSA,A,3,18,29,30,09,12,14,22,27,31,,,,1.7,1.1,1.3*3F
$GPGSV,3,1,11,30,70,122,41,14,64,336,33,22,51,203,35,12,47,057,40*7F
$GPGSV,3,2,11,31,34,265,22,18,24,172,28,09,10,063,35,29,06,141,14*7A
$GPGSV,3,3,11,27,05,066,32,32,04,324,,26,00,114,*48
$GPRMC,045838.000,A,3731.1299,N,12652.6504,E,9.84,5.90,310510,,,A*63
$GPGGA,045839.000,3731.1325,N,12652.6507,E,1,09,1.1,15.3,M,19.4,M,,0000*68
$GPGSA,A,3,18,29,30,09,12,14,22,27,31,,,,1.7,1.1,1.3*3F
$GPGSV,3,1,11,30,70,122,41,14,64,336,33,22,51,203,35,12,47,057,40*7F
$GPGSV,3,2,11,31,34,265,18,18,24,172,27,09,10,063,34,29,06,141,14*7D
$GPGSV,3,3,11,27,05,066,27,32,04,324,,26,00,114,*4C
$GPRMC,045839.000,A,3731.1325,N,12652.6507,E,8.64,3.54,310510,,,A*66
$GPGGA,045840.000,3731.1348,N,12652.6509,E,1,09,1.1,15.3,M,19.4,M,,0000*63
$GPGSA,A,3,18,29,30,09,12,14,22,27,31,,,,1.7,1.1,1.3*3F
$GPGSV,3,1,11,30,70,122,41,14,64,336,33,22,51,203,35,12,47,057,40*7F
$GPGSV,3,2,11,31,34,265,19,18,24,172,27,09,10,063,34,29,06,141,14*7C
$GPGSV,3,3,11,27,05,066,23,32,04,324,,26,00,114,*48
$GPRMC,045840.000,A,3731.1348,N,12652.6509,E,7.89,3.65,310510,,,A*63
$GPGGA,045841.000,3731.1369,N,12652.6511,E,1,08,1.2,15.2,M,19.4,M,,0000*6B
$GPGSA,A,3,29,30,09,12,14,22,27,31,,,,,1.8,1.2,1.3*3A
$GPGSV,3,1,11,30,70,122,41,14,64,336,33,22,51,203,35,12,47,057,40*7F
$GPGSV,3,2,11,31,34,265,20,18,24,172,,09,10,063,34,29,06,141,14*73
$GPGSV,3,3,11,27,05,066,25,32,04,324,,26,00,114,*4E
$GPRMC,045841.000,A,3731.1369,N,12652.6511,E,7.53,5.40,310510,,,A*6E
$GPGGA,045842.000,3731.1390,N,12652.6513,E,1,08,1.2,15.3,M,19.4,M,,0000*6D
$GPGSA,A,3,29,30,09,12,14,22,27,31,,,,,1.8,1.2,1.3*3A
$GPGSV,3,1,11,30,70,122,41,14,64,336,33,22,51,203,35,12,47,057,40*7F
$GPGSV,3,2,11,31,34,265,20,18,24,172,,09,10,063,34,29,06,141,14*73
$GPGSV,3,3,11,27,05,066,27,32,04,324,,26,00,114,*4C
$GPRMC,045842.000,A,3731.1390,N,12652.6513,E,7.71,3.41,310510,,,A*6E
$GPGGA,045843.000,3731.1412,N,12652.6515,E,1,09,1.1,15.2,M,19.4,M,,0000*64
$GPGSA,A,3,18,29,30,09,12,14,22,27,31,,,,1.7,1.1,1.3*3F
$GPGSV,3,1,11,30,70,122,41,14,64,336,33,22,51,203,35,12,47,057,40*7F
$GPGSV,3,2,11,31,34,265,28,18,24,172,26,09,10,063,34,29,06,141,15*7E
$GPGSV,3,3,11,27,05,066,27,32,04,324,,26,00,114,*4C
$GPRMC,045843.000,A,3731.1412,N,12652.6515,E,8.46,6.52,310510,,,A*68
$GPGGA,045844.000,3731.1436,N,12652.6518,E,1,09,1.1,15.1,M,19.4,M,,0000*6B
$GPGSA,A,3,18,29,30,09,12,14,22,27,31,,,,1.7,1.1,1.3*3F
$GPGSV,3,1,11,30,70,122,41,14,64,336,33,22,51,203,35,12,47,057,41*7E
$GPGSV,3,2,11,31,34,265,34,18,24,172,27,09,10,063,33,29,06,141,20*73
$GPGSV,3,3,11,27,05,066,28,32,04,324,,26,00,114,*43
$GPRMC,045844.000,A,3731.1436,N,12652.6518,E,8.72,6.52,310510,,,A*63
$GPGGA,045845.000,3731.1462,N,12652.6521,E,1,09,1.1,15.0,M,19.4,M,,0000*60
$GPGSA,A,3,18,29,30,09,12,14,22,27,31,,,,1.7,1.1,1.3*3F
$GPGSV,3,1,11,30,70,122,41,14,64,336,33,22,51,203,35,12,47,057,41*7E
$GPGSV,3,2,11,31,34,265,35,18,24,172,27,09,10,063,33,29,06,141,21*73
$GPGSV,3,3,11,27,05,066,28,32,04,324,,26,00,114,*43
$GPRMC,045845.000,A,3731.1462,N,12652.6521,E,9.75,5.52,310510,,,A*6C
$GPGGA,045846.000,3731.1490,N,12652.6525,E,1,08,1.1,15.1,M,19.4,M,,0000*6A
$GPGSA,A,3,18,29,30,09,12,14,22,31,,,,,1.8,1.1,1.4*32
$GPGSV,3,1,11,30,70,122,41,14,64,336,33,22,51,203,36,12,47,057,41*7D
$GPGSV,3,2,11,31,34,265,35,18,24,172,27,09,10,063,33,29,06,141,21*73
$GPGSV,3,3,11,27,05,066,,32,04,324,,26,00,114,*49
$GPRMC,045846.000,A,3731.1490,N,12652.6525,E,10.44,3.91,310510,,,A*55
$GPGGA,045847.000,3731.1518,N,12652.6528,E,1,09,1.1,15.2,M,19.4,M,,0000*65
$GPGSA,A,3,18,29,30,09,12,14,22,31,27,,,,1.7,1.1,1.3*3F
$GPGSV,3,1,11,30,70,122,41,14,64,336,33,22,51,203,36,12,47,057,40*7C
$GPGSV,3,2,11,31,34,265,35,18,24,172,28,09,10,063,33,29,06,141,21*7C
$GPGSV,3,3,11,27,05,066,30,32,04,324,,26,00,114,*4A
$GPRMC,045847.000,A,3731.1518,N,12652.6528,E,10.10,3.08,310510,,,A*59
$GPGGA,045848.000,3731.1543,N,12652.6531,E,1,09,1.1,15.2,M,19.4,M,,0000*6C
$GPGSA,A,3,18,29,30,09,12,14,22,31,27,,,,1.7,1.1,1.3*3F
$GPGSV,3,1,11,30,70,122,41,14,64,336,33,22,51,203,36,12,47,057,40*7C
$GPGSV,3,2,11,31,34,265,35,18,24,172,28,09,10,063,33,29,06,141,22*7F
$GPGSV,3,3,11,27,05,066,32,32,04,324,,26,00,114,*48
$GPRMC,045848.000,A,3731.1543,N,12652.6531,E,8.17,5.37,310510,,,A*64
$GPGGA,045849.000,3731.1563,N,12652.6534,E,1,09,1.1,15.1,M,19.4,M,,0000*69
$GPGSA,A,3,18,29,30,09,12,14,22,31,27,,,,1.7,1.1,1.3*3F
$GPGSV,3,1,11,30,70,122,41,14,64,336,33,22,51,203,36,12,47,057,40*7C
$GPGSV,3,2,11,31,34,265,35,18,24,172,28,09,10,063,33,29,06,141,22*7F
$GPGSV,3,3,11,27,05,066,31,32,04,324,,26,00,114,*4B
$GPRMC,045849.000,A,3731.1563,N,12652.6534,E,6.57,6.58,310510,,,A*62
$GPGGA,045850.000,3731.1580,N,12652.6537,E,1,09,1.1,15.1,M,19.4,M,,0000*6F
$GPGSA,A,3,18,29,30,09,12,14,22,31,27,,,,1.7,1.1,1.3*3F
$GPGSV,3,1,11,30,70,122,41,14,64,336,33,22,51,203,36,12,47,057,40*7C
$GPGSV,3,2,11,31,34,265,35,18,24,172,28,09,10,063,33,29,06,141,23*7E
$GPGSV,3,3,11,27,05,066,31,32,04,324,,26,00,114,*4B
$GPRMC,045850.000,A,3731.1580,N,12652.6537,E,5.55,8.29,310510,,,A*6D
$GPGGA,045851.000,3731.1594,N,12652.6540,E,1,09,1.1,15.0,M,19.4,M,,0000*6A
$GPGSA,A,3,18,29,30,09,12,14,22,31,27,,,,1.7,1.1,1.3*3F
$GPGSV,3,1,11,30,70,122,41,14,64,336,33,22,51,203,36,12,47,057,40*7C
$GPGSV,3,2,11,31,34,265,36,18,24,172,28,09,10,063,34,29,06,141,25*7C
$GPGSV,3,3,11,27,05,066,31,32,04,324,,26,00,114,*4B
$GPRMC,045851.000,A,3731.1594,N,12652.6540,E,5.11,8.94,310510,,,A*6F
$GPGGA,045852.000,3731.1609,N,12652.6543,E,1,09,1.1,14.9,M,19.4,M,,0000*65
$GPGSA,A,3,18,29,30,09,12,14,22,31,27,,,,1.7,1.1,1.3*3F
$GPGSV,3,1,11,30,70,122,41,14,64,336,33,22,51,203,36,12,47,057,40*7C
$GPGSV,3,2,11,31,34,265,36,18,24,172,28,09,10,063,34,29,06,141,27*7E
$GPGSV,3,3,11,27,05,066,32,32,04,324,,26,00,114,*48
$GPRMC,045852.000,A,3731.1609,N,12652.6543,E,5.93,9.24,310510,,,A*68
$GPGGA,045853.000,3731.1628,N,12652.6547,E,1,09,1.1,14.8,M,19.4,M,,0000*62
$GPGSA,A,3,18,29,30,09,12,14,22,31,27,,,,1.7,1.1,1.3*3F
$GPGSV,3,1,11,30,70,122,41,14,64,336,33,22,51,203,36,12,47,057,40*7C
$GPGSV,3,2,11,31,34,265,33,18,24,172,28,09,10,063,34,29,06,141,27*7B
$GPGSV,3,3,11,27,05,066,32,32,04,324,,26,00,114,*48
$GPRMC,045853.000,A,3731.1628,N,12652.6547,E,7.86,10.16,310510,,,A*51
$GPGGA,045854.000,3731.1652,N,12652.6552,E,1,09,1.1,14.9,M,19.4,M,,0000*6D
$GPGSA,A,3,18,29,30,09,12,14,22,31,27,,,,1.7,1.1,1.3*3F
$GPGSV,3,1,11,30,70,122,41,14,64,336,34,22,51,203,36,12,47,057,40*7B
$GPGSV,3,2,11,31,34,265,13,18,24,172,27,09,10,063,34,29,06,141,28*79
$GPGSV,3,3,11,27,05,066,32,32,04,324,,26,00,114,*48
$GPRMC,045854.000,A,3731.1652,N,12652.6552,E,9.36,10.65,310510,,,A*5E
$GPGGA,045855.000,3731.1679,N,12652.6559,E,1,09,1.1,15.1,M,19.4,M,,0000*67
$GPGSA,A,3,18,29,30,09,12,14,22,31,27,,,,1.7,1.1,1.3*3F
$GPGSV,3,1,11,30,70,122,41,14,64,336,34,22,51,203,36,12,47,057,40*7B
$GPGSV,3,2,11,31,34,265,11,18,24,172,17,09,10,063,34,29,06,141,33*72
$GPGSV,3,3,11,27,05,066,33,32,04,324,,26,00,114,*49
$GPRMC,045855.000,A,3731.1679,N,12652.6559,E,9.57,11.60,310510,,,A*5E
$GPGGA,045856.000,3731.1705,N,12652.6566,E,1,09,1.1,15.4,M,19.4,M,,0000*67
$GPGSA,A,3,18,29,30,09,12,14,22,31,27,,,,1.7,1.1,1.3*3F
$GPGSV,3,1,11,30,70,122,41,14,64,336,33,22,51,203,36,12,47,057,40*7C
$GPGSV,3,2,11,31,34,265,14,18,24,172,22,09,10,063,34,29,06,141,35*77
$GPGSV,3,3,11,27,05,066,33,32,04,324,,26,00,114,*49
$GPRMC,045856.000,A,3731.1705,N,12652.6566,E,8.98,13.41,310510,,,A*58
$GPGGA,045857.000,3731.1728,N,12652.6573,E,1,09,1.1,15.6,M,19.4,M,,0000*6F
$GPGSA,A,3,18,29,30,09,12,14,22,31,27,,,,1.7,1.1,1.3*3F
$GPGSV,3,1,11,30,70,122,41,14,64,336,33,22,51,203,36,12,47,057,40*7C
$GPGSV,3,2,11,31,34,265,16,18,24,172,23,09,10,063,34,29,06,141,34*75
$GPGSV,3,3,11,27,05,066,33,32,04,324,,26,00,114,*49
$GPRMC,045857.000,A,3731.1728,N,12652.6573,E,8.34,14.38,310510,,,A*5D
$GPGGA,045858.000,3731.1750,N,12652.6579,E,1,09,1.1,15.6,M,19.4,M,,0000*65
$GPGSA,A,3,18,29,30,09,12,14,22,31,27,,,,1.7,1.1,1.3*3F
$GPGSV,3,1,11,30,70,122,41,14,64,336,33,22,51,203,36,12,47,057,40*7C
$GPGSV,3,2,11,31,34,265,26,18,24,172,24,09,10,063,34,29,06,141,34*71
$GPGSV,3,3,11,27,05,066,33,32,04,324,,26,00,114,*49
$GPRMC,045858.000,A,3731.1750,N,12652.6579,E,7.51,12.49,310510,,,A*5B
$GPGGA,045859.000,3731.1769,N,12652.6584,E,1,09,1.1,15.7,M,19.4,M,,0000*6D
$GPGSA,A,3,18,29,30,09,12,14,22,31,27,,,,1.7,1.1,1.3*3F
$GPGSV,3,1,11,30,70,122,41,14,64,336,33,22,51,203,36,12,47,057,40*7C
$GPGSV,3,2,11,31,34,265,30,18,24,172,25,09,10,063,35,29,06,141,34*76
$GPGSV,3,3,11,27,05,066,33,32,04,324,,26,00,114,*49
$GPRMC,045859.000,A,3731.1769,N,12652.6584,E,6.44,12.98,310510,,,A*5B
$GPGGA,045900.000,3731.1786,N,12652.6586,E,1,09,1.1,15.7,M,19.4,M,,0000*63
$GPGSA,A,3,18,29,30,09,12,14,22,31,27,,,,1.7,1.1,1.3*3F
$GPGSV,3,1,11,30,70,122,42,14,64,336,33,22,51,203,36,12,47,057,40*7F
$GPGSV,3,2,11,31,34,265,39,18,24,172,25,09,10,063,35,29,06,141,34*7F
$GPGSV,3,3,11,27,05,066,34,32,04,324,,26,00,114,*4E
$GPRMC,045900.000,A,3731.1786,N,12652.6586,E,5.22,14.47,310510,,,A*52
$GPGGA,045901.000,3731.1799,N,12652.6589,E,1,09,1.1,15.5,M,19.4,M,,0000*61
$GPGSA,A,3,18,29,30,09,12,14,22,31,27,,,,1.7,1.1,1.3*3F
$GPGSV,3,1,11,30,70,122,42,14,64,336,33,22,51,203,36,12,47,057,39*71
$GPGSV,3,2,11,31,34,265,40,18,24,172,26,09,10,063,35,29,06,141,34*72
$GPGSV,3,3,11,27,05,066,34,32,04,324,,26,00,114,*4E
$GPRMC,045901.000,A,3731.1799,N,12652.6589,E,4.72,14.33,310510,,,A*55
$GPGGA,045902.000,3731.1812,N,12652.6592,E,1,09,1.1,15.4,M,19.4,M,,0000*65
$GPGSA,A,3,18,29,30,09,12,14,22,31,27,,,,1.7,1.1,1.3*3F
$GPGSV,3,1,11,30,70,122,42,14,64,336,33,22,51,203,36,12,47,057,39*71
$GPGSV,3,2,11,31,34,265,39,18,24,172,26,09,10,063,35,29,06,141,31*79
$GPGSV,3,3,11,27,05,066,34,32,04,324,,26,00,114,*4E
$GPRMC,045902.000,A,3731.1812,N,12652.6592,E,4.35,14.60,310510,,,A*55
$GPGGA,045903.000,3731.1823,N,12652.6595,E,1,09,1.1,15.2,M,19.4,M,,0000*67
$GPGSA,A,3,18,29,30,09,12,14,22,31,27,,,,1.7,1.1,1.3*3F
$GPGSV,3,1,11,30,70,122,42,14,64,336,33,22,51,203,36,12,47,057,39*71
$GPGSV,3,2,11,31,34,265,39,18,24,172,27,09,10,063,35,29,06,141,29*71
$GPGSV,3,3,11,27,05,066,34,32,04,324,,26,00,114,*4E
$GPRMC,045903.000,A,3731.1823,N,12652.6595,E,3.98,15.91,310510,,,A*5E
$GPGGA,045904.000,3731.1833,N,12652.6598,E,1,09,1.1,15.1,M,19.4,M,,0000*6F
$GPGSA,A,3,18,29,30,09,12,14,22,31,27,,,,1.7,1.1,1.3*3F
$GPGSV,3,1,10,30,71,121,42,14,64,336,34,22,51,203,36,12,46,056,39*75
$GPGSV,3,2,10,31,34,266,39,18,23,172,32,09,10,063,36,29,06,140,30*7A
$GPGSV,3,3,10,27,05,066,34,32,05,323,*79
$GPRMC,045904.000,A,3731.1833,N,12652.6598,E,3.49,16.52,310510,,,A*55
$GPGGA,045905.000,3731.1840,N,12652.6600,E,1,09,1.1,15.1,M,19.4,M,,0000*68
$GPGSA,A,3,18,29,30,09,12,14,22,31,27,,,,1.7,1.1,1.3*3F
$GPGSV,3,1,10,30,71,121,42,14,64,336,34,22,51,203,36,12,46,056,36*7A
$GPGSV,3,2,10,31,34,266,38,18,23,172,32,09,10,063,36,29,06,140,30*7B
$GPGSV,3,3,10,27,05,066,34,32,05,323,*79
$GPRMC,045905.000,A,3731.1840,N,12652.6600,E,2.29,18.88,310510,,,A*5C
$GPGGA,045906.000,3731.1843,N,12652.6600,E,1,09,1.1,14.9,M,19.4,M,,0000*61
$GPGSA,A,3,18,29,30,09,12,14,22,31,27,,,,1.7,1.1,1.3*3F
$GPGSV,3,1,10,30,71,121,42,14,64,336,34,22,51,203,36,12,46,056,35*79
$GPGSV,3,2,10,31,34,266,38,18,23,172,32,09,10,063,36,29,06,140,30*7B
$GPGSV,3,3,10,27,05,066,34,32,05,323,*79
$GPRMC,045906.000,A,3731.1843,N,12652.6600,E,0.73,20.22,310510,,,A*5A
$GPGGA,045907.000,3731.1843,N,12652.6599,E,1,09,1.1,14.7,M,19.4,M,,0000*6D
$GPGSA,A,3,18,29,30,09,12,14,22,31,27,,,,1.7,1.1,1.3*3F
$GPGSV,3,1,10,30,71,121,42,14,64,336,33,22,51,203,36,12,46,056,35*7E
$GPGSV,3,2,10,31,34,266,38,18,23,172,32,09,10,063,36,29,06,140,30*7B
$GPGSV,3,3,10,27,05,066,34,32,05,323,11*79
$GPRMC,045907.000,A,3731.1843,N,12652.6599,E,0.00,,310510,,,A*70
$GPGGA,045908.000,3731.1843,N,12652.6599,E,1,09,1.1,14.7,M,19.4,M,,0000*62
$GPGSA,A,3,18,29,30,09,12,14,22,31,27,,,,1.7,1.1,1.3*3F
$GPGSV,3,1,10,30,71,121,42,14,64,336,33,22,51,203,37,12,46,056,36*7C
$GPGSV,3,2,10,31,34,266,38,18,23,172,31,09,10,063,36,29,06,140,30*78
$GPGSV,3,3,10,27,05,066,34,32,05,323,11*79
$GPRMC,045908.000,A,3731.1843,N,12652.6599,E,0.00,,310510,,,A*7F
$GPGGA,045909.000,3731.1843,N,12652.6599,E,1,09,1.1,14.7,M,19.4,M,,0000*63
$GPGSA,A,3,18,29,30,09,12,14,22,31,27,,,,1.7,1.1,1.3*3F
$GPGSV,3,1,10,30,71,121,42,14,64,336,33,22,51,203,37,12,46,056,36*7C
$GPGSV,3,2,10,31,34,266,38,18,23,172,31,09,10,063,36,29,06,140,30*78
$GPGSV,3,3,10,27,05,066,34,32,05,323,10*78
$GPRMC,045909.000,A,3731.1843,N,12652.6599,E,0.00,,310510,,,A*7E
$GPGGA,045910.000,3731.1843,N,12652.6599,E,1,09,1.1,14.7,M,19.4,M,,0000*6B
$GPGSA,A,3,18,29,30,09,12,14,22,31,27,,,,1.7,1.1,1.3*3F
$GPGSV,3,1,10,30,71,121,42,14,64,336,33,22,51,203,37,12,46,056,36*7C
$GPGSV,3,2,10,31,34,266,39,18,23,172,31,09,10,063,37,29,06,140,30*78
$GPGSV,3,3,10,27,05,066,34,32,05,323,*79
$GPRMC,045910.000,A,3731.1843,N,12652.6599,E,0.00,,310510,,,A*76
$GPGGA,045911.000,3731.1843,N,12652.6599,E,1,09,1.1,14.7,M,19.4,M,,0000*6A
$GPGSA,A,3,18,29,30,09,12,14,22,31,27,,,,1.7,1.1,1.3*3F
$GPGSV,3,1,10,30,71,121,42,14,64,336,33,22,51,203,37,12,46,056,36*7C
$GPGSV,3,2,10,31,34,266,39,18,23,172,31,09,10,063,39,29,06,140,30*76
$GPGSV,3,3,10,27,05,066,34,32,05,323,*79
$GPRMC,045911.000,A,3731.1843,N,12652.6599,E,0.00,,310510,,,A*77
$GPGGA,045912.000,3731.1843,N,12652.6599,E,1,09,1.1,14.7,M,19.4,M,,0000*69
$GPGSA,A,3,18,29,30,09,12,14,22,31,27,,,,1.7,1.1,1.3*3F
$GPGSV,3,1,10,30,71,121,42,14,64,336,33,22,51,203,37,12,46,056,36*7C
$GPGSV,3,2,10,31,34,266,39,18,23,172,31,09,10,063,40,29,06,140,31*79
$GPGSV,3,3,10,27,05,066,33,32,05,323,*7E
$GPRMC,045912.000,A,3731.1843,N,12652.6599,E,0.00,,310510,,,A*74
$GPGGA,045913.000,3731.1843,N,12652.6599,E,1,09,1.1,14.7,M,19.4,M,,0000*68
$GPGSA,A,3,18,29,30,09,12,14,22,31,27,,,,1.7,1.1,1.3*3F
$GPGSV,3,1,10,30,71,121,42,14,64,336,33,22,51,203,38,12,46,056,36*73
$GPGSV,3,2,10,31,34,266,39,18,23,172,31,09,10,063,39,29,06,140,31*77
$GPGSV,3,3,10,27,05,066,33,32,05,323,*7E
$GPRMC,045913.000,A,3731.1843,N,12652.6599,E,0.00,,310510,,,A*75
$GPGGA,045914.000,3731.1843,N,12652.6599,E,1,09,1.1,14.7,M,19.4,M,,0000*6F
$GPGSA,A,3,18,29,30,09,12,14,22,31,27,,,,1.7,1.1,1.3*3F
$GPGSV,3,1,10,30,71,121,42,14,64,336,33,22,51,203,38,12,46,056,36*73
$GPGSV,3,2,10,31,34,266,39,18,23,172,31,09,10,063,39,29,06,140,31*77
$GPGSV,3,3,10,27,05,066,33,32,05,323,*7E
$GPRMC,045914.000,A,3731.1843,N,12652.6599,E,0.00,,310510,,,A*72
$GPGGA,045915.000,3731.1843,N,12652.6599,E,1,09,1.1,14.7,M,19.4,M,,0000*6E
$GPGSA,A,3,18,29,30,09,12,14,22,31,27,,,,1.7,1.1,1.3*3F
$GPGSV,3,1,10,30,71,121,42,14,64,336,34,22,51,203,38,12,46,056,37*75
$GPGSV,3,2,10,31,34,266,39,18,23,172,31,09,10,063,39,29,06,140,31*77
$GPGSV,3,3,10,27,05,066,33,32,05,323,*7E
$GPRMC,045915.000,A,3731.1843,N,12652.6599,E,0.00,,310510,,,A*73
$GPGGA,045916.000,3731.1843,N,12652.6599,E,1,09,1.1,14.7,M,19.4,M,,0000*6D
$GPGSA,A,3,18,29,30,09,12,14,22,31,27,,,,1.7,1.1,1.3*3F
$GPGSV,3,1,10,30,71,121,42,14,64,336,34,22,51,203,38,12,46,056,37*75
$GPGSV,3,2,10,31,34,266,39,18,23,172,31,09,10,063,39,29,06,140,31*77
$GPGSV,3,3,10,27,05,066,33,32,05,323,*7E
$GPRMC,045916.000,A,3731.1843,N,12652.6599,E,0.00,,310510,,,A*70
$GPGGA,045917.000,3731.1843,N,12652.6599,E,1,09,1.1,14.7,M,19.4,M,,0000*6C
$GPGSA,A,3,18,29,30,09,12,14,22,31,27,,,,1.7,1.1,1.3*3F
$GPGSV,3,1,10,30,71,121,42,14,64,336,34,22,51,203,38,12,46,056,37*75
$GPGSV,3,2,10,31,34,266,38,18,23,172,32,09,10,063,39,29,06,140,31*75
$GPGSV,3,3,10,27,05,066,33,32,05,323,*7E
$GPRMC,045917.000,A,3731.1843,N,12652.6599,E,0.00,,310510,,,A*71
$GPGGA,045918.000,3731.1843,N,12652.6599,E,1,09,1.1,14.7,M,19.4,M,,0000*63
$GPGSA,A,3,18,29,30,09,12,14,22,31,27,,,,1.7,1.1,1.3*3F
$GPGSV,3,1,10,30,71,121,42,14,64,336,34,22,51,203,38,12,46,056,37*75
$GPGSV,3,2,10,31,34,266,38,18,23,172,32,09,10,063,39,29,06,140,32*76
$GPGSV,3,3,10,27,05,066,33,32,05,323,*7E
$GPRMC,045918.000,A,3731.1843,N,12652.6599,E,0.00,,310510,,,A*7E
$GPGGA,045919.000,3731.1843,N,12652.6599,E,1,09,1.1,14.7,M,19.4,M,,0000*62
$GPGSA,A,3,18,29,30,09,12,14,22,31,27,,,,1.7,1.1,1.3*3F
$GPGSV,3,1,10,30,71,121,42,14,64,336,34,22,51,203,38,12,46,056,37*75
$GPGSV,3,2,10,31,34,266,38,18,23,172,32,09,10,063,39,29,06,140,32*76
$GPGSV,3,3,10,27,05,066,33,32,05,323,*7E
$GPRMC,045919.000,A,3731.1843,N,12652.6599,E,0.00,,310510,,,A*7F
$GPGGA,045920.000,3731.1850,N,12652.6596,E,1,09,1.1,15.7,M,19.4,M,,0000*64
$GPGSA,A,3,18,29,30,09,12,14,22,31,27,,,,1.7,1.1,1.3*3F
$GPGSV,3,1,10,30,71,121,42,14,64,336,34,22,51,203,38,12,46,056,37*75
$GPGSV,3,2,10,31,34,266,38,18,23,172,32,09,10,063,39,29,06,140,32*76
$GPGSV,3,3,10,27,05,066,34,32,05,323,*79
$GPRMC,045920.000,A,3731.1850,N,12652.6596,E,4.97,19.63,310510,,,A*51
$GPGGA,045921.000,3731.1868,N,12652.6603,E,1,09,1.1,15.9,M,19.4,M,,0000*6F
$GPGSA,A,3,18,29,30,09,12,14,22,31,27,,,,1.7,1.1,1.3*3F
$GPGSV,3,1,10,30,71,121,42,14,64,336,34,22,51,203,38,12,46,056,37*75
$GPGSV,3,2,10,31,34,266,38,18,23,172,32,09,10,063,39,29,06,140,32*76
$GPGSV,3,3,10,27,05,066,34,32,05,323,*79
$GPRMC,045921.000,A,3731.1868,N,12652.6603,E,7.99,18.03,310510,,,A*5E
$GPGGA,045922.000,3731.1894,N,12652.6611,E,1,09,1.1,15.8,M,19.4,M,,0000*6D
$GPGSA,A,3,18,29,30,09,12,14,22,31,27,,,,1.7,1.1,1.3*3F
$GPGSV,3,1,10,30,71,121,42,14,64,336,34,22,51,203,38,12,46,056,37*75
$GPGSV,3,2,10,31,34,266,38,18,23,172,32,09,10,063,39,29,06,140,32*76
$GPGSV,3,3,10,27,05,066,34,32,05,323,*79
$GPRMC,045922.000,A,3731.1894,N,12652.6611,E,10.46,15.80,310510,,,A*6F
$GPGGA,045923.000,3731.1924,N,12652.6624,E,1,09,1.1,15.8,M,19.4,M,,0000*60
$GPGSA,A,3,18,29,30,09,12,14,22,31,27,,,,1.7,1.1,1.3*3F
$GPGSV,3,1,10,30,71,121,39,14,64,336,33,22,51,203,37,12,46,056,37*71
$GPGSV,3,2,10,31,34,266,38,18,23,172,30,09,10,063,38,29,06,140,32*75
$GPGSV,3,3,10,27,05,066,34,32,05,323,*79
$GPRMC,045923.000,A,3731.1924,N,12652.6624,E,12.00,19.56,310510,,,A*65
$GPGGA,045924.000,3731.1957,N,12652.6638,E,1,09,1.1,15.8,M,19.4,M,,0000*6E
$GPGSA,A,3,18,29,30,09,12,14,22,31,27,,,,1.7,1.1,1.3*3F
$GPGSV,3,1,10,30,71,121,39,14,64,336,33,22,51,203,37,12,46,056,37*71
$GPGSV,3,2,10,31,34,266,35,18,23,172,24,09,10,063,38,29,06,140,32*7D
$GPGSV,3,3,10,27,05,066,34,32,05,323,*79
$GPRMC,045924.000,A,3731.1957,N,12652.6638,E,12.77,19.91,310510,,,A*60
$GPGGA,045925.000,3731.1994,N,12652.6655,E,1,09,1.1,15.8,M,19.4,M,,0000*6B
$GPGSA,A,3,18,29,30,09,12,14,22,31,27,,,,1.7,1.1,1.3*3F
$GPGSV,3,1,10,30,71,121,39,14,64,336,33,22,51,203,37,12,46,056,38*7E
$GPGSV,3,2,10,31,34,266,20,18,23,172,25,09,10,063,38,29,06,140,32*78
$GPGSV,3,3,10,27,05,066,34,32,05,323,*79
$GPRMC,045925.000,A,3731.1994,N,12652.6655,E,14.42,20.44,310510,,,A*67
$GPGGA,045926.000,3731.2036,N,12652.6673,E,1,07,2.0,15.8,M,19.4,M,,0000*62
$GPGSA,A,3,29,30,09,12,14,22,27,,,,,,2.8,2.0,2.0*3A
$GPGSV,3,1,10,30,71,121,39,14,64,336,33,22,51,203,37,12,46,056,38*7E
$GPGSV,3,2,10,31,34,266,09,18,23,172,,09,10,063,38,29,06,140,32*74
$GPGSV,3,3,10,27,05,066,33,32,05,323,*7E
$GPRMC,045926.000,A,3731.2036,N,12652.6673,E,16.26,20.39,310510,,,A*68
$GPGGA,045927.000,3731.2081,N,12652.6693,E,1,08,1.2,15.6,M,19.4,M,,0000*61
$GPGSA,A,3,29,30,09,12,14,22,31,27,,,,,1.8,1.2,1.3*3A
$GPGSV,3,1,10,30,71,121,39,14,64,336,33,22,51,203,37,12,46,056,38*7E
$GPGSV,3,2,10,31,34,266,14,18,23,172,,09,10,063,38,29,06,140,32*78
$GPGSV,3,3,10,27,05,066,33,32,05,323,*7E
$GPRMC,045927.000,A,3731.2081,N,12652.6693,E,17.62,20.21,310510,,,A*63
$GPGGA,045928.000,3731.2128,N,12652.6717,E,1,09,1.1,15.7,M,19.4,M,,0000*62
$GPGSA,A,3,18,29,30,09,12,14,22,31,27,,,,1.7,1.1,1.3*3F
$GPGSV,3,1,10,30,71,121,39,14,64,336,33,22,51,203,37,12,46,056,37*71
$GPGSV,3,2,10,31,34,266,36,18,23,172,27,09,10,063,37,29,06,140,32*72
$GPGSV,3,3,10,27,05,066,33,32,05,323,*7E
$GPRMC,045928.000,A,3731.2128,N,12652.6717,E,18.56,22.41,310510,,,A*6F
$GPGGA,045929.000,3731.2177,N,12652.6742,E,1,08,1.2,15.6,M,19.4,M,,0000*6A
$GPGSA,A,3,18,30,09,12,14,22,31,27,,,,,1.8,1.2,1.4*3F
$GPGSV,3,1,10,30,71,121,39,14,64,336,32,22,51,203,36,12,46,056,38*7E
$GPGSV,3,2,10,31,34,266,35,18,23,172,26,09,10,063,37,29,06,140,*71
$GPGSV,3,3,10,27,05,066,33,32,05,323,*7E
$GPRMC,045929.000,A,3731.2177,N,12652.6742,E,18.86,23.50,310510,,,A*68
$GPGGA,045930.000,3731.2227,N,12652.6768,E,1,09,1.1,15.6,M,19.4,M,,0000*6E
$GPGSA,A,3,18,29,30,09,12,14,22,31,27,,,,1.7,1.1,1.3*3F
$GPGSV,3,1,10,30,71,121,38,14,64,336,32,22,51,203,36,12,46,056,38*7F
$GPGSV,3,2,10,31,34,266,34,18,23,172,26,09,10,063,37,29,06,140,30*73
$GPGSV,3,3,10,27,05,066,29,32,05,323,*75
$GPRMC,045930.000,A,3731.2227,N,12652.6768,E,19.65,21.71,310510,,,A*63
$GPGGA,045931.000,3731.2277,N,12652.6794,E,1,09,1.1,15.5,M,19.4,M,,0000*6A
$GPGSA,A,3,18,29,30,09,12,14,22,31,27,,,,1.7,1.1,1.3*3F
$GPGSV,3,1,10,30,71,121,38,14,64,336,32,22,51,203,36,12,46,056,38*7F
$GPGSV,3,2,10,31,34,266,34,18,23,172,26,09,10,063,37,29,06,140,30*73
$GPGSV,3,3,10,27,05,066,30,32,05,323,*7D
$GPRMC,045931.000,A,3731.2277,N,12652.6794,E,19.13,22.84,310510,,,A*6C
$GPGGA,045932.000,3731.2328,N,12652.6819,E,1,09,1.1,15.8,M,19.4,M,,0000*65
$GPGSA,A,3,18,29,30,09,12,14,22,31,27,,,,1.7,1.1,1.3*3F
$GPGSV,3,1,10,30,71,121,39,14,64,336,32,22,51,203,36,12,46,056,38*7E
$GPGSV,3,2,10,31,34,266,26,18,23,172,26,09,10,063,34,29,06,140,29*7B
$GPGSV,3,3,10,27,05,066,31,32,05,323,*7C
$GPRMC,045932.000,A,3731.2328,N,12652.6819,E,19.17,22.19,310510,,,A*6E
$GPGGA,045933.000,3731.2379,N,12652.6844,E,1,09,1.1,15.8,M,19.4,M,,0000*68
$GPGSA,A,3,18,29,30,09,12,14,22,31,27,,,,1.7,1.1,1.3*3F
$GPGSV,3,1,10,30,71,121,39,14,64,336,32,22,51,203,36,12,46,056,38*7E
$GPGSV,3,2,10,31,34,266,16,18,23,172,26,09,10,063,34,29,06,140,29*78
$GPGSV,3,3,10,27,05,066,32,32,05,323,*7F
$GPRMC,045933.000,A,3731.2379,N,12652.6844,E,19.15,22.96,310510,,,A*66
$GPGGA,045934.000,3731.2431,N,12652.6868,E,1,09,1.1,15.7,M,19.4,M,,0000*65
$GPGSA,A,3,18,29,30,09,12,14,22,31,27,,,,1.7,1.1,1.3*3F
$GPGSV,3,1,10,30,71,121,39,14,64,336,32,22,51,203,36,12,46,056,38*7E
$GPGSV,3,2,10,31,34,266,23,18,23,172,26,09,10,063,34,29,06,140,29*7E
$GPGSV,3,3,10,27,05,066,32,32,05,323,*7F
$GPRMC,045934.000,A,3731.2431,N,12652.6868,E,19.41,21.18,310510,,,A*60
$GPGGA,045935.000,3731.2482,N,12652.6892,E,1,08,1.9,15.7,M,19.4,M,,0000*60
$GPGSA,A,3,18,29,30,09,12,14,22,27,,,,,2.7,1.9,1.9*3C
$GPGSV,3,1,10,30,71,121,39,14,64,336,32,22,51,203,36,12,46,056,38*7E
$GPGSV,3,2,10,31,34,266,,18,23,172,26,09,10,063,34,29,06,140,29*7F
$GPGSV,3,3,10,27,05,066,32,32,05,323,*7F
$GPRMC,045935.000,A,3731.2482,N,12652.6892,E,18.94,21.11,310510,,,A*6C
$GPGGA,045936.000,3731.2531,N,12652.6914,E,1,08,1.9,15.7,M,19.4,M,,0000*65
$GPGSA,A,3,18,29,30,09,12,14,22,27,,,,,2.7,1.9,1.9*3C
$GPGSV,3,1,10,30,71,121,39,14,64,336,32,22,51,203,36,12,46,056,38*7E
$GPGSV,3,2,10,31,34,266,,18,23,172,26,09,10,063,34,29,06,140,29*7F
$GPGSV,3,3,10,27,05,066,32,32,05,323,*7F
$GPRMC,045936.000,A,3731.2531,N,12652.6914,E,18.04,20.71,310510,,,A*67
$GPGGA,045937.000,3731.2578,N,12652.6934,E,1,09,1.1,15.4,M,19.4,M,,0000*61
$GPGSA,A,3,18,29,30,09,12,14,22,31,27,,,,1.7,1.1,1.3*3F
$GPGSV,3,1,10,30,71,121,39,14,64,336,32,22,51,203,36,12,46,056,38*7E
$GPGSV,3,2,10,31,34,266,36,18,23,172,26,09,10,063,34,29,06,140,29*7A
$GPGSV,3,3,10,27,05,066,32,32,05,323,*7F
$GPRMC,045937.000,A,3731.2578,N,12652.6934,E,17.01,18.10,310510,,,A*6F
$GPGGA,045938.000,3731.2620,N,12652.6955,E,1,08,1.2,15.6,M,19.4,M,,0000*67
$GPGSA,A,3,18,30,09,12,14,22,31,27,,,,,1.8,1.2,1.4*3F
$GPGSV,3,1,10,30,71,121,39,14,64,336,32,22,51,203,36,12,46,056,38*7E
$GPGSV,3,2,10,31,34,266,36,18,23,172,27,09,10,063,34,29,06,140,*70
$GPGSV,3,3,10,27,05,066,32,32,05,323,*7F
$GPRMC,045938.000,A,3731.2620,N,12652.6955,E,15.35,20.79,310510,,,A*68
$GPGGA,045939.000,3731.2660,N,12652.6973,E,1,08,1.9,15.5,M,19.4,M,,0000*6E
$GPGSA,A,3,18,29,30,09,12,14,22,27,,,,,2.7,1.9,1.9*3C
$GPGSV,3,1,10,30,71,121,39,14,64,336,32,22,51,203,36,12,46,056,38*7E
$GPGSV,3,2,10,31,34,266,,18,23,172,27,09,10,063,34,29,06,140,33*75
$GPGSV,3,3,10,27,05,066,22,32,05,323,*7E
$GPRMC,045939.000,A,3731.2660,N,12652.6973,E,14.75,20.77,310510,,,A*62
$GPGGA,045940.000,3731.2699,N,12652.6991,E,1,08,1.9,15.6,M,19.4,M,,0000*69
$GPGSA,A,3,18,29,30,09,12,14,22,27,,,,,2.7,1.9,1.9*3C
$GPGSV,3,1,10,30,71,121,39,14,64,336,32,22,51,203,36,12,46,056,38*7E
$GPGSV,3,2,10,31,34,266,,18,23,172,27,09,10,063,34,29,06,140,32*74
$GPGSV,3,3,10,27,05,066,25,32,05,323,*79
$GPRMC,045940.000,A,3731.2699,N,12652.6991,E,14.50,21.04,310510,,,A*64
$GPGGA,045941.000,3731.2740,N,12652.7008,E,1,09,1.1,15.6,M,19.4,M,,0000*6C
$GPGSA,A,3,18,29,30,09,12,14,22,31,27,,,,1.7,1.1,1.3*3F
$GPGSV,3,1,10,30,71,121,39,14,64,336,32,22,51,203,36,12,46,056,38*7E
$GPGSV,3,2,10,31,34,266,17,18,23,172,27,09,10,063,34,29,06,140,33*73
$GPGSV,3,3,10,27,05,066,26,32,05,323,*7A
$GPRMC,045941.000,A,3731.2740,N,12652.7008,E,15.72,19.52,310510,,,A*61
$GPGGA,045942.000,3731.2784,N,12652.7027,E,1,09,1.1,15.6,M,19.4,M,,0000*6A
$GPGSA,A,3,18,29,30,09,12,14,22,31,27,,,,1.7,1.1,1.3*3F
$GPGSV,3,1,10,30,71,121,39,14,64,336,32,22,51,203,36,12,46,056,37*71
$GPGSV,3,2,10,31,34,266,29,18,23,172,27,09,10,063,34,29,06,140,33*7E
$GPGSV,3,3,10,27,05,066,34,32,05,323,*79
$GPRMC,045942.000,A,3731.2784,N,12652.7027,E,17.37,16.54,310510,,,A*6D
$GPGGA,045943.000,3731.2833,N,12652.7045,E,1,09,1.1,15.8,M,19.4,M,,0000*62
$GPGSA,A,3,18,29,30,09,12,14,22,31,27,,,,1.7,1.1,1.3*3F
$GPGSV,3,1,10,30,71,121,39,14,64,336,32,22,51,203,36,12,46,056,33*75
$GPGSV,3,2,10,31,34,266,36,18,23,172,27,09,10,063,34,29,06,140,33*70
$GPGSV,3,3,10,27,05,066,35,32,05,323,*78
$GPRMC,045943.000,A,3731.2833,N,12652.7045,E,18.68,12.19,310510,,,A*63
$GPGGA,045944.000,3731.2887,N,12652.7059,E,1,09,1.1,15.9,M,19.4,M,,0000*66
$GPGSA,A,3,18,29,30,09,12,14,22,31,27,,,,1.7,1.1,1.3*3F
$GPGSV,3,1,10,30,71,121,40,14,64,336,32,22,51,203,37,12,46,056,34*7D
$GPGSV,3,2,10,31,34,266,37,18,23,172,26,09,10,063,35,29,06,140,33*71
$GPGSV,3,3,10,27,05,066,34,32,05,323,*79
$GPRMC,045944.000,A,3731.2887,N,12652.7059,E,20.07,9.08,310510,,,A*5E
$GPGGA,045945.000,3731.2945,N,12652.7068,E,1,09,1.1,15.8,M,19.4,M,,0000*6B
$GPGSA,A,3,18,29,30,09,12,14,22,31,27,,,,1.7,1.1,1.3*3F
$GPGSV,3,1,10,30,71,121,40,14,64,336,32,22,51,203,37,12,46,056,39*70
$GPGSV,3,2,10,31,34,266,37,18,23,172,24,09,10,063,35,29,06,140,33*73
$GPGSV,3,3,10,27,05,066,34,32,05,323,*79
$GPRMC,045945.000,A,3731.2945,N,12652.7068,E,20.98,5.13,310510,,,A*52
$GPGGA,045946.000,3731.3007,N,12652.7072,E,1,07,1.9,16.1,M,19.4,M,,0000*61
$GPGSA,A,3,18,29,30,09,12,14,22,,,,,,2.9,1.9,2.1*3C
$GPGSV,3,1,10,30,71,121,40,14,64,336,32,22,51,203,37,12,46,056,41*7F
$GPGSV,3,2,10,31,34,266,,18,23,172,25,09,10,063,32,29,06,140,33*71
$GPGSV,3,3,10,27,05,066,24,32,05,323,*78
$GPRMC,045946.000,A,3731.3007,N,12652.7072,E,22.01,1.88,310510,,,A*50
$GPGGA,045947.000,3731.3071,N,12652.7072,E,1,07,1.9,16.3,M,19.4,M,,0000*63
$GPGSA,A,3,18,29,30,09,12,14,22,,,,,,2.9,1.9,2.1*3C
$GPGSV,3,1,10,30,71,121,40,14,64,336,37,22,51,203,37,12,46,056,41*7A
$GPGSV,3,2,10,31,34,266,,18,23,172,26,09,10,063,32,29,06,140,25*75
$GPGSV,3,3,10,27,05,066,13,32,05,323,*7C
$GPRMC,045947.000,A,3731.3071,N,12652.7072,E,23.23,358.64,310510,,,A*5C
$GPGGA,045948.000,3731.3140,N,12652.7065,E,1,08,1.1,16.1,M,19.4,M,,0000*6C
$GPGSA,A,3,18,29,30,09,12,14,22,31,,,,,1.8,1.1,1.5*33
$GPGSV,3,1,10,30,71,121,40,14,64,336,38,22,51,203,37,12,46,056,41*75
$GPGSV,3,2,10,31,34,266,21,18,23,172,25,09,10,063,32,29,06,140,24*74
$GPGSV,3,3,10,27,05,066,08,32,05,323,*76
$GPRMC,045948.000,A,3731.3140,N,12652.7065,E,24.72,355.25,310510,,,A*5D
$GPGGA,045949.000,3731.3212,N,12652.7056,E,1,08,1.1,16.3,M,19.4,M,,0000*6B
$GPGSA,A,3,18,29,30,09,12,14,22,31,,,,,1.8,1.1,1.5*33
$GPGSV,3,1,10,30,71,121,39,14,64,336,37,22,51,203,37,12,46,056,41*74
$GPGSV,3,2,10,31,34,266,36,18,23,172,25,09,10,063,25,29,06,140,24*74
$GPGSV,3,3,10,27,05,066,10,32,05,323,13*7D
$GPRMC,045949.000,A,3731.3212,N,12652.7056,E,26.13,353.23,310510,,,A*5D
$GPGGA,045950.000,3731.3287,N,12652.7045,E,1,09,1.1,16.2,M,19.4,M,,0000*6D
$GPGSA,A,3,18,29,30,09,12,14,22,31,27,,,,1.7,1.1,1.3*3F
$GPGSV,3,1,10,30,71,121,39,14,64,336,37,22,51,203,37,12,46,056,41*74
$GPGSV,3,2,10,31,34,266,37,18,23,172,25,09,10,063,26,29,06,140,23*71
$GPGSV,3,3,10,27,05,066,21,32,05,323,13*7F
$GPRMC,045950.000,A,3731.3287,N,12652.7045,E,27.10,353.19,310510,,,A*50
