$GPGSV,3,1,09,01,71,157,34,02,67,050,16,07,62,257,20,08,39,033,22,1*6E
$GPGSV,3,2,09,17,17,262,17,30,37,302,17,03,11,154,,14,15,312,,1*6E
$GPGSV,3,3,09,27,09,056,,1*52
$GLGSV,2,1,05,82,16,026,16,73,55,350,19,80,52,112,30,83,57,009,19,1*7C
$GLGSV,2,2,05,84,46,226,,1*45
$GAGSV,2,1,07,10,27,199,21,12,49,189,21,23,36,090,27,24,22,313,22,7*73
$GAGSV,2,2,07,31,59,009,31,33,62,063,36,26,16,036,,7*43
$GQGSV,1,1,02,-190,65,059,28,-189,67,099,33,1*6B
$GBGSV,4,1,14,11,00,000,24,01,49,135,,02,37,237,,03,56,202,,1*7B
$GBGSV,4,2,14,04,36,118,,06,64,220,,07,59,314,,09,66,261,,1*79
$GBGSV,4,3,14,10,50,298,,12,20,037,,16,59,199,,23,40,320,,1*78
$GBGSV,4,4,14,24,26,136,,25,83,127,,1*7D
$GNGSA,A,3,01,02,07,08,30,,,,,,,,1.2,0.9,0.9,1*3D
$GNGSA,A,3,73,80,83,,,,,,,,,,1.2,0.9,0.9,2*36
$GNGSA,A,3,10,12,23,24,31,33,,,,,,,1.2,0.9,0.9,3*37
$GNGSA,A,3,11,,,,,,,,,,,,1.2,0.9,0.9,4*37
$GNGSA,A,3,02,03,,,,,,,,,,,1.2,0.9,0.9,5*37
$GNVTG,,T,,M,0.0,N,0.0,K,A*3D
$GNDTM,P90,,0000.000020,S,00000.000001,W,0.991,W84*4E
$GNRMC,030849.00,A,2458.967848,N,12116.444976,E,0.0,,290325,3.1,W,A,V*68
$GNGNS,030849.00,2458.967848,N,12116.444976,E,AAAAA,17,0.9,126.1,16.6,,,V*61
$GNGGA,030849.00,2458.967848,N,12116.444976,E,1,12,0.9,126.1,M,16.6,M,,*75
$GPGSV,3,1,09,01,71,157,34,02,67,050,22,07,62,257,20,08,39,033,24,1*6F
$GPGSV,3,2,09,17,17,262,17,30,37,302,20,03,11,154,,14,15,312,,1*6A
$GPGSV,3,3,09,27,09,056,,1*52
$GLGSV,2,1,05,82,16,026,16,73,55,350,19,80,52,112,30,83,57,009,19,1*7C
$GLGSV,2,2,05,84,46,226,,1*45
$GAGSV,2,1,07,10,27,199,21,12,49,189,21,23,36,090,28,24,22,313,22,7*7C
$GAGSV,2,2,07,31,59,009,31,33,62,063,32,26,16,036,,7*47
$GQGSV,1,1,02,-190,65,059,28,-189,67,099,28,1*61
$GBGSV,4,1,14,11,00,000,23,01,49,135,,02,37,237,,03,56,202,,1*7C
$GBGSV,4,2,14,04,36,118,,06,64,220,,07,59,314,,09,66,261,,1*79
$GBGSV,4,3,14,10,50,298,,12,20,037,,16,59,199,,23,40,320,,1*78
$GBGSV,4,4,14,24,26,136,,25,83,127,,1*7D
$GNGSA,A,3,01,02,07,08,30,,,,,,,,1.2,0.9,0.9,1*3D
$GNGSA,A,3,73,80,83,,,,,,,,,,1.2,0.9,0.9,2*36
$GNGSA,A,3,10,12,23,24,31,33,,,,,,,1.2,0.9,0.9,3*37
$GNGSA,A,3,11,,,,,,,,,,,,1.2,0.9,0.9,4*37
$GNGSA,A,3,02,03,,,,,,,,,,,1.2,0.9,0.9,5*37
$GNVTG,,T,,M,0.0,N,0.0,K,A*3D
$GNDTM,P90,,0000.000020,S,00000.000001,W,0.991,W84*4E
$GNRMC,030850.00,A,2458.967929,N,12116.444960,E,0.0,,290325,3.1,W,A,V*61
$GNGNS,030850.00,2458.967929,N,12116.444960,E,AAAAA,17,0.9,126.3,16.6,,,V*6A
$GNGGA,030850.00,2458.967929,N,12116.444960,E,1,12,0.9,126.3,M,16.6,M,,*7E
$GPGSV,3,1,09,01,71,157,34,02,67,050,33,07,62,257,18,08,39,033,27,1*67
$GPGSV,3,2,09,17,17,262,17,30,37,302,22,03,11,154,,14,15,312,,1*68
$GPGSV,3,3,09,27,09,056,,1*52
$GLGSV,2,1,05,73,55,350,19,80,52,112,32,83,57,009,20,65,16,026,,1*7A
$GLGSV,2,2,05,84,46,226,,1*45
$GAGSV,2,1,07,10,27,199,21,12,49,189,21,23,36,090,28,24,22,313,22,7*7C
$GAGSV,2,2,07,31,59,009,31,33,62,063,32,26,16,036,,7*47
$GQGSV,1,1,02,-190,65,059,33,-189,67,099,31,1*63
$GBGSV,4,1,14,11,00,000,25,01,49,135,,02,37,237,,03,56,202,,1*7A
$GBGSV,4,2,14,04,36,118,,06,64,220,,07,59,314,,09,66,261,,1*79
$GBGSV,4,3,14,10,50,298,,12,20,037,,16,59,199,,23,40,320,,1*78
$GBGSV,4,4,14,24,26,136,,25,83,127,,1*7D
$GNGSA,A,3,01,02,07,08,30,,,,,,,,1.2,0.9,0.9,1*3D
$GNGSA,A,3,73,80,83,,,,,,,,,,1.2,0.9,0.9,2*36
$GNGSA,A,3,10,12,23,24,31,33,,,,,,,1.2,0.9,0.9,3*37
$GNGSA,A,3,11,,,,,,,,,,,,1.2,0.9,0.9,4*37
$GNGSA,A,3,02,03,,,,,,,,,,,1.2,0.9,0.9,5*37
$GNVTG,198.8,T,198.8,M,0.3,N,0.6,K,A*38
$GNDTM,P90,,0000.000020,S,00000.000001,W,0.991,W84*4E
$GNRMC,030851.00,A,2458.968002,N,12116.444700,E,0.3,198.8,290325,3.1,W,A,V*42
$GNGNS,030851.00,2458.968002,N,12116.444700,E,AAAAA,17,0.9,126.4,16.6,,,V*6B
$GNGGA,030851.00,2458.968002,N,12116.444700,E,1,12,0.9,126.4,M,16.6,M,,*7F
$GPGSV,2,1,08,01,71,157,32,02,67,050,30,07,62,255,18,08,39,035,25,1*64
$GPGSV,2,2,08,30,37,302,22,03,11,154,,14,15,312,,27,09,056,,1*67
$GLGSV,2,1,05,73,55,350,16,80,52,112,31,83,57,009,20,82,16,026,,1*7F
$GLGSV,2,2,05,84,46,226,,1*45
$GAGSV,2,1,07,10,27,199,21,12,49,189,29,23,36,090,28,24,22,313,22,7*74
$GAGSV,2,2,07,31,59,009,31,33,62,063,32,26,16,036,,7*47
$GQGSV,1,1,02,-190,65,059,23,-189,67,099,23,1*61
$GBGSV,4,1,14,11,00,000,25,16,59,199,21,01,49,135,,02,37,237,,1*73
$GBGSV,4,2,14,03,56,202,,04,36,118,,06,63,220,,07,59,316,,1*70
$GBGSV,4,3,14,09,66,261,,10,50,298,,12,20,037,,23,40,320,,1*7E
$GBGSV,4,4,14,24,26,136,,25,83,127,,1*7D
$GNGSA,A,3,01,02,07,08,30,,,,,,,,1.3,0.9,0.9,1*3C
$GNGSA,A,3,73,80,83,,,,,,,,,,1.3,0.9,0.9,2*37
$GNGSA,A,3,12,23,24,31,33,,,,,,,,1.3,0.9,0.9,3*37
$GNGSA,A,3,11,16,,,,,,,,,,,1.3,0.9,0.9,4*31
$GNGSA,A,3,02,03,,,,,,,,,,,1.3,0.9,0.9,5*36
$GNVTG,301.0,T,301.0,M,0.4,N,0.7,K,A*3E
$GNDTM,P90,,0000.000020,S,00000.000001,W,0.991,W84*4E
$GNRMC,030852.00,A,2458.968047,N,12116.444463,E,0.4,301.0,290325,3.1,W,A,V*4B
$GNGNS,030852.00,2458.968047,N,12116.444463,E,AAAAA,17,0.9,126.7,16.6,,,V*6C
$GNGGA,030852.00,2458.968047,N,12116.444463,E,1,12,0.9,126.7,M,16.6,M,,*78
$GPGSV,3,1,09,01,71,157,36,02,67,050,29,07,62,255,18,08,39,035,27,1*6A
$GPGSV,3,2,09,30,37,302,21,03,11,154,,14,15,312,,17,17,262,,1*6D
$GPGSV,3,3,09,27,09,056,,1*52
$GLGSV,2,1,05,82,16,026,26,73,55,350,16,80,52,112,28,83,57,009,20,1*73
$GLGSV,2,2,05,84,46,226,,1*45
$GAGSV,2,1,07,10,27,199,21,12,49,189,30,23,36,090,28,24,22,313,28,7*76
$GAGSV,2,2,07,31,59,009,28,33,62,063,27,26,16,036,,7*4B
$GQGSV,1,1,02,-190,65,059,25,-189,67,099,23,1*67
$GBGSV,4,1,14,04,36,118,28,11,00,000,25,16,59,199,21,01,49,135,,1*70
$GBGSV,4,2,14,02,37,237,,03,56,202,,06,63,220,,07,59,316,,1*79
$GBGSV,4,3,14,09,66,261,,10,50,298,,12,20,037,,23,40,320,,1*7E
$GBGSV,4,4,14,24,26,136,,25,83,127,,1*7D
$GNGSA,A,3,01,02,07,08,30,,,,,,,,1.2,0.9,0.8,1*3C
$GNGSA,A,3,73,80,82,83,,,,,,,,,1.2,0.9,0.8,2*3D
$GNGSA,A,3,12,23,24,31,33,,,,,,,,1.2,0.9,0.8,3*37
$GNGSA,A,3,04,11,16,,,,,,,,,,1.2,0.9,0.8,4*35
$GNGSA,A,3,02,03,,,,,,,,,,,1.2,0.9,0.8,5*36
$GNVTG,,T,,M,0.0,N,0.0,K,A*3D
$GNDTM,P90,,0000.000020,S,00000.000001,W,0.991,W84*4E
$GNRMC,030853.00,A,2458.968230,N,12116.443848,E,0.0,,290325,3.1,W,A,V*62
$GNGNS,030853.00,2458.968230,N,12116.443848,E,AAAAA,19,0.9,124.6,16.6,,,V*60
$GNGGA,030853.00,2458.968230,N,12116.443848,E,1,12,0.9,124.6,M,16.6,M,,*7A
$GPGSV,3,1,09,01,71,157,33,02,67,050,30,07,62,255,18,08,39,035,26,1*66
$GPGSV,3,2,09,30,37,302,25,03,11,154,,14,15,312,,17,17,262,,1*69
$GPGSV,3,3,09,27,09,056,,1*52
$GLGSV,2,1,05,82,16,026,25,73,55,350,16,80,52,112,22,83,57,009,20,1*7A
$GLGSV,2,2,05,84,46,226,,1*45
$GAGSV,2,1,07,10,27,199,20,12,49,189,31,23,36,090,33,24,22,313,28,7*7C
$GAGSV,2,2,07,31,59,009,28,33,62,063,31,26,16,036,,7*4C
$GQGSV,1,1,02,-190,65,059,24,-189,67,099,25,1*60
$GBGSV,4,1,14,04,36,118,28,11,00,000,25,16,59,199,22,01,49,135,,1*73
$GBGSV,4,2,14,02,37,237,,03,56,202,,06,63,220,,07,59,316,,1*79
$GBGSV,4,3,14,09,66,261,,10,50,298,,12,20,037,,23,40,320,,1*7E
$GBGSV,4,4,14,24,26,136,,25,83,127,,1*7D
$GNGSA,A,3,01,02,07,08,30,,,,,,,,1.1,0.8,0.8,1*3E
$GNGSA,A,3,73,80,82,83,,,,,,,,,1.1,0.8,0.8,2*3F
$GNGSA,A,3,10,12,23,24,31,33,,,,,,,1.1,0.8,0.8,3*34
$GNGSA,A,3,04,11,16,,,,,,,,,,1.1,0.8,0.8,4*37
$GNGSA,A,3,02,03,,,,,,,,,,,1.1,0.8,0.8,5*34
$GNVTG,321.7,T,321.7,M,0.4,N,0.8,K,A*31
$GNDTM,P90,,0000.000020,S,00000.000001,W,0.991,W84*4E
$GNRMC,030854.00,A,2458.968305,N,12116.443820,E,0.4,321.7,290325,3.1,W,A,V*41
$GNGNS,030854.00,2458.968305,N,12116.443820,E,AAAAA,20,0.8,125.1,16.6,,,V*63
$GNGGA,030854.00,2458.968305,N,12116.443820,E,1,12,0.8,125.1,M,16.6,M,,*73
$GPGSV,3,1,09,01,71,157,33,02,67,050,30,07,62,255,18,08,39,035,27,1*67
$GPGSV,3,2,09,30,37,302,25,03,11,154,,14,15,312,,17,17,262,,1*69
$GPGSV,3,3,09,27,09,056,,1*52
$GLGSV,2,1,05,82,16,026,23,73,55,350,16,80,52,112,19,83,57,009,20,1*74
$GLGSV,2,2,05,84,46,226,,1*45
$GAGSV,2,1,07,10,27,199,20,12,49,189,31,23,36,090,33,24,22,313,28,7*7C
$GAGSV,2,2,07,31,59,009,29,33,62,063,30,26,16,036,,7*4C
$GQGSV,1,1,02,-190,65,059,25,-189,67,099,25,1*61
$GBGSV,4,1,14,04,36,118,28,11,00,000,20,16,59,199,22,01,49,135,,1*76
$GBGSV,4,2,14,02,37,237,,03,56,202,,06,63,220,,07,59,316,,1*79
$GBGSV,4,3,14,09,66,261,,10,50,298,,12,20,037,,23,40,320,,1*7E
$GBGSV,4,4,14,24,26,136,,25,83,127,,1*7D
$GNGSA,A,3,01,02,07,08,30,,,,,,,,1.1,0.8,0.8,1*3E
$GNGSA,A,3,73,80,82,83,,,,,,,,,1.1,0.8,0.8,2*3F
$GNGSA,A,3,10,12,23,24,31,33,,,,,,,1.1,0.8,0.8,3*34
$GNGSA,A,3,04,11,16,,,,,,,,,,1.1,0.8,0.8,4*37
$GNGSA,A,3,02,03,,,,,,,,,,,1.1,0.8,0.8,5*34
$GNVTG,,T,,M,0.0,N,0.0,K,A*3D
$GNDTM,P90,,0000.000020,S,00000.000001,W,0.991,W84*4E
$GNRMC,030855.00,A,2458.968308,N,12116.444146,E,0.0,,290325,3.1,W,A,V*6E
$GNGNS,030855.00,2458.968308,N,12116.444146,E,AAAAA,20,0.8,124.6,16.6,,,V*67
$GNGGA,030855.00,2458.968308,N,12116.444146,E,1,12,0.8,124.6,M,16.6,M,,*77
$GPGSV,3,1,09,01,71,157,35,02,67,050,30,07,62,255,18,08,39,035,29,1*6F
$GPGSV,3,2,09,30,37,302,25,03,11,154,,14,15,312,,17,17,262,,1*69
$GPGSV,3,3,09,27,09,056,,1*52
$GLGSV,2,1,05,82,16,026,26,73,55,350,16,80,52,112,19,83,57,009,20,1*71
$GLGSV,2,2,05,84,46,226,,1*45
$GAGSV,2,1,07,10,27,199,20,12,49,189,30,23,36,090,31,24,22,313,26,7*71
$GAGSV,2,2,07,31,59,009,32,33,62,063,30,26,16,036,,7*46
$GQGSV,1,1,02,-190,65,059,24,-189,67,099,21,1*64
$GBGSV,4,1,14,04,36,118,28,11,00,000,20,16,59,199,22,01,49,135,,1*76
$GBGSV,4,2,14,02,37,237,,03,56,202,,06,63,220,,07,59,316,,1*79
$GBGSV,4,3,14,09,66,261,,10,50,298,,12,20,037,,23,40,320,,1*7E
$GBGSV,4,4,14,24,26,136,,25,83,127,,1*7D
$GNGSA,A,3,01,02,07,08,30,,,,,,,,1.1,0.8,0.8,1*3E
$GNGSA,A,3,73,80,82,83,,,,,,,,,1.1,0.8,0.8,2*3F
$GNGSA,A,3,10,12,23,24,31,33,,,,,,,1.1,0.8,0.8,3*34
$GNGSA,A,3,04,11,16,,,,,,,,,,1.1,0.8,0.8,4*37
$GNGSA,A,3,02,03,,,,,,,,,,,1.1,0.8,0.8,5*34
$GNVTG,,T,,M,0.0,N,0.0,K,A*3D
$GNDTM,P90,,0000.000020,S,00000.000001,W,0.991,W84*4E
$GNRMC,030856.00,A,2458.968275,N,12116.444333,E,0.0,,290325,3.1,W,A,V*66
$GNGNS,030856.00,2458.968275,N,12116.444333,E,AAAAA,20,0.8,124.6,16.6,,,V*6F
$GNGGA,030856.00,2458.968275,N,12116.444333,E,1,12,0.8,124.6,M,16.6,M,,*7F
$GPGSV,3,1,09,01,71,157,34,02,67,050,27,07,62,255,18,08,39,035,28,1*69
$GPGSV,3,2,09,30,37,302,23,03,11,154,,14,15,312,,17,17,262,,1*6F
$GPGSV,3,3,09,27,09,056,,1*52
$GLGSV,2,1,05,82,16,026,26,73,55,350,16,80,52,112,23,83,57,009,17,1*7C
$GLGSV,2,2,05,84,46,226,,1*45
$GAGSV,2,1,07,10,27,199,23,12,49,189,30,23,36,090,31,24,22,313,26,7*72
$GAGSV,2,2,07,31,59,009,30,33,62,063,28,26,16,036,,7*4D
$GQGSV,1,1,02,-190,65,059,24,-189,67,099,27,1*62
$GBGSV,4,1,14,04,36,118,28,11,00,000,23,16,59,199,24,01,49,135,,1*73
$GBGSV,4,2,14,02,37,237,,03,56,202,,06,63,220,,07,59,316,,1*79
$GBGSV,4,3,14,09,66,261,,10,50,298,,12,20,037,,23,40,320,,1*7E
$GBGSV,4,4,14,24,26,136,,25,83,127,,1*7D
$GNGSA,A,3,01,02,08,30,,,,,,,,,1.1,0.8,0.8,1*39
$GNGSA,A,3,73,80,82,83,,,,,,,,,1.1,0.8,0.8,2*3F
$GNGSA,A,3,10,12,23,24,31,33,,,,,,,1.1,0.8,0.8,3*34
$GNGSA,A,3,04,11,16,,,,,,,,,,1.1,0.8,0.8,4*37
$GNGSA,A,3,02,03,,,,,,,,,,,1.1,0.8,0.8,5*34
$GNVTG,,T,,M,0.0,N,0.0,K,A*3D
$GNDTM,P90,,0000.000020,S,00000.000001,W,0.991,W84*4E
$GNRMC,030857.00,A,2458.968264,N,12116.444396,E,0.0,,290325,3.1,W,A,V*68
$GNGNS,030857.00,2458.968264,N,12116.444396,E,AAAAA,19,0.8,124.6,16.6,,,V*6B
$GNGGA,030857.00,2458.968264,N,12116.444396,E,1,12,0.8,124.6,M,16.6,M,,*71
$GPGSV,3,1,09,01,71,157,28,02,67,050,27,07,62,255,18,08,39,035,26,1*6A
$GPGSV,3,2,09,30,37,302,27,03,11,154,,14,15,312,,17,17,262,,1*6B
$GPGSV,3,3,09,27,09,056,,1*52
$GLGSV,2,1,05,82,16,026,21,73,55,350,16,80,52,112,28,83,57,009,17,1*70
$GLGSV,2,2,05,84,46,226,,1*45
$GAGSV,2,1,07,10,27,199,23,12,49,189,30,23,36,090,31,24,22,313,26,7*72
$GAGSV,2,2,07,31,59,009,30,33,62,063,28,26,16,036,,7*4D
$GQGSV,1,1,02,-190,65,059,25,-189,67,099,27,1*63
$GBGSV,4,1,14,04,36,118,28,11,00,000,28,16,59,199,24,01,49,135,,1*78
$GBGSV,4,2,14,02,37,237,,03,56,202,,06,63,220,,07,59,316,,1*79
$GBGSV,4,3,14,09,66,261,,10,50,298,,12,20,037,,23,40,320,,1*7E
$GBGSV,4,4,14,24,26,136,,25,83,127,,1*7D
$GNGSA,A,3,01,02,08,30,,,,,,,,,1.1,0.8,0.8,1*39
$GNGSA,A,3,73,80,82,83,,,,,,,,,1.1,0.8,0.8,2*3F
$GNGSA,A,3,10,12,23,24,31,33,,,,,,,1.1,0.8,0.8,3*34
$GNGSA,A,3,04,11,16,,,,,,,,,,1.1,0.8,0.8,4*37
$GNGSA,A,3,02,03,,,,,,,,,,,1.1,0.8,0.8,5*34
$GNVTG,107.7,T,107.7,M,0.4,N,0.8,K,A*31
$GNDTM,P90,,0000.000020,S,00000.000001,W,0.991,W84*4E
$GNRMC,030858.00,A,2458.968229,N,12116.444528,E,0.4,107.7,290325,3.1,W,A,V*46
$GNGNS,030858.00,2458.968229,N,12116.444528,E,AAAAA,19,0.8,124.3,16.6,,,V*6B
$GNGGA,030858.00,2458.968229,N,12116.444528,E,1,12,0.8,124.3,M,16.6,M,,*71
$GPGSV,3,1,09,01,71,157,29,02,67,050,20,07,62,255,18,08,39,035,26,1*6C
$GPGSV,3,2,09,30,37,302,29,03,11,154,,14,15,312,,17,17,262,,1*65
$GPGSV,3,3,09,27,09,056,,1*52
$GLGSV,2,1,05,82,16,026,21,73,55,350,16,80,52,112,33,83,57,009,17,1*7A
$GLGSV,2,2,05,84,46,226,,1*45
$GAGSV,2,1,07,10,27,199,23,12,49,189,23,23,36,090,22,24,22,313,26,7*72
$GAGSV,2,2,07,31,59,009,32,33,62,063,28,26,16,036,,7*4F
$GQGSV,1,1,02,-190,65,059,22,-189,67,099,27,1*64
$GBGSV,4,1,14,04,36,118,28,11,00,000,29,16,59,199,21,01,49,135,,1*7C
$GBGSV,4,2,14,02,37,237,,03,56,202,,06,63,220,,07,59,316,,1*79
$GBGSV,4,3,14,09,66,261,,10,50,298,,12,20,037,,23,40,320,,1*7E
$GBGSV,4,4,14,24,26,136,,25,83,127,,1*7D
$GNGSA,A,3,01,02,08,30,,,,,,,,,1.2,0.8,0.8,1*3A
$GNGSA,A,3,73,80,82,83,,,,,,,,,1.2,0.8,0.8,2*3C
$GNGSA,A,3,10,12,23,24,31,33,,,,,,,1.2,0.8,0.8,3*37
$GNGSA,A,3,11,16,,,,,,,,,,,1.2,0.8,0.8,4*30
$GNGSA,A,3,02,03,,,,,,,,,,,1.2,0.8,0.8,5*37
$GNVTG,,T,,M,0.0,N,0.0,K,A*3D
$GNDTM,P90,,0000.000020,S,00000.000001,W,0.991,W84*4E
$GNRMC,030859.00,A,2458.968251,N,12116.444681,E,0.0,,290325,3.1,W,A,V*63
$GNGNS,030859.00,2458.968251,N,12116.444681,E,AAAAA,18,0.8,124.8,16.6,,,V*6F
$GNGGA,030859.00,2458.968251,N,12116.444681,E,1,12,0.8,124.8,M,16.6,M,,*74
$GPGSV,3,1,09,01,71,157,32,02,67,050,20,07,62,255,18,08,39,035,20,1*60
$GPGSV,3,2,09,30,37,302,28,03,11,154,,14,15,312,,17,17,262,,1*64
$GPGSV,3,3,09,27,09,056,,1*52
$GLGSV,2,1,05,82,16,026,20,73,55,350,18,80,52,112,32,83,57,009,17,1*74
$GLGSV,2,2,05,84,46,226,,1*45
$GAGSV,2,1,07,10,27,199,23,12,49,189,23,23,36,090,22,24,22,313,26,7*72
$GAGSV,2,2,07,31,59,009,32,33,62,063,26,26,16,036,,7*41
$GQGSV,1,1,02,-190,65,059,25,-189,67,099,23,1*67
$GBGSV,4,1,14,04,36,118,28,11,00,000,28,16,59,199,21,01,49,135,,1*7D
$GBGSV,4,2,14,02,37,237,,03,56,202,,06,63,220,,07,59,316,,1*79
$GBGSV,4,3,14,09,66,261,,10,50,298,,12,20,037,,23,40,320,,1*7E
$GBGSV,4,4,14,24,26,136,,25,83,127,,1*7D
$GNGSA,A,3,01,02,08,30,,,,,,,,,1.2,0.8,0.8,1*3A
$GNGSA,A,3,73,80,82,83,,,,,,,,,1.2,0.8,0.8,2*3C
$GNGSA,A,3,10,12,23,24,31,33,,,,,,,1.2,0.8,0.8,3*37
$GNGSA,A,3,11,16,,,,,,,,,,,1.2,0.8,0.8,4*30
$GNGSA,A,3,02,03,,,,,,,,,,,1.2,0.8,0.8,5*37
$GNVTG,,T,,M,0.0,N,0.0,K,A*3D
$GNDTM,P90,,0000.000020,S,00000.000001,W,0.991,W84*4E
$GNRMC,030900.00,A,2458.968454,N,12116.445090,E,0.0,,290325,3.1,W,A,V*6A
$GNGNS,030900.00,2458.968454,N,12116.445090,E,AAAAA,18,0.8,125.9,16.6,,,V*66
$GNGGA,030900.00,2458.968454,N,12116.445090,E,1,12,0.8,125.9,M,16.6,M,,*7D
$GPGSV,3,1,09,01,71,157,30,02,67,050,28,07,62,255,18,08,39,035,27,1*6D
$GPGSV,3,2,09,30,37,302,26,03,11,154,,14,15,312,,17,17,262,,1*6A
$GPGSV,3,3,09,27,09,056,,1*52
$GLGSV,2,1,05,82,16,026,24,73,55,350,18,80,52,112,31,83,57,009,17,1*73
$GLGSV,2,2,05,84,46,226,,1*45
$GAGSV,2,1,07,10,27,199,22,12,49,189,23,23,36,090,22,24,22,313,21,7*74
$GAGSV,2,2,07,31,59,009,31,33,62,063,26,26,16,036,,7*42
$GQGSV,1,1,02,-190,65,059,28,-189,67,099,30,1*68
$GBGSV,4,1,14,04,36,118,24,11,00,000,28,16,59,199,21,01,49,135,,1*71
$GBGSV,4,2,14,02,37,237,,03,56,202,,06,63,220,,07,59,316,,1*79
$GBGSV,4,3,14,09,66,261,,10,50,298,,12,20,037,,23,40,320,,1*7E
$GBGSV,4,4,14,24,26,136,,25,83,127,,1*7D
$GNGSA,A,3,01,02,08,30,,,,,,,,,1.1,0.8,0.8,1*39
$GNGSA,A,3,73,80,82,83,,,,,,,,,1.1,0.8,0.8,2*3F
$GNGSA,A,3,10,12,23,24,31,33,,,,,,,1.1,0.8,0.8,3*34
$GNGSA,A,3,04,11,16,,,,,,,,,,1.1,0.8,0.8,4*37
$GNGSA,A,3,02,03,,,,,,,,,,,1.1,0.8,0.8,5*34
$GNVTG,,T,,M,0.0,N,0.0,K,A*3D
$GNDTM,P90,,0000.000020,S,00000.000001,W,0.991,W84*4E
$GNRMC,030901.00,A,2458.968575,N,12116.445307,E,0.0,,290325,3.1,W,A,V*64
$GNGNS,030901.00,2458.968575,N,12116.445307,E,AAAAA,19,0.8,126.0,16.6,,,V*63
$GNGGA,030901.00,2458.968575,N,12116.445307,E,1,12,0.8,126.0,M,16.6,M,,*79
$GPGSV,3,1,09,01,71,157,28,02,67,050,26,07,62,255,18,08,39,035,26,1*6B
$GPGSV,3,2,09,30,37,302,25,03,11,154,,14,15,312,,17,17,262,,1*69
$GPGSV,3,3,09,27,09,056,,1*52
$GLGSV,2,1,05,82,16,026,21,73,55,350,18,80,52,112,35,83,57,009,17,1*72
$GLGSV,2,2,05,84,46,226,,1*45
$GAGSV,2,1,07,10,27,199,22,12,49,189,23,23,36,090,27,24,22,313,21,7*71
$GAGSV,2,2,07,31,59,009,31,33,62,063,29,26,16,036,,7*4D
$GQGSV,1,1,02,-190,65,059,31,-189,67,099,33,1*63
$GBGSV,4,1,14,04,36,118,24,11,00,000,22,16,59,199,21,01,49,135,,1*7B
$GBGSV,4,2,14,02,37,237,,03,56,202,,06,63,220,,07,59,316,,1*79
$GBGSV,4,3,14,09,66,261,,10,50,298,,12,20,037,,23,40,320,,1*7E
$GBGSV,4,4,14,24,26,136,,25,83,127,,1*7D
$GNGSA,A,3,01,02,08,30,,,,,,,,,1.1,0.8,0.8,1*39
$GNGSA,A,3,73,80,82,83,,,,,,,,,1.1,0.8,0.8,2*3F
$GNGSA,A,3,10,12,23,24,31,33,,,,,,,1.1,0.8,0.8,3*34
$GNGSA,A,3,04,11,16,,,,,,,,,,1.1,0.8,0.8,4*37
$GNGSA,A,3,02,03,,,,,,,,,,,1.1,0.8,0.8,5*34
$GNVTG,117.8,T,117.8,M,0.8,N,1.4,K,A*30
$GNDTM,P90,,0000.000020,S,00000.000001,W,0.991,W84*4E
$GNRMC,030902.00,A,2458.968668,N,12116.445436,E,0.8,117.8,290325,3.1,W,A,V*44
$GNGNS,030902.00,2458.968668,N,12116.445436,E,AAAAA,19,0.8,126.7,16.6,,,V*6D
$GNGGA,030902.00,2458.968668,N,12116.445436,E,1,12,0.8,126.7,M,16.6,M,,*77
$GPGSV,3,1,09,01,71,157,27,02,67,050,29,07,62,255,14,08,39,035,23,1*62
$GPGSV,3,2,09,17,17,262,17,30,37,302,25,03,11,154,,14,15,312,,1*6F
$GPGSV,3,3,09,27,09,056,,1*52
$GLGSV,2,1,05,82,16,026,21,73,55,350,18,80,52,112,34,83,57,009,17,1*73
$GLGSV,2,2,05,84,46,226,,1*45
$GAGSV,2,1,07,10,27,199,22,12,49,189,23,23,36,090,30,24,22,313,21,7*77
$GAGSV,2,2,07,31,59,009,28,33,62,063,29,26,16,036,,7*45
$GQGSV,1,1,02,-190,65,059,33,-189,67,099,32,1*60
$GBGSV,4,1,14,04,36,118,24,11,00,000,22,16,59,199,22,01,49,135,,1*78
$GBGSV,4,2,14,02,37,237,,03,56,202,,06,63,220,,07,59,316,,1*79
$GBGSV,4,3,14,09,66,261,,10,50,298,,12,20,037,,23,40,320,,1*7E
$GBGSV,4,4,14,24,26,136,,25,83,127,,1*7D
$GNGSA,A,3,01,02,07,08,17,30,,,,,,,1.1,0.7,0.8,1*37
$GNGSA,A,3,73,80,82,,,,,,,,,,1.1,0.7,0.8,2*3B
$GNGSA,A,3,10,12,23,24,31,33,,,,,,,1.1,0.7,0.8,3*3B
$GNGSA,A,3,04,11,16,,,,,,,,,,1.1,0.7,0.8,4*38
$GNGSA,A,3,02,03,,,,,,,,,,,1.1,0.7,0.8,5*3B
$GNVTG,,T,,M,0.0,N,0.0,K,A*3D
$GNDTM,P90,,0000.000020,S,00000.000001,W,0.991,W84*4E
$GNRMC,030903.00,A,2458.968862,N,12116.445251,E,0.0,,290325,3.1,W,A,V*6F
$GNGNS,030903.00,2458.968862,N,12116.445251,E,AAAAA,20,0.7,128.0,16.6,,,V*63
$GNGGA,030903.00,2458.968862,N,12116.445251,E,1,12,0.7,128.0,M,16.6,M,,*73
$GPGSV,3,1,09,01,71,157,28,02,67,050,35,07,62,255,14,08,39,035,23,1*60
$GPGSV,3,2,09,17,17,262,21,30,37,302,23,03,11,154,,14,15,312,,1*6C
$GPGSV,3,3,09,27,09,056,,1*52
$GLGSV,2,1,05,82,16,026,22,73,55,350,18,80,52,112,35,83,57,009,17,1*71
$GLGSV,2,2,05,84,46,226,,1*45
$GAGSV,2,1,07,10,27,199,22,12,49,189,23,23,36,090,30,24,22,313,23,7*75
$GAGSV,2,2,07,31,59,009,28,33,62,063,29,26,16,036,,7*45
$GQGSV,1,1,02,-190,65,059,33,-189,67,099,33,1*61
$GBGSV,4,1,14,04,36,118,24,11,00,000,23,16,59,199,22,01,49,135,,1*79
$GBGSV,4,2,14,02,37,237,,03,56,202,,06,63,220,,07,59,316,,1*79
$GBGSV,4,3,14,09,66,261,,10,50,298,,12,20,037,,23,40,320,,1*7E
$GBGSV,4,4,14,24,26,136,,25,83,127,,1*7D
$GNGSA,A,3,01,02,07,08,17,30,,,,,,,1.1,0.7,0.8,1*37
$GNGSA,A,3,73,80,82,,,,,,,,,,1.1,0.7,0.8,2*3B
$GNGSA,A,3,10,12,23,24,31,33,,,,,,,1.1,0.7,0.8,3*3B
$GNGSA,A,3,04,11,16,,,,,,,,,,1.1,0.7,0.8,4*38
$GNGSA,A,3,02,03,,,,,,,,,,,1.1,0.7,0.8,5*3B
$GNVTG,,T,,M,0.0,N,0.0,K,A*3D
$GNDTM,P90,,0000.000020,S,00000.000001,W,0.991,W84*4E
$GNRMC,030904.00,A,2458.969196,N,12116.445180,E,0.0,,290325,3.1,W,A,V*64
$GNGNS,030904.00,2458.969196,N,12116.445180,E,AAAAA,20,0.7,129.3,16.6,,,V*6A
$GNGGA,030904.00,2458.969196,N,12116.445180,E,1,12,0.7,129.3,M,16.6,M,,*7A
$GPGSV,3,1,09,01,71,157,29,02,67,050,33,07,62,255,14,08,39,035,21,1*65
$GPGSV,3,2,09,17,17,262,21,30,37,302,22,03,11,154,,14,15,312,,1*6D
$GPGSV,3,3,09,27,09,056,,1*52
$GLGSV,2,1,05,82,16,026,25,73,55,350,18,80,52,112,33,83,57,009,17,1*70
$GLGSV,2,2,05,84,46,226,,1*45
$GAGSV,2,1,07,10,27,199,22,12,49,189,22,23,36,090,30,24,22,313,23,7*74
$GAGSV,2,2,07,31,59,009,28,33,62,063,23,26,16,036,,7*4F
$GQGSV,1,1,02,-190,65,059,32,-189,67,099,29,1*6B
$GBGSV,4,1,14,04,36,118,24,11,00,000,23,16,59,199,24,01,49,135,,1*7F
$GBGSV,4,2,14,02,37,237,,03,56,202,,06,63,220,,07,59,316,,1*79
$GBGSV,4,3,14,09,66,261,,10,50,298,,12,20,037,,23,40,320,,1*7E
$GBGSV,4,4,14,24,26,136,,25,83,127,,1*7D
$GNGSA,A,3,01,02,07,08,17,30,,,,,,,1.1,0.7,0.8,1*37
$GNGSA,A,3,73,80,82,,,,,,,,,,1.1,0.7,0.8,2*3B
$GNGSA,A,3,10,12,23,24,31,33,,,,,,,1.1,0.7,0.8,3*3B
$GNGSA,A,3,04,11,16,,,,,,,,,,1.1,0.7,0.8,4*38
$GNGSA,A,3,02,03,,,,,,,,,,,1.1,0.7,0.8,5*3B
$GNVTG,,T,,M,0.0,N,0.0,K,A*3D
$GNDTM,P90,,0000.000020,S,00000.000001,W,0.991,W84*4E
$GNRMC,030905.00,A,2458.969334,N,12116.445342,E,0.0,,290325,3.1,W,A,V*63
$GNGNS,030905.00,2458.969334,N,12116.445342,E,AAAAA,20,0.7,130.3,16.6,,,V*65
$GNGGA,030905.00,2458.969334,N,12116.445342,E,1,12,0.7,130.3,M,16.6,M,,*75
$GPGSV,3,1,09,01,71,157,28,02,67,050,30,07,62,255,14,08,39,035,24,1*62
$GPGSV,3,2,09,17,17,262,21,30,37,302,23,03,11,154,,14,15,312,,1*6C
$GPGSV,3,3,09,27,09,056,,1*52
$GLGSV,2,1,05,82,16,026,21,73,55,350,18,80,52,112,32,83,57,009,17,1*75
$GLGSV,2,2,05,84,46,226,,1*45
$GAGSV,2,1,07,10,27,199,22,12,49,189,22,23,36,090,22,24,22,313,23,7*77
$GAGSV,2,2,07,31,59,009,26,33,62,063,23,26,16,036,,7*41
$GQGSV,1,1,02,-190,65,059,33,-189,67,099,29,1*6A
$GBGSV,4,1,14,04,36,118,24,11,00,000,23,16,59,199,25,01,49,135,,1*7E
$GBGSV,4,2,14,02,37,237,,03,56,202,,06,63,220,,07,59,316,,1*79
$GBGSV,4,3,14,09,66,261,,10,50,298,,12,20,037,,23,40,320,,1*7E
$GBGSV,4,4,14,24,26,136,,25,83,127,,1*7D
$GNGSA,A,3,01,02,07,08,17,30,,,,,,,1.1,0.7,0.8,1*37
$GNGSA,A,3,80,82,,,,,,,,,,,1.1,0.7,0.8,2*3F
$GNGSA,A,3,10,12,23,24,31,33,,,,,,,1.1,0.7,0.8,3*3B
$GNGSA,A,3,04,11,16,,,,,,,,,,1.1,0.7,0.8,4*38
$GNGSA,A,3,02,03,,,,,,,,,,,1.1,0.7,0.8,5*3B
$GNVTG,,T,,M,0.0,N,0.0,K,A*3D
$GNDTM,P90,,0000.000020,S,00000.000001,W,0.991,W84*4E
$GNRMC,030906.00,A,2458.969450,N,12116.445060,E,0.0,,290325,3.1,W,A,V*66
$GNGNS,030906.00,2458.969450,N,12116.445060,E,AAAAA,19,0.7,129.4,16.6,,,V*65
$GNGGA,030906.00,2458.969450,N,12116.445060,E,1,12,0.7,129.4,M,16.6,M,,*7F
$GPGSV,3,1,09,01,71,157,24,02,67,050,29,07,62,255,14,08,39,035,24,1*66
$GPGSV,3,2,09,17,17,262,21,30,37,302,25,03,11,154,,14,15,312,,1*6A
$GPGSV,3,3,09,27,09,056,,1*52
$GLGSV,2,1,05,82,16,026,21,73,55,350,17,80,52,112,34,83,57,009,17,1*7C
$GLGSV,2,2,05,84,46,226,,1*45
$GAGSV,2,1,07,10,27,199,22,12,49,189,22,23,36,090,22,24,22,313,26,7*72
$GAGSV,2,2,07,31,59,009,26,33,62,063,23,26,16,036,,7*41
$GQGSV,1,1,02,-190,65,059,30,-189,67,099,27,1*67
$GBGSV,4,1,14,04,36,118,24,11,00,000,23,16,59,199,25,01,49,135,,1*7E
$GBGSV,4,2,14,02,37,237,,03,56,202,,06,63,220,,07,59,316,,1*79
$GBGSV,4,3,14,09,66,261,,10,50,298,,12,20,037,,23,40,320,,1*7E
$GBGSV,4,4,14,24,26,136,,25,83,127,,1*7D
$GNGSA,A,3,01,02,07,08,17,30,,,,,,,1.1,0.8,0.8,1*38
$GNGSA,A,3,73,80,82,,,,,,,,,,1.1,0.8,0.8,2*34
$GNGSA,A,3,10,12,23,24,31,33,,,,,,,1.1,0.8,0.8,3*34
$GNGSA,A,3,11,16,,,,,,,,,,,1.1,0.8,0.8,4*33
$GNGSA,A,3,02,03,,,,,,,,,,,1.1,0.8,0.8,5*34
$GNVTG,,T,,M,0.0,N,0.0,K,A*3D
$GNDTM,P90,,0000.000020,S,00000.000001,W,0.991,W84*4E
$GNRMC,030907.00,A,2458.969503,N,12116.444900,E,0.0,,290325,3.1,W,A,V*6E
$GNGNS,030907.00,2458.969503,N,12116.444900,E,AAAAA,19,0.8,129.4,16.6,,,V*62
$GNGGA,030907.00,2458.969503,N,12116.444900,E,1,12,0.8,129.4,M,16.6,M,,*78
$GPGSV,3,1,09,01,71,157,29,02,67,050,27,07,62,255,14,08,39,035,26,1*67
$GPGSV,3,2,09,17,17,262,21,30,37,302,23,03,11,154,,14,15,312,,1*6C
$GPGSV,3,3,09,27,09,056,,1*52
$GLGSV,2,1,05,82,16,026,22,73,55,350,17,80,52,112,35,83,57,009,17,1*7E
$GLGSV,2,2,05,84,46,226,,1*45
$GAGSV,2,1,07,10,27,199,22,12,49,189,25,23,36,090,28,24,22,313,26,7*7F
$GAGSV,2,2,07,31,59,009,26,33,62,063,22,26,16,036,,7*40
$GQGSV,1,1,02,-190,65,059,34,-189,67,099,31,1*64
$GBGSV,4,1,14,04,36,118,24,07,59,316,16,11,00,000,23,16,59,199,25,1*7D
$GBGSV,4,2,14,01,49,135,,02,37,237,,03,56,202,,06,63,220,,1*7D
$GBGSV,4,3,14,09,66,261,,10,50,298,,12,20,037,,23,40,320,,1*7E
$GBGSV,4,4,14,24,26,136,,25,83,127,,1*7D
$GNGSA,A,3,01,02,07,08,17,30,,,,,,,1.1,0.8,0.8,1*38
$GNGSA,A,3,73,80,82,,,,,,,,,,1.1,0.8,0.8,2*34
$GNGSA,A,3,10,12,23,24,31,33,,,,,,,1.1,0.8,0.8,3*34
$GNGSA,A,3,07,11,16,,,,,,,,,,1.1,0.8,0.8,4*34
$GNGSA,A,3,02,03,,,,,,,,,,,1.1,0.8,0.8,5*34
$GNVTG,,T,,M,0.0,N,0.0,K,A*3D
$GNDTM,P90,,0000.000020,S,00000.000001,W,0.991,W84*4E
$GNRMC,030908.00,A,2458.969520,N,12116.444848,E,0.0,,290325,3.1,W,A,V*6D
$GNGNS,030908.00,2458.969520,N,12116.444848,E,AAAAA,20,0.8,129.4,16.6,,,V*6B
$GNGGA,030908.00,2458.969520,N,12116.444848,E,1,12,0.8,129.4,M,16.6,M,,*7B
$GPGSV,3,1,09,01,71,157,29,02,67,050,31,07,62,255,17,08,39,035,22,1*67
$GPGSV,3,2,09,17,17,262,21,30,37,302,27,03,11,154,,14,15,312,,1*68
$GPGSV,3,3,09,27,09,056,,1*52
$GLGSV,2,1,05,82,16,026,23,73,55,350,17,80,52,112,30,83,57,009,13,1*7E
$GLGSV,2,2,05,84,46,226,,1*45
$GAGSV,2,1,07,10,27,199,22,12,49,189,25,23,36,090,28,24,22,313,26,7*7F
$GAGSV,2,2,07,31,59,009,26,33,62,063,22,26,16,036,,7*40
$GQGSV,1,1,02,-190,65,059,30,-189,67,099,24,1*64
$GBGSV,4,1,14,04,36,118,24,07,59,316,16,11,00,000,23,16,59,199,25,1*7D
$GBGSV,4,2,14,01,49,135,,02,37,237,,03,56,202,,06,63,220,,1*7D
$GBGSV,4,3,14,09,66,261,,10,50,298,,12,20,037,,23,40,320,,1*7E
$GBGSV,4,4,14,24,26,136,,25,83,127,,1*7D
$GNGSA,A,3,01,02,07,08,17,30,,,,,,,1.1,0.8,0.8,1*38
$GNGSA,A,3,73,80,82,83,,,,,,,,,1.1,0.8,0.8,2*3F
$GNGSA,A,3,10,12,23,24,31,33,,,,,,,1.1,0.8,0.8,3*34
$GNGSA,A,3,07,11,16,,,,,,,,,,1.1,0.8,0.8,4*34
$GNGSA,A,3,02,03,,,,,,,,,,,1.1,0.8,0.8,5*34
$GNVTG,11.7,T,11.7,M,0.7,N,1.4,K,A*3F
$GNDTM,P90,,0000.000020,S,00000.000001,W,0.991,W84*4E
$GNRMC,030909.00,A,2458.969679,N,12116.444812,E,0.7,11.7,290325,3.1,W,A,V*72
$GNGNS,030909.00,2458.969679,N,12116.444812,E,AAAAA,21,0.8,129.7,16.6,,,V*68
$GNGGA,030909.00,2458.969679,N,12116.444812,E,1,12,0.8,129.7,M,16.6,M,,*79
$GPGSV,3,1,09,01,71,157,31,02,67,050,32,07,62,255,22,08,39,035,24,1*6D
$GPGSV,3,2,09,17,17,262,21,30,37,302,29,03,11,154,,14,15,312,,1*66
$GPGSV,3,3,09,27,09,056,,1*52
$GLGSV,2,1,05,82,16,026,23,73,55,350,17,80,52,112,28,83,57,009,13,1*77
$GLGSV,2,2,05,84,46,226,,1*45
$GAGSV,2,1,07,10,27,199,22,12,49,189,25,23,36,090,30,24,22,313,24,7*74
$GAGSV,2,2,07,31,59,009,26,33,62,063,22,26,16,036,,7*40
$GQGSV,1,1,02,-190,65,059,32,-189,67,099,26,1*64
$GBGSV,4,1,14,04,36,118,24,07,59,316,16,11,00,000,19,16,59,199,25,1*74
$GBGSV,4,2,14,01,49,135,,02,37,237,,03,56,202,,06,63,220,,1*7D
$GBGSV,4,3,14,09,66,261,,10,50,298,,12,20,037,,23,40,320,,1*7E
$GBGSV,4,4,14,24,26,136,,25,83,127,,1*7D
$GNGSA,A,3,01,02,07,08,30,,,,,,,,1.1,0.8,0.8,1*3E
$GNGSA,A,3,73,80,82,83,,,,,,,,,1.1,0.8,0.8,2*3F
$GNGSA,A,3,10,12,23,24,31,33,,,,,,,1.1,0.8,0.8,3*34
$GNGSA,A,3,07,11,16,,,,,,,,,,1.1,0.8,0.8,4*34
$GNGSA,A,3,02,03,,,,,,,,,,,1.1,0.8,0.8,5*34
$GNVTG,340.8,T,340.8,M,0.6,N,1.2,K,A*38
$GNDTM,P90,,0000.000020,S,00000.000001,W,0.991,W84*4E
$GNRMC,030910.00,A,2458.969737,N,12116.444792,E,0.6,340.8,290325,3.1,W,A,V*4F
$GNGNS,030910.00,2458.969737,N,12116.444792,E,AAAAA,20,0.8,129.3,16.6,,,V*69
$GNGGA,030910.00,2458.969737,N,12116.444792,E,1,12,0.8,129.3,M,16.6,M,,*79
$GPGSV,3,1,09,01,71,157,30,02,67,050,27,07,62,255,22,08,39,035,25,1*69
$GPGSV,3,2,09,17,17,262,21,30,37,302,29,03,11,154,,14,15,312,,1*66
$GPGSV,3,3,09,27,09,056,,1*52
$GLGSV,2,1,05,82,16,026,23,73,55,350,18,80,52,112,22,83,57,009,13,1*72
$GLGSV,2,2,05,84,46,226,,1*45
$GAGSV,2,1,07,10,27,199,22,12,49,189,25,23,36,090,30,24,22,313,24,7*74
$GAGSV,2,2,07,31,59,009,26,33,62,063,27,26,16,036,,7*45
$GQGSV,1,1,02,-190,65,059,32,-189,67,099,31,1*62
$GBGSV,4,1,14,04,36,118,24,07,59,316,16,11,00,000,19,16,59,199,25,1*74
$GBGSV,4,2,14,01,49,135,,02,37,237,,03,56,202,,06,63,220,,1*7D
$GBGSV,4,3,14,09,66,261,,10,50,298,,12,20,037,,23,40,320,,1*7E
$GBGSV,4,4,14,24,26,136,,25,83,127,,1*7D
$GNGSA,A,3,01,02,07,08,30,,,,,,,,1.1,0.8,0.8,1*3E
$GNGSA,A,3,73,80,82,83,,,,,,,,,1.1,0.8,0.8,2*3F
$GNGSA,A,3,10,12,23,24,31,33,,,,,,,1.1,0.8,0.8,3*34
$GNGSA,A,3,07,11,16,,,,,,,,,,1.1,0.8,0.8,4*34
$GNGSA,A,3,02,03,,,,,,,,,,,1.1,0.8,0.8,5*34
$GNVTG,,T,,M,0.0,N,0.0,K,A*3D
$GNDTM,P90,,0000.000020,S,00000.000001,W,0.991,W84*4E
$GNRMC,030911.00,A,2458.969355,N,12116.444707,E,0.0,,290325,3.1,W,A,V*65
$GNGNS,030911.00,2458.969355,N,12116.444707,E,AAAAA,20,0.8,130.0,16.6,,,V*6F
$GNGGA,030911.00,2458.969355,N,12116.444707,E,1,12,0.8,130.0,M,16.6,M,,*7F
$GPGSV,3,1,09,01,71,157,29,02,66,050,29,07,62,255,22,08,39,035,22,1*69
$GPGSV,3,2,09,17,18,262,21,30,38,302,27,03,11,154,,14,15,312,,1*68
$GPGSV,3,3,09,27,09,057,,1*53
$GLGSV,2,1,05,82,16,026,24,73,55,350,18,80,52,112,21,83,57,009,13,1*76
$GLGSV,2,2,05,84,46,226,,1*45
$GAGSV,2,1,07,10,27,199,22,12,50,189,25,23,36,090,30,24,23,313,24,7*7D
$GAGSV,2,2,07,31,59,009,23,33,62,061,27,26,16,036,,7*42
$GQGSV,1,1,02,-190,65,059,33,-189,68,099,26,1*6A
$GBGSV,4,1,14,04,36,118,24,07,59,316,16,11,00,000,19,16,59,199,20,1*71
$GBGSV,4,2,14,01,49,135,,02,37,237,,03,56,202,,06,63,220,,1*7D
$GBGSV,4,3,14,09,66,261,,10,50,298,,12,20,037,,23,40,320,,1*7E
$GBGSV,4,4,14,24,26,136,,25,83,129,,1*73
$GNGSA,A,3,01,02,07,08,30,,,,,,,,1.1,0.8,0.8,1*3E
$GNGSA,A,3,73,80,82,83,,,,,,,,,1.1,0.8,0.8,2*3F
$GNGSA,A,3,10,12,23,24,31,33,,,,,,,1.1,0.8,0.8,3*34
$GNGSA,A,3,07,11,16,,,,,,,,,,1.1,0.8,0.8,4*34
$GNGSA,A,3,02,03,,,,,,,,,,,1.1,0.8,0.8,5*34
$GNVTG,,T,,M,0.0,N,0.0,K,A*3D
$GNDTM,P90,,0000.000020,S,00000.000001,W,0.991,W84*4E
$GNRMC,030912.00,A,2458.969102,N,12116.444679,E,0.0,,290325,3.1,W,A,V*6E
$GNGNS,030912.00,2458.969102,N,12116.444679,E,AAAAA,20,0.8,130.0,16.6,,,V*64
$GNGGA,030912.00,2458.969102,N,12116.444679,E,1,12,0.8,130.0,M,16.6,M,,*74
$GPGSV,2,1,08,01,71,157,33,02,66,050,27,07,62,255,22,08,39,035,22,1*6C
$GPGSV,2,2,08,17,18,262,16,30,38,302,28,03,11,154,,14,15,312,,1*63
$GLGSV,2,1,05,82,16,026,21,73,55,350,18,80,52,112,32,83,57,009,13,1*71
$GLGSV,2,2,05,84,46,226,,1*45
$GAGSV,2,1,07,10,27,199,22,12,50,189,25,23,36,090,31,24,23,313,24,7*7C
$GAGSV,2,2,07,31,59,009,23,33,62,061,30,26,16,036,,7*44
$GQGSV,1,1,02,-190,65,059,31,-189,68,099,28,1*66
$GBGSV,4,1,14,04,36,118,24,07,59,316,16,11,00,000,24,16,59,199,20,1*7F
$GBGSV,4,2,14,01,49,135,,02,37,237,,03,56,202,,06,63,220,,1*7D
$GBGSV,4,3,14,09,66,261,,10,50,298,,12,20,037,,23,40,320,,1*7E
$GBGSV,4,4,14,24,26,136,,25,83,129,,1*73
$GNGSA,A,3,01,02,07,08,17,30,,,,,,,1.1,0.8,0.8,1*38
$GNGSA,A,3,73,80,82,83,,,,,,,,,1.1,0.8,0.8,2*3F
$GNGSA,A,3,10,12,23,24,31,33,,,,,,,1.1,0.8,0.8,3*34
$GNGSA,A,3,07,11,16,,,,,,,,,,1.1,0.8,0.8,4*34
$GNGSA,A,3,02,03,,,,,,,,,,,1.1,0.8,0.8,5*34
$GNVTG,,T,,M,0.0,N,0.0,K,A*3D
$GNDTM,P90,,0000.000020,S,00000.000001,W,0.991,W84*4E
$GNRMC,030913.00,A,2458.968982,N,12116.444811,E,0.0,,290325,3.1,W,A,V*6E
$GNGNS,030913.00,2458.968982,N,12116.444811,E,AAAAA,21,0.8,130.2,16.6,,,V*67
$GNGGA,030913.00,2458.968982,N,12116.444811,E,1,12,0.8,130.2,M,16.6,M,,*76
$GPGSV,2,1,08,01,71,157,33,02,66,050,32,07,62,255,22,08,39,035,22,1*68
$GPGSV,2,2,08,17,18,262,16,30,38,302,28,03,11,154,,14,15,312,,1*63
$GLGSV,2,1,05,82,16,026,21,73,55,350,21,80,52,112,24,83,57,009,13,1*7C
$GLGSV,2,2,05,84,46,226,,1*45
$GAGSV,2,1,07,10,27,199,22,12,50,189,26,23,36,090,31,24,23,313,24,7*7F
$GAGSV,2,2,07,31,59,009,23,33,62,061,36,26,16,036,,7*42
$GQGSV,1,1,02,-190,65,059,32,-189,68,099,32,1*6E
$GBGSV,4,1,14,04,36,118,24,07,59,316,16,11,00,000,24,16,59,199,20,1*7F
$GBGSV,4,2,14,01,49,135,,02,37,237,,03,56,202,,06,63,220,,1*7D
$GBGSV,4,3,14,09,66,261,,10,50,298,,12,20,037,,23,40,320,,1*7E
$GBGSV,4,4,14,24,26,136,,25,83,129,,1*73
$GNGSA,A,3,01,02,07,08,17,30,,,,,,,1.1,0.8,0.8,1*38
$GNGSA,A,3,73,80,82,83,,,,,,,,,1.1,0.8,0.8,2*3F
$GNGSA,A,3,12,23,24,31,33,,,,,,,,1.1,0.8,0.8,3*35
$GNGSA,A,3,11,16,,,,,,,,,,,1.1,0.8,0.8,4*33
$GNGSA,A,3,02,03,,,,,,,,,,,1.1,0.8,0.8,5*34
$GNVTG,,T,,M,0.0,N,0.0,K,A*3D
$GNDTM,P90,,0000.000020,S,00000.000001,W,0.991,W84*4E
$GNRMC,030914.00,A,2458.968844,N,12116.445045,E,0.0,,290325,3.1,W,A,V*6A
$GNGNS,030914.00,2458.968844,N,12116.445045,E,AAAAA,19,0.8,129.4,16.6,,,V*66
$GNGGA,030914.00,2458.968844,N,12116.445045,E,1,12,0.8,129.4,M,16.6,M,,*7C
$GPGSV,2,1,08,01,71,157,33,02,66,050,32,07,62,255,17,08,39,035,23,1*6F
$GPGSV,2,2,08,17,18,262,16,30,38,302,28,03,11,154,,14,15,312,,1*63
$GLGSV,2,1,05,82,16,026,21,73,55,350,24,80,52,112,24,83,57,009,13,1*79
$GLGSV,2,2,05,84,46,226,,1*45
$GAGSV,2,1,07,10,27,199,22,12,50,189,26,23,36,090,31,24,23,313,24,7*7F
$GAGSV,2,2,07,31,59,009,23,33,62,061,35,26,16,036,,7*41
$GQGSV,1,1,02,-190,65,059,32,-189,68,099,32,1*6E
$GBGSV,4,1,14,04,36,118,24,07,59,316,16,11,00,000,24,16,59,199,20,1*7F
$GBGSV,4,2,14,01,49,135,,02,37,237,,03,56,202,,06,63,220,,1*7D
$GBGSV,4,3,14,09,66,261,,10,50,298,,12,20,037,,23,40,320,,1*7E
$GBGSV,4,4,14,24,26,136,,25,83,129,,1*73
$GNGSA,A,3,01,02,07,08,17,30,,,,,,,1.2,0.8,0.8,1*3B
$GNGSA,A,3,73,80,82,,,,,,,,,,1.2,0.8,0.8,2*37
$GNGSA,A,3,12,23,24,31,33,,,,,,,,1.2,0.8,0.8,3*36
$GNGSA,A,3,11,16,,,,,,,,,,,1.2,0.8,0.8,4*30
$GNGSA,A,3,02,03,,,,,,,,,,,1.2,0.8,0.8,5*37
$GNVTG,,T,,M,0.0,N,0.0,K,A*3D
$GNDTM,P90,,0000.000020,S,00000.000001,W,0.991,W84*4E
$GNRMC,030915.00,A,2458.968757,N,12116.445194,E,0.0,,290325,3.1,W,A,V*6B
$GNGNS,030915.00,2458.968757,N,12116.445194,E,AAAAA,18,0.8,129.4,16.6,,,V*66
$GNGGA,030915.00,2458.968757,N,12116.445194,E,1,12,0.8,129.4,M,16.6,M,,*7D
$GPGSV,2,1,08,01,71,157,34,02,66,050,30,07,62,255,17,08,39,035,25,1*6C
$GPGSV,2,2,08,17,18,262,16,30,38,302,19,03,11,154,,14,15,312,,1*61
$GLGSV,2,1,05,82,16,026,21,73,55,350,24,80,52,112,27,83,57,009,13,1*7A
$GLGSV,2,2,05,84,46,226,,1*45
$GAGSV,2,1,07,10,27,199,19,12,50,189,26,23,36,090,31,24,23,313,28,7*7B
$GAGSV,2,2,07,31,59,009,23,33,62,061,34,26,16,036,,7*40
$GQGSV,1,1,02,-190,65,059,33,-189,68,099,33,1*6E
$GBGSV,4,1,14,04,36,118,24,07,59,316,16,11,00,000,24,16,59,199,20,1*7F
$GBGSV,4,2,14,01,49,135,,02,37,237,,03,56,202,,06,63,220,,1*7D
$GBGSV,4,3,14,09,66,261,,10,50,298,,12,20,037,,23,40,320,,1*7E
$GBGSV,4,4,14,24,26,136,,25,83,129,,1*73
$GNGSA,A,3,01,02,07,08,17,30,,,,,,,1.1,0.8,0.8,1*38
$GNGSA,A,3,73,80,82,,,,,,,,,,1.1,0.8,0.8,2*34
$GNGSA,A,3,10,12,23,24,31,33,,,,,,,1.1,0.8,0.8,3*34
$GNGSA,A,3,11,16,,,,,,,,,,,1.1,0.8,0.8,4*33
$GNGSA,A,3,02,03,,,,,,,,,,,1.1,0.8,0.8,5*34
$GNVTG,,T,,M,0.0,N,0.0,K,A*3D
$GNDTM,P90,,0000.000020,S,00000.000001,W,0.991,W84*4E
$GNRMC,030916.00,A,2458.968713,N,12116.445269,E,0.0,,290325,3.1,W,A,V*69
$GNGNS,030916.00,2458.968713,N,12116.445269,E,AAAAA,19,0.8,129.4,16.6,,,V*65
$GNGGA,030916.00,2458.968713,N,12116.445269,E,1,12,0.8,129.4,M,16.6,M,,*7F
$GPGSV,2,1,08,01,71,157,36,02,66,050,26,07,62,255,17,08,39,035,29,1*65
$GPGSV,2,2,08,17,18,262,19,30,38,302,23,03,11,154,,14,15,312,,1*67
$GLGSV,2,1,05,82,16,026,21,73,55,350,24,80,52,112,27,83,57,009,13,1*7A
$GLGSV,2,2,05,84,46,226,,1*45
$GAGSV,2,1,07,10,27,199,19,12,50,189,24,23,36,090,24,24,23,313,28,7*7D
$GAGSV,2,2,07,31,59,009,23,33,62,061,31,26,16,036,,7*45
$GQGSV,1,1,02,-190,65,059,25,-189,68,099,29,1*62
$GBGSV,4,1,14,04,36,118,24,07,59,316,16,11,00,000,24,16,59,199,20,1*7F
$GBGSV,4,2,14,01,49,135,,02,37,237,,03,56,202,,06,63,220,,1*7D
$GBGSV,4,3,14,09,66,261,,10,50,298,,12,20,037,,23,40,320,,1*7E
$GBGSV,4,4,14,24,26,136,,25,83,129,,1*73
$GNGSA,A,3,01,02,07,08,17,30,,,,,,,1.1,0.8,0.8,1*38
$GNGSA,A,3,73,80,82,,,,,,,,,,1.1,0.8,0.8,2*34
$GNGSA,A,3,10,12,23,24,31,33,,,,,,,1.1,0.8,0.8,3*34
$GNGSA,A,3,11,16,,,,,,,,,,,1.1,0.8,0.8,4*33
$GNGSA,A,3,02,03,,,,,,,,,,,1.1,0.8,0.8,5*34
$GNVTG,,T,,M,0.0,N,0.0,K,A*3D
$GNDTM,P90,,0000.000020,S,00000.000001,W,0.991,W84*4E
$GNRMC,030917.00,A,2458.968703,N,12116.445206,E,0.0,,290325,3.1,W,A,V*60
$GNGNS,030917.00,2458.968703,N,12116.445206,E,AAAAA,19,0.8,129.7,16.6,,,V*6F
$GNGGA,030917.00,2458.968703,N,12116.445206,E,1,12,0.8,129.7,M,16.6,M,,*75
$GPGSV,2,1,08,01,71,157,26,02,66,050,26,07,62,255,19,08,39,035,29,1*6A
$GPGSV,2,2,08,17,18,262,19,30,38,302,25,03,11,154,,14,15,312,,1*61
$GLGSV,2,1,05,82,16,026,21,73,55,350,24,80,52,112,31,83,57,009,13,1*7D
$GLGSV,2,2,05,84,46,226,,1*45
$GAGSV,2,1,07,10,27,199,19,12,50,189,24,23,36,090,24,24,23,313,28,7*7D
$GAGSV,2,2,07,31,59,009,25,33,62,061,31,26,16,036,,7*43
$GQGSV,1,1,02,-190,65,059,25,-189,68,099,23,1*68
$GBGSV,4,1,14,04,36,118,24,07,59,316,16,11,00,000,24,16,59,199,20,1*7F
$GBGSV,4,2,14,01,49,135,,02,37,237,,03,56,202,,06,63,220,,1*7D
$GBGSV,4,3,14,09,66,261,,10,50,298,,12,20,037,,23,40,320,,1*7E
$GBGSV,4,4,14,24,26,136,,25,83,129,,1*73
$GNGSA,A,3,01,02,07,08,17,30,,,,,,,1.1,0.8,0.8,1*38
$GNGSA,A,3,73,80,82,,,,,,,,,,1.1,0.8,0.8,2*34
$GNGSA,A,3,10,12,23,24,31,33,,,,,,,1.1,0.8,0.8,3*34
$GNGSA,A,3,11,,,,,,,,,,,,1.1,0.8,0.8,4*34
$GNGSA,A,3,02,03,,,,,,,,,,,1.1,0.8,0.8,5*34
$GNVTG,102.5,T,102.5,M,2.0,N,3.7,K,A*3B
$GNDTM,P90,,0000.000020,S,00000.000001,W,0.991,W84*4E
$GNRMC,030918.00,A,2458.968698,N,12116.445539,E,2.0,102.5,290325,3.1,W,A,V*4D
$GNGNS,030918.00,2458.968698,N,12116.445539,E,AAAAA,18,0.8,129.5,16.6,,,V*6B
$GNGGA,030918.00,2458.968698,N,12116.445539,E,1,12,0.8,129.5,M,16.6,M,,*70
$GPGSV,2,1,08,01,71,157,30,02,66,050,28,07,62,255,19,08,39,035,21,1*6B
$GPGSV,2,2,08,17,18,262,19,30,38,302,25,03,11,154,,14,15,312,,1*61
$GLGSV,2,1,05,82,16,026,21,73,55,350,24,80,52,112,31,83,57,009,13,1*7D
$GLGSV,2,2,05,84,46,226,,1*45
$GAGSV,2,1,07,10,27,199,19,12,50,189,24,23,36,090,24,24,23,313,24,7*71
$GAGSV,2,2,07,31,59,009,25,33,62,061,30,26,16,036,,7*42
$GQGSV,1,1,02,-190,65,059,25,-189,68,099,24,1*6F
$GBGSV,4,1,14,04,36,118,24,07,59,316,16,11,00,000,24,16,59,199,20,1*7F
$GBGSV,4,2,14,01,49,135,,02,37,237,,03,56,202,,06,63,220,,1*7D
$GBGSV,4,3,14,09,66,261,,10,50,298,,12,20,037,,23,40,320,,1*7E
$GBGSV,4,4,14,24,26,136,,25,83,129,,1*73
$GNGSA,A,3,01,02,07,08,17,30,,,,,,,1.1,0.8,0.8,1*38
$GNGSA,A,3,73,80,82,,,,,,,,,,1.1,0.8,0.8,2*34
$GNGSA,A,3,10,12,23,24,31,33,,,,,,,1.1,0.8,0.8,3*34
$GNGSA,A,3,02,03,,,,,,,,,,,1.1,0.8,0.8,5*34
$GNVTG,,T,,M,0.0,N,0.0,K,A*3D
$GNDTM,P90,,0000.000020,S,00000.000001,W,0.991,W84*4E
$GNRMC,030919.00,A,2458.968425,N,12116.445699,E,0.0,,290325,3.1,W,A,V*6B
$GNGNS,030919.00,2458.968425,N,12116.445699,E,AAANA,17,0.8,129.3,16.6,,,V*61
$GNGGA,030919.00,2458.968425,N,12116.445699,E,1,12,0.8,129.3,M,16.6,M,,*7A
$GPGSV,2,1,08,01,71,157,37,02,66,050,28,07,62,255,19,08,39,035,22,1*6F
$GPGSV,2,2,08,17,18,262,19,30,38,302,22,03,11,154,,14,15,312,,1*66
$GLGSV,2,1,05,82,16,026,21,73,55,350,24,80,52,112,27,83,57,009,13,1*7A
$GLGSV,2,2,05,84,46,226,,1*45
$GAGSV,2,1,07,10,27,199,19,12,50,189,24,23,36,090,27,24,23,313,24,7*72
$GAGSV,2,2,07,31,59,009,25,33,62,061,30,26,16,036,,7*42
$GQGSV,1,1,02,-190,65,059,18,-189,68,099,30,1*64
$GBGSV,4,1,14,04,36,118,24,07,59,316,16,11,00,000,24,16,59,199,20,1*7F
$GBGSV,4,2,14,01,49,135,,02,37,237,,03,56,202,,06,63,220,,1*7D
$GBGSV,4,3,14,09,66,261,,10,50,298,,12,20,037,,23,40,320,,1*7E
$GBGSV,4,4,14,24,26,136,,25,83,129,,1*73
$GNGSA,A,3,01,02,07,08,17,30,,,,,,,1.1,0.8,0.8,1*38
$GNGSA,A,3,73,80,82,,,,,,,,,,1.1,0.8,0.8,2*34
$GNGSA,A,3,10,12,23,24,31,33,,,,,,,1.1,0.8,0.8,3*34
$GNGSA,A,3,02,03,,,,,,,,,,,1.1,0.8,0.8,5*34
$GNVTG,94.1,T,94.1,M,0.4,N,0.7,K,A*3E
$GNDTM,P90,,0000.000020,S,00000.000001,W,0.991,W84*4E
$GNRMC,030920.00,A,2458.968223,N,12116.445716,E,0.4,94.1,290325,3.1,W,A,V*71
$GNGNS,030920.00,2458.968223,N,12116.445716,E,AAANA,17,0.8,130.0,16.6,,,V*66
$GNGGA,030920.00,2458.968223,N,12116.445716,E,1,12,0.8,130.0,M,16.6,M,,*7D
$GPGSV,2,1,08,01,71,157,37,02,66,050,31,07,62,255,21,08,39,035,23,1*6D
$GPGSV,2,2,08,17,18,262,18,30,38,302,29,03,11,154,,14,15,312,,1*6C
$GLGSV,2,1,05,82,16,026,21,73,55,350,24,80,52,112,28,83,57,009,13,1*75
$GLGSV,2,2,05,84,46,226,,1*45
$GAGSV,2,1,07,10,27,199,19,12,50,189,24,23,36,090,27,24,23,313,24,7*72
$GAGSV,2,2,07,31,59,009,26,33,62,061,32,26,16,036,,7*43
$GQGSV,1,1,02,-190,65,059,29,-189,68,099,25,1*62
$GBGSV,4,1,14,04,36,118,24,07,59,316,16,11,00,000,24,16,59,199,20,1*7F
$GBGSV,4,2,14,01,49,135,,02,37,237,,03,56,202,,06,63,220,,1*7D
$GBGSV,4,3,14,09,66,261,,10,50,298,,12,20,037,,23,40,320,,1*7E
$GBGSV,4,4,14,24,26,136,,25,83,129,,1*73
$GNGSA,A,3,01,02,07,08,17,30,,,,,,,1.2,0.8,0.8,1*3B
$GNGSA,A,3,73,80,,,,,,,,,,,1.2,0.8,0.8,2*3D
$GNGSA,A,3,10,12,23,24,31,33,,,,,,,1.2,0.8,0.8,3*37
$GNGSA,A,3,02,03,,,,,,,,,,,1.2,0.8,0.8,5*37
$GNVTG,,T,,M,0.0,N,0.0,K,A*3D
$GNDTM,P90,,0000.000020,S,00000.000001,W,0.991,W84*4E
$GNRMC,030921.00,A,2458.968221,N,12116.445876,E,0.0,,290325,3.1,W,A,V*6D
$GNGNS,030921.00,2458.968221,N,12116.445876,E,AAANA,16,0.8,130.3,16.6,,,V*6E
$GNGGA,030921.00,2458.968221,N,12116.445876,E,1,12,0.8,130.3,M,16.6,M,,*74
$GPGSV,2,1,08,01,71,157,24,02,66,050,34,07,62,255,21,08,39,035,22,1*6B
$GPGSV,2,2,08,17,18,262,18,30,38,302,33,03,11,154,,14,15,312,,1*67
$GLGSV,2,1,05,82,16,026,21,73,55,350,24,80,52,112,31,83,57,009,13,1*7D
$GLGSV,2,2,05,84,46,226,,1*45
$GAGSV,2,1,07,10,27,199,19,12,50,189,24,23,36,090,30,24,23,313,21,7*71
$GAGSV,2,2,07,31,59,009,26,33,62,061,32,26,16,036,,7*43
$GQGSV,1,1,02,-190,65,059,25,-189,68,099,25,1*6E
$GBGSV,4,1,13,07,59,316,16,11,00,000,24,16,59,199,20,01,49,135,,1*7C
$GBGSV,4,2,13,02,37,237,,03,56,202,,06,63,220,,09,66,261,,1*7D
$GBGSV,4,3,13,10,50,298,,12,20,037,,23,40,320,,24,26,136,,1*73
$GBGSV,4,4,13,25,83,129,,1*42
$GNGSA,A,3,01,02,07,08,17,30,,,,,,,1.3,1.0,0.9,1*32
$GNGSA,A,3,80,,,,,,,,,,,,1.3,1.0,0.9,2*30
$GNGSA,A,3,12,23,24,31,33,,,,,,,,1.3,1.0,0.9,3*3F
$GNGSA,A,3,02,03,,,,,,,,,,,1.3,1.0,0.9,5*3E
$GNVTG,301.0,T,301.0,M,0.6,N,1.2,K,A*38
$GNDTM,P90,,0000.000020,S,00000.000001,W,0.991,W84*4E
$GNRMC,030922.00,A,2458.968343,N,12116.445802,E,0.6,301.0,290325,3.1,W,A,V*42
$GNGNS,030922.00,2458.968343,N,12116.445802,E,AAANA,14,1.0,131.0,16.6,,,V*62
$GNGGA,030922.00,2458.968343,N,12116.445802,E,1,12,1.0,131.0,M,16.6,M,,*7A
$GPGSV,2,1,08,01,71,157,28,02,66,050,32,07,62,255,21,08,39,035,24,1*67
$GPGSV,2,2,08,17,18,262,23,30,38,302,27,03,11,154,,14,15,312,,1*6A
$GLGSV,2,1,05,82,16,026,21,73,55,350,15,80,52,112,27,83,57,009,13,1*78
$GLGSV,2,2,05,84,46,226,,1*45
$GAGSV,2,1,07,10,27,199,19,12,50,189,24,23,36,090,29,24,23,313,21,7*79
$GAGSV,2,2,07,31,59,009,26,33,62,061,32,26,16,036,,7*43
$GQGSV,1,1,02,-190,65,059,28,-189,68,099,22,1*64
$GBGSV,4,1,14,07,59,316,16,11,00,000,24,16,59,199,20,01,49,135,,1*7B
$GBGSV,4,2,14,02,37,237,,03,56,202,,04,36,118,,06,63,220,,1*7F
$GBGSV,4,3,14,09,66,261,,10,50,298,,12,20,037,,23,40,320,,1*7E
$GBGSV,4,4,14,24,26,136,,25,83,129,,1*73
$GNGSA,A,3,01,02,07,08,17,30,,,,,,,1.4,1.1,0.9,1*34
$GNGSA,A,3,73,80,,,,,,,,,,,1.4,1.1,0.9,2*32
$GNGSA,A,3,23,24,31,33,,,,,,,,,1.4,1.1,0.9,3*3A
$GNGSA,A,3,02,03,,,,,,,,,,,1.4,1.1,0.9,5*38
$GNVTG,41.6,T,41.6,M,1.3,N,2.5,K,A*38
$GNDTM,P90,,0000.000020,S,00000.000001,W,0.991,W84*4E
$GNRMC,030923.00,A,2458.968592,N,12116.446124,E,1.3,41.6,290325,3.1,W,A,V*72
$GNGNS,030923.00,2458.968592,N,12116.446124,E,AAANA,14,1.1,130.7,16.6,,,V*60
$GNGGA,030923.00,2458.968592,N,12116.446124,E,1,12,1.1,130.7,M,16.6,M,,*78
$GPGSV,2,1,08,01,71,157,35,02,66,050,32,07,62,255,20,08,39,035,29,1*67
$GPGSV,2,2,08,17,18,262,28,30,38,302,30,03,11,154,,14,15,312,,1*67
$GLGSV,2,1,05,82,16,026,18,73,55,350,22,80,52,112,28,83,57,009,13,1*79
$GLGSV,2,2,05,84,46,226,,1*45
$GAGSV,2,1,07,10,27,199,19,12,50,189,24,23,36,090,29,24,23,313,21,7*79
$GAGSV,2,2,07,31,59,009,27,33,62,061,29,26,16,036,,7*48
$GQGSV,1,1,02,-190,65,059,28,-189,68,099,23,1*65
$GBGSV,4,1,14,07,59,316,16,11,00,000,18,16,59,199,20,01,49,135,,1*74
$GBGSV,4,2,14,02,37,237,,03,56,202,,04,36,118,,06,63,220,,1*7F
$GBGSV,4,3,14,09,66,261,,10,50,298,,12,20,037,,23,40,320,,1*7E
$GBGSV,4,4,14,24,26,136,,25,83,129,,1*73
$GNGSA,A,3,01,02,07,08,17,30,,,,,,,1.3,1.0,0.8,1*33
$GNGSA,A,3,73,80,82,,,,,,,,,,1.3,1.0,0.8,2*3F
$GNGSA,A,3,23,24,31,33,,,,,,,,,1.3,1.0,0.8,3*3D
$GNGSA,A,3,11,,,,,,,,,,,,1.3,1.0,0.8,4*3F
$GNGSA,A,3,02,03,,,,,,,,,,,1.3,1.0,0.8,5*3F
$GNVTG,17.0,T,17.0,M,0.4,N,0.7,K,A*3E
$GNDTM,P90,,0000.000020,S,00000.000001,W,0.991,W84*4E
$GNRMC,030924.00,A,2458.968735,N,12116.446268,E,0.4,17.0,290325,3.1,W,A,V*72
$GNGNS,030924.00,2458.968735,N,12116.446268,E,AAAAA,16,1.0,130.6,16.6,,,V*6E
$GNGGA,030924.00,2458.968735,N,12116.446268,E,1,12,1.0,130.6,M,16.6,M,,*7B
$GPGSV,2,1,08,01,71,157,23,02,66,050,30,07,62,255,20,08,38,035,27,1*6D
$GPGSV,2,2,08,17,18,262,23,30,38,302,25,03,11,154,,14,15,312,,1*68
$GLGSV,2,1,05,82,16,026,18,73,56,350,22,80,52,112,31,83,57,009,13,1*72
$GLGSV,2,2,05,84,46,226,,1*45
$GAGSV,2,1,07,10,27,199,19,12,50,189,18,23,36,090,29,24,23,313,22,7*75
$GAGSV,2,2,07,31,59,009,27,33,62,061,29,26,15,036,,7*4B
$GQGSV,1,1,02,-190,65,059,24,-189,68,099,21,1*6B
$GBGSV,4,1,14,07,59,316,16,11,00,000,25,16,59,199,20,01,49,135,,1*7A
$GBGSV,4,2,14,02,37,237,,03,56,202,,04,36,118,,06,63,220,,1*7F
$GBGSV,4,3,14,09,66,261,,10,50,298,,12,19,037,,23,40,320,,1*74
$GBGSV,4,4,14,24,26,136,,25,83,129,,1*73
$GNGSA,A,3,01,02,07,08,17,30,,,,,,,1.2,0.9,0.8,1*3A
$GNGSA,A,3,73,80,82,,,,,,,,,,1.2,0.9,0.8,2*36
$GNGSA,A,3,12,23,24,31,33,,,,,,,,1.2,0.9,0.8,3*37
$GNGSA,A,3,11,,,,,,,,,,,,1.2,0.9,0.8,4*36
$GNGSA,A,3,02,03,,,,,,,,,,,1.2,0.9,0.8,5*36
$GNVTG,,T,,M,0.0,N,0.0,K,A*3D
$GNDTM,P90,,0000.000020,S,00000.000001,W,0.991,W84*4E
$GNRMC,030925.00,A,2458.968467,N,12116.446134,E,0.0,,290325,3.1,W,A,V*61
$GNGNS,030925.00,2458.968467,N,12116.446134,E,AAAAA,17,0.9,130.9,16.6,,,V*67
$GNGGA,030925.00,2458.968467,N,12116.446134,E,1,12,0.9,130.9,M,16.6,M,,*73
$GPGSV,2,1,08,01,71,157,30,02,66,050,30,07,62,255,20,08,38,035,27,1*6F
$GPGSV,2,2,08,17,18,262,23,30,38,302,21,03,11,154,,14,15,312,,1*6C
$GLGSV,2,1,05,82,16,026,20,73,56,350,22,80,52,112,26,83,57,009,13,1*7F
$GLGSV,2,2,05,84,46,226,,1*45
$GAGSV,2,1,07,10,27,199,19,12,50,189,18,23,36,090,22,24,23,313,22,7*7E
$GAGSV,2,2,07,31,59,009,27,33,62,061,29,26,15,036,,7*4B
$GQGSV,1,1,02,-190,65,059,20,-189,68,099,21,1*6F
$GBGSV,4,1,14,07,59,316,16,11,00,000,25,16,59,199,20,01,49,135,,1*7A
$GBGSV,4,2,14,02,37,237,,03,56,202,,04,36,118,,06,63,220,,1*7F
$GBGSV,4,3,14,09,66,261,,10,50,298,,12,19,037,,23,40,320,,1*74
$GBGSV,4,4,14,24,26,136,,25,83,129,,1*73
$GNGSA,A,3,01,02,07,08,17,30,,,,,,,1.2,0.9,0.8,1*3A
$GNGSA,A,3,73,80,82,,,,,,,,,,1.2,0.9,0.8,2*36
$GNGSA,A,3,12,23,24,31,33,,,,,,,,1.2,0.9,0.8,3*37
$GNGSA,A,3,11,,,,,,,,,,,,1.2,0.9,0.8,4*36
$GNGSA,A,3,02,03,,,,,,,,,,,1.2,0.9,0.8,5*36
$GNVTG,,T,,M,0.0,N,0.0,K,A*3D
$GNDTM,P90,,0000.000020,S,00000.000001,W,0.991,W84*4E
$GNRMC,030926.00,A,2458.968342,N,12116.446149,E,0.0,,290325,3.1,W,A,V*68
$GNGNS,030926.00,2458.968342,N,12116.446149,E,AAAAA,17,0.9,131.3,16.6,,,V*65
$GNGGA,030926.00,2458.968342,N,12116.446149,E,1,12,0.9,131.3,M,16.6,M,,*71
$GPGSV,2,1,08,01,71,157,33,02,66,050,20,07,62,255,20,08,38,035,22,1*68
$GPGSV,2,2,08,17,18,262,23,30,38,302,25,03,11,154,,14,15,312,,1*68
$GLGSV,2,1,05,82,16,026,20,73,56,350,22,80,52,112,25,83,57,009,13,1*7C
$GLGSV,2,2,05,84,46,226,,1*45
$GAGSV,2,1,07,10,27,199,19,12,50,189,18,23,36,090,22,24,23,313,22,7*7E
$GAGSV,2,2,07,31,59,009,24,33,62,061,25,26,15,036,,7*44
$GQGSV,1,1,02,-190,65,059,21,-189,68,099,21,1*6E
$GBGSV,4,1,13,11,00,000,24,16,59,199,20,01,49,135,,02,37,237,,1*74
$GBGSV,4,2,13,03,56,202,,04,36,118,,06,63,220,,09,66,261,,1*74
$GBGSV,4,3,13,10,50,298,,12,19,037,,23,40,320,,24,26,136,,1*79
$GBGSV,4,4,13,25,83,129,,1*42
$GNGSA,A,3,01,02,07,08,17,30,,,,,,,1.2,0.9,0.8,1*3A
$GNGSA,A,3,73,80,82,,,,,,,,,,1.2,0.9,0.8,2*36
$GNGSA,A,3,12,23,24,31,33,,,,,,,,1.2,0.9,0.8,3*37
$GNGSA,A,3,11,,,,,,,,,,,,1.2,0.9,0.8,4*36
$GNGSA,A,3,02,03,,,,,,,,,,,1.2,0.9,0.8,5*36
$GNVTG,67.2,T,67.2,M,0.5,N,1.0,K,A*39
$GNDTM,P90,,0000.000020,S,00000.000001,W,0.991,W84*4E
$GNRMC,030927.00,A,2458.968265,N,12116.446266,E,0.5,67.2,290325,3.1,W,A,V*7B
$GNGNS,030927.00,2458.968265,N,12116.446266,E,AAAAA,17,0.9,131.4,16.6,,,V*69
$GNGGA,030927.00,2458.968265,N,12116.446266,E,1,12,0.9,131.4,M,16.6,M,,*7D
$GPGSV,2,1,08,01,71,157,34,02,66,050,27,07,62,255,20,08,38,035,24,1*6E
$GPGSV,2,2,08,17,18,262,23,30,38,302,22,03,11,154,,14,15,312,,1*6F
$GLGSV,1,1,04,82,16,026,20,73,56,350,22,80,52,112,27,84,46,226,,1*76
$GAGSV,2,1,07,10,27,199,19,12,50,189,18,23,36,090,22,24,23,313,22,7*7E
$GAGSV,2,2,07,31,59,009,24,33,62,061,25,26,15,036,,7*44
$GQGSV,1,1,02,-190,65,059,20,-189,68,099,18,1*65
$GBGSV,4,1,14,11,00,000,24,16,59,199,20,01,49,135,,02,37,237,,1*73
$GBGSV,4,2,14,03,56,202,,04,36,118,,06,63,220,,07,59,316,,1*70
$GBGSV,4,3,14,09,66,261,,10,50,298,,12,19,037,,23,40,320,,1*74
$GBGSV,4,4,14,24,26,136,,25,83,129,,1*73
$GNGSA,A,3,01,02,07,08,17,30,,,,,,,1.2,0.9,0.8,1*3A
$GNGSA,A,3,73,80,82,,,,,,,,,,1.2,0.9,0.8,2*36
$GNGSA,A,3,12,23,24,31,33,,,,,,,,1.2,0.9,0.8,3*37
$GNGSA,A,3,11,,,,,,,,,,,,1.2,0.9,0.8,4*36
$GNGSA,A,3,02,03,,,,,,,,,,,1.2,0.9,0.8,5*36
$GNVTG,,T,,M,0.0,N,0.0,K,A*3D
$GNDTM,P90,,0000.000020,S,00000.000001,W,0.991,W84*4E
$GNRMC,030928.00,A,2458.967967,N,12116.445924,E,0.0,,290325,3.1,W,A,V*64
$GNGNS,030928.00,2458.967967,N,12116.445924,E,AAAAA,17,0.9,131.9,16.6,,,V*63
$GNGGA,030928.00,2458.967967,N,12116.445924,E,1,12,0.9,131.9,M,16.6,M,,*77
$GPGSV,2,1,08,01,71,157,32,02,66,049,29,07,62,255,20,08,38,035,23,1*69
$GPGSV,2,2,08,17,18,262,23,30,38,300,23,03,11,154,,14,15,312,,1*6C
$GLGSV,2,1,05,82,16,026,20,73,56,350,22,80,52,112,24,84,46,226,,1*77
$GLGSV,2,2,05,83,57,009,,1*4D
$GAGSV,2,1,07,10,27,199,19,12,50,189,18,23,36,090,24,24,23,314,22,7*7F
$GAGSV,2,2,07,31,59,009,24,33,62,061,25,26,15,036,,7*44
$GQGSV,1,1,02,-190,65,059,26,-189,68,099,25,1*6D
$GBGSV,4,1,14,11,00,000,24,16,59,199,20,01,49,135,,02,37,237,,1*73
$GBGSV,4,2,14,03,56,202,,04,36,118,,06,63,220,,07,59,316,,1*70
$GBGSV,4,3,14,09,66,261,,10,50,298,,12,19,037,,23,40,320,,1*74
$GBGSV,4,4,14,24,26,136,,25,83,129,,1*73
$GNGSA,A,3,01,02,07,08,17,30,,,,,,,1.2,0.9,0.8,1*3A
$GNGSA,A,3,73,80,82,,,,,,,,,,1.2,0.9,0.8,2*36
$GNGSA,A,3,12,23,24,31,33,,,,,,,,1.2,0.9,0.8,3*37
$GNGSA,A,3,11,,,,,,,,,,,,1.2,0.9,0.8,4*36
$GNGSA,A,3,02,03,,,,,,,,,,,1.2,0.9,0.8,5*36
$GNVTG,139.3,T,139.3,M,1.2,N,2.3,K,A*3F
$GNDTM,P90,,0000.000020,S,00000.000001,W,0.991,W84*4E
$GNRMC,030929.00,A,2458.967495,N,12116.446305,E,1.2,139.3,290325,3.1,W,A,V*4A
$GNGNS,030929.00,2458.967495,N,12116.446305,E,AAAAA,17,0.9,131.5,16.6,,,V*64
$GNGGA,030929.00,2458.967495,N,12116.446305,E,1,12,0.9,131.5,M,16.6,M,,*70
$GPGSV,2,1,08,01,71,157,30,02,66,049,29,07,62,255,20,08,38,035,23,1*6B
$GPGSV,2,2,08,17,18,262,23,30,38,300,23,03,11,154,,14,15,312,,1*6C
$GLGSV,2,1,05,82,16,026,20,73,56,350,22,80,52,112,27,84,46,226,,1*74
$GLGSV,2,2,05,83,57,009,,1*4D
$GAGSV,2,1,07,10,27,199,19,12,50,189,18,23,36,090,24,24,23,314,22,7*7F
$GAGSV,2,2,07,31,59,009,21,33,62,061,24,26,15,036,,7*40
$GQGSV,1,1,02,-190,65,059,29,-189,68,099,25,1*62
$GBGSV,4,1,14,11,00,000,24,16,59,199,20,01,49,135,,02,37,237,,1*73
$GBGSV,4,2,14,03,56,202,,04,36,118,,06,63,220,,07,59,316,,1*70
$GBGSV,4,3,14,09,66,261,,10,50,298,,12,19,037,,23,40,320,,1*74
$GBGSV,4,4,14,24,26,136,,25,83,129,,1*73
$GNGSA,A,3,01,02,08,17,30,,,,,,,,1.2,0.9,0.8,1*3D
$GNGSA,A,3,73,80,82,,,,,,,,,,1.2,0.9,0.8,2*36
$GNGSA,A,3,12,23,24,31,33,,,,,,,,1.2,0.9,0.8,3*37
$GNGSA,A,3,11,,,,,,,,,,,,1.2,0.9,0.8,4*36
$GNGSA,A,3,02,03,,,,,,,,,,,1.2,0.9,0.8,5*36
$GNVTG,128.4,T,128.4,M,0.9,N,1.7,K,A*32
$GNDTM,P90,,0000.000020,S,00000.000001,W,0.991,W84*4E
$GNRMC,030930.00,A,2458.967269,N,12116.446721,E,0.9,128.4,290325,3.1,W,A,V*48
$GNGNS,030930.00,2458.967269,N,12116.446721,E,AAAAA,16,0.9,131.7,16.6,,,V*68
$GNGGA,030930.00,2458.967269,N,12116.446721,E,1,12,0.9,131.7,M,16.6,M,,*7D
$GPGSV,2,1,08,01,71,157,27,02,66,049,28,07,62,255,20,08,38,035,20,1*6F
$GPGSV,2,2,08,17,18,262,23,30,38,300,23,03,11,154,,14,15,312,,1*6C
$GLGSV,2,1,05,82,16,026,18,73,56,350,22,80,52,112,28,84,46,226,,1*70
$GLGSV,2,2,05,83,57,009,,1*4D
$GAGSV,2,1,07,10,27,199,19,12,50,189,18,23,36,090,24,24,23,314,22,7*7F
$GAGSV,2,2,07,31,59,009,21,33,62,061,24,26,15,036,,7*40
$GQGSV,1,1,02,-190,65,059,29,-189,68,099,29,1*6E
$GBGSV,4,1,14,11,00,000,24,16,59,199,20,01,49,135,,02,37,237,,1*73
$GBGSV,4,2,14,03,56,202,,04,36,118,,06,63,220,,07,59,316,,1*70
$GBGSV,4,3,14,09,66,261,,10,50,298,,12,19,037,,23,40,320,,1*74
$GBGSV,4,4,14,24,26,136,,25,83,129,,1*73
$GNGSA,A,3,01,02,08,30,,,,,,,,,1.6,1.3,0.9,1*35
$GNGSA,A,3,80,82,,,,,,,,,,,1.6,1.3,0.9,2*3C
$GNGSA,A,3,23,31,33,,,,,,,,,,1.6,1.3,0.9,3*3C
$GNGSA,A,3,11,,,,,,,,,,,,1.6,1.3,0.9,4*38
$GNGSA,A,3,02,03,,,,,,,,,,,1.6,1.3,0.9,5*38
$GNVTG,124.7,T,124.7,M,0.6,N,1.1,K,A*3B
$GNDTM,P90,,0000.000020,S,00000.000001,W,0.991,W84*4E
$GNRMC,030931.00,A,2458.967255,N,12116.447130,E,0.6,124.7,290325,3.1,W,A,V*41
$GNGNS,030931.00,2458.967255,N,12116.447130,E,AAAAA,12,1.3,130.5,16.6,,,V*6D
$GNGGA,030931.00,2458.967255,N,12116.447130,E,1,12,1.3,130.5,M,16.6,M,,*7C
$GPGSV,2,1,08,01,71,157,29,02,66,049,26,07,62,255,20,08,38,035,20,1*6F
$GPGSV,2,2,08,17,18,262,23,30,38,300,23,03,11,154,,14,15,312,,1*6C
$GLGSV,2,1,05,82,16,026,18,73,56,350,22,80,52,112,22,84,46,226,,1*7A
$GLGSV,2,2,05,83,57,009,,1*4D
$GAGSV,2,1,07,10,27,199,19,12,50,189,18,23,36,090,23,24,23,314,22,7*78
$GAGSV,2,2,07,31,59,009,21,33,62,061,24,26,15,036,,7*40
$GQGSV,1,1,02,-190,65,059,29,-189,68,099,29,1*6E
$GBGSV,4,1,14,11,00,000,24,16,59,199,20,01,49,135,,02,37,237,,1*73
$GBGSV,4,2,14,03,56,202,,04,36,118,,06,63,220,,07,59,316,,1*70
$GBGSV,4,3,14,09,66,261,,10,50,298,,12,19,037,,23,40,320,,1*74
$GBGSV,4,4,14,24,26,136,,25,83,129,,1*73
$GNGSA,A,3,01,02,08,30,,,,,,,,,1.6,1.3,0.9,1*35
$GNGSA,A,3,80,82,,,,,,,,,,,1.6,1.3,0.9,2*3C
$GNGSA,A,3,23,31,33,,,,,,,,,,1.6,1.3,0.9,3*3C
$GNGSA,A,3,11,,,,,,,,,,,,1.6,1.3,0.9,4*38
$GNGSA,A,3,02,03,,,,,,,,,,,1.6,1.3,0.9,5*38
$GNVTG,110.5,T,110.5,M,0.7,N,1.2,K,A*39
$GNDTM,P90,,0000.000020,S,00000.000001,W,0.991,W84*4E
$GNRMC,030932.00,A,2458.967371,N,12116.447585,E,0.7,110.5,290325,3.1,W,A,V*4B
$GNGNS,030932.00,2458.967371,N,12116.447585,E,AAAAA,12,1.3,130.2,16.6,,,V*64
$GNGGA,030932.00,2458.967371,N,12116.447585,E,1,12,1.3,130.2,M,16.6,M,,*75
$GPGSV,2,1,08,01,71,157,26,02,66,049,23,07,62,255,20,08,38,035,22,1*67
$GPGSV,2,2,08,17,18,262,23,30,38,300,23,03,11,154,,14,15,312,,1*6C
$GLGSV,2,1,05,82,16,026,18,73,56,350,22,80,52,112,22,84,46,226,,1*7A
$GLGSV,2,2,05,83,57,009,,1*4D
$GAGSV,2,1,07,10,27,199,19,12,50,189,18,23,36,090,23,24,23,314,18,7*71
$GAGSV,2,2,07,31,59,009,25,33,62,061,26,26,15,036,,7*46
$GQGSV,1,1,02,-190,65,059,21,-189,68,099,29,1*66
$GBGSV,4,1,14,11,00,000,24,16,59,199,18,01,49,135,,02,37,237,,1*78
$GBGSV,4,2,14,03,56,202,,04,36,118,,06,63,220,,07,59,316,,1*70
$GBGSV,4,3,14,09,66,261,,10,50,298,,12,19,037,,23,40,320,,1*74
$GBGSV,4,4,14,24,26,136,,25,83,129,,1*73
$GNGSA,A,3,01,02,08,30,,,,,,,,,1.4,1.1,0.9,1*35
$GNGSA,A,3,80,82,,,,,,,,,,,1.4,1.1,0.9,2*3C
$GNGSA,A,3,23,24,31,33,,,,,,,,,1.4,1.1,0.9,3*3A
$GNGSA,A,3,11,16,,,,,,,,,,,1.4,1.1,0.9,4*3F
$GNGSA,A,3,02,03,,,,,,,,,,,1.4,1.1,0.9,5*38
$GNVTG,123.6,T,123.6,M,1.4,N,2.5,K,A*3F
$GNDTM,P90,,0000.000020,S,00000.000001,W,0.991,W84*4E
$GNRMC,030933.00,A,2458.967357,N,12116.448179,E,1.4,123.6,290325,3.1,W,A,V*47
$GNGNS,030933.00,2458.967357,N,12116.448179,E,AAAAA,14,1.1,130.3,16.6,,,V*6C
$GNGGA,030933.00,2458.967357,N,12116.448179,E,1,12,1.1,130.3,M,16.6,M,,*7B
$GPGSV,2,1,08,01,71,157,26,02,66,049,23,07,62,255,20,08,38,035,21,1*64
$GPGSV,2,2,08,17,18,262,23,30,38,300,17,03,11,154,,14,15,312,,1*6B
$GLGSV,2,1,05,82,16,026,18,73,56,350,22,80,52,112,22,84,46,226,,1*7A
$GLGSV,2,2,05,83,57,009,,1*4D
$GAGSV,2,1,07,10,27,199,19,12,50,189,18,23,36,090,23,24,23,314,18,7*71
$GAGSV,2,2,07,31,59,009,25,33,62,061,26,26,15,036,,7*46
$GQGSV,1,1,02,-190,65,059,21,-189,68,099,25,1*6A
$GBGSV,4,1,14,11,00,000,24,16,59,199,18,01,49,135,,02,37,237,,1*78
$GBGSV,4,2,14,03,56,202,,04,36,118,,06,63,220,,07,59,316,,1*70
$GBGSV,4,3,14,09,66,261,,10,50,298,,12,19,037,,23,40,320,,1*74
$GBGSV,4,4,14,24,26,136,,25,83,129,,1*73
$GNGSA,A,3,01,02,08,30,,,,,,,,,1.4,1.1,0.9,1*35
$GNGSA,A,3,80,82,,,,,,,,,,,1.4,1.1,0.9,2*3C
$GNGSA,A,3,23,24,31,33,,,,,,,,,1.4,1.1,0.9,3*3A
$GNGSA,A,3,16,,,,,,,,,,,,1.4,1.1,0.9,4*3F
$GNGSA,A,3,02,03,,,,,,,,,,,1.4,1.1,0.9,5*38
$GNVTG,,T,,M,0.0,N,0.0,K,A*3D
$GNDTM,P90,,0000.000020,S,00000.000001,W,0.991,W84*4E
$GNRMC,030934.00,A,2458.967644,N,12116.448570,E,0.0,,290325,3.1,W,A,V*67
$GNGNS,030934.00,2458.967644,N,12116.448570,E,AAAAA,13,1.1,130.1,16.6,,,V*64
$GNGGA,030934.00,2458.967644,N,12116.448570,E,1,12,1.1,130.1,M,16.6,M,,*74
$GPGSV,2,1,08,01,71,157,28,02,66,049,22,07,62,255,20,08,38,035,21,1*6B
$GPGSV,2,2,08,17,18,262,23,30,38,300,17,03,11,154,,14,15,312,,1*6B
$GLGSV,2,1,05,82,16,026,18,73,56,350,22,80,52,112,25,84,46,226,,1*7D
$GLGSV,2,2,05,83,57,009,,1*4D
$GAGSV,2,1,07,10,27,201,19,12,50,189,18,23,36,090,19,24,23,314,18,7*7A
$GAGSV,2,2,07,31,59,011,25,33,62,061,26,26,15,036,,7*4F
$GQGSV,1,1,02,-190,65,059,20,-189,68,099,21,1*6F
$GBGSV,4,1,14,11,00,000,24,16,59,199,18,01,49,135,,02,37,237,,1*78
$GBGSV,4,2,14,03,56,202,,04,36,118,,06,63,220,,07,59,316,,1*70
$GBGSV,4,3,14,09,66,260,,10,50,298,,12,19,037,,23,40,320,,1*75
$GBGSV,4,4,14,24,26,136,,25,83,129,,1*73
$GNGSA,A,3,01,02,08,30,,,,,,,,,1.4,1.1,0.9,1*35
$GNGSA,A,3,80,82,,,,,,,,,,,1.4,1.1,0.9,2*3C
$GNGSA,A,3,23,24,31,33,,,,,,,,,1.4,1.1,0.9,3*3A
$GNGSA,A,3,16,,,,,,,,,,,,1.4,1.1,0.9,4*3F
$GNGSA,A,3,02,03,,,,,,,,,,,1.4,1.1,0.9,5*38
$GNVTG,,T,,M,0.0,N,0.0,K,A*3D
$GNDTM,P90,,0000.000020,S,00000.000001,W,0.991,W84*4E
$GNRMC,030935.00,A,2458.967922,N,12116.448529,E,0.0,,290325,3.1,W,A,V*65
$GNGNS,030935.00,2458.967922,N,12116.448529,E,AAAAA,13,1.1,130.3,16.6,,,V*64
$GNGGA,030935.00,2458.967922,N,12116.448529,E,1,12,1.1,130.3,M,16.6,M,,*74
$GPGSV,2,1,08,01,71,157,24,02,66,049,27,07,62,255,13,08,38,035,21,1*62
$GPGSV,2,2,08,17,18,262,23,30,38,300,19,03,11,154,,14,15,312,,1*65
$GLGSV,2,1,05,82,16,026,18,73,56,350,22,80,52,112,25,84,46,226,,1*7D
$GLGSV,2,2,05,83,57,009,,1*4D
$GAGSV,2,1,07,10,27,201,19,12,50,189,18,23,36,090,19,24,23,314,18,7*7A
$GAGSV,2,2,07,31,59,011,24,33,62,061,22,26,15,036,,7*4A
$GQGSV,1,1,02,-190,65,059,23,-189,68,099,21,1*6C
$GBGSV,4,1,14,11,00,000,24,16,59,199,18,01,49,135,,02,37,237,,1*78
$GBGSV,4,2,14,03,56,202,,04,36,118,,06,63,220,,07,59,316,,1*70
$GBGSV,4,3,14,09,66,260,,10,50,298,,12,19,037,,23,40,320,,1*75
$GBGSV,4,4,14,24,26,136,,25,83,129,,1*73
$GNGSA,A,3,01,02,07,08,30,,,,,,,,1.4,1.1,0.9,1*32
$GNGSA,A,3,80,82,,,,,,,,,,,1.4,1.1,0.9,2*3C
$GNGSA,A,3,23,24,31,33,,,,,,,,,1.4,1.1,0.9,3*3A
$GNGSA,A,3,16,,,,,,,,,,,,1.4,1.1,0.9,4*3F
$GNGSA,A,3,02,03,,,,,,,,,,,1.4,1.1,0.9,5*38
$GNVTG,,T,,M,0.0,N,0.0,K,A*3D
$GNDTM,P90,,0000.000020,S,00000.000001,W,0.991,W84*4E
$GNRMC,030936.00,A,2458.968055,N,12116.447978,E,0.0,,290325,3.1,W,A,V*67
$GNGNS,030936.00,2458.968055,N,12116.447978,E,AAAAA,14,1.1,130.8,16.6,,,V*6A
$GNGGA,030936.00,2458.968055,N,12116.447978,E,1,12,1.1,130.8,M,16.6,M,,*7D
$GPGSV,2,1,08,01,71,157,22,02,66,049,30,07,62,255,13,08,38,035,19,1*69
$GPGSV,2,2,08,17,18,262,23,30,38,300,22,03,11,154,,14,15,312,,1*6D
$GLGSV,2,1,05,82,16,026,17,73,56,350,22,80,52,112,22,84,46,226,,1*75
$GLGSV,2,2,05,83,57,009,,1*4D
$GAGSV,2,1,07,12,50,189,18,23,36,090,19,24,23,314,18,31,59,011,24,7*7D
$GAGSV,2,2,07,33,62,061,22,10,27,201,,26,15,036,,7*45
$GQGSV,1,1,02,-190,65,059,28,-189,68,099,21,1*67
$GBGSV,4,1,14,11,00,000,24,16,59,199,22,01,49,135,,02,37,237,,1*71
$GBGSV,4,2,14,03,56,202,,04,36,118,,06,63,220,,07,59,316,,1*70
$GBGSV,4,3,14,09,66,260,,10,50,298,,12,19,037,,23,40,320,,1*75
$GBGSV,4,4,14,24,26,136,,25,83,129,,1*73
$GNGSA,A,3,01,02,07,08,30,,,,,,,,1.4,1.1,0.9,1*32
$GNGSA,A,3,80,82,,,,,,,,,,,1.4,1.1,0.9,2*3C
$GNGSA,A,3,23,24,31,33,,,,,,,,,1.4,1.1,0.9,3*3A
$GNGSA,A,3,16,,,,,,,,,,,,1.4,1.1,0.9,4*3F
$GNGSA,A,3,02,03,,,,,,,,,,,1.4,1.1,0.9,5*38
$GNVTG,,T,,M,0.0,N,0.0,K,A*3D
