$GPGSV,3,1,10,01,30,177,33,02,57,154,34,04,21,208,30,16,26,074,13,1*6F
$GPGSV,3,2,10,07,42,316,,08,63,347,,09,23,243,,26,10,095,,1*68
$GPGSV,3,3,10,27,35,033,,30,09,319,,1*67
$GLGSV,1,1,03,84,59,187,20,73,54,021,,83,47,033,,1*49
$GAGSV,2,1,08,07,15,188,28,13,41,161,29,15,47,080,20,27,52,019,17,7*7B
$GAGSV,2,2,08,19,20,292,,21,30,309,,29,32,243,,30,22,077,,7*7E
$GQGSV,1,1,03,-190,63,045,23,-189,56,120,35,-188,18,168,33,1*47
$GBGSV,3,1,12,03,56,202,31,04,36,119,28,12,62,210,31,16,80,181,30,1*75
$GBGSV,3,2,12,01,49,135,,02,37,237,,06,82,265,,07,62,289,,1*72
$GBGSV,3,3,12,09,68,312,,10,52,274,,24,53,336,,26,60,091,,1*79
$GNGSA,A,3,01,02,04,,,,,,,,,,2.3,2.1,1.0,1*35
$GNGSA,A,3,02,03,04,,,,,,,,,,2.3,2.1,1.0,5*33
$GNVTG,,T,,M,0.0,N,0.0,K,A*3D
$GNDTM,P90,,0000.000020,S,00000.000001,W,0.991,W84*4E
$GNRMC,014229.00,A,2504.841489,N,12114.282784,E,0.0,,300325,3.2,W,A,V*68
$GNGNS,014229.00,2504.841489,N,12114.282784,E,ANNNA,06,2.1,39.3,16.4,,,V*50
$GNGGA,014229.00,2504.841489,N,12114.282784,E,1,06,2.1,39.3,M,16.4,M,,*4E
$GPGSV,3,1,09,01,30,177,35,02,57,154,32,04,21,208,26,07,42,316,,1*67
$GPGSV,3,2,09,08,63,347,,09,23,243,,26,10,095,,27,35,033,,1*66
$GPGSV,3,3,09,30,09,319,,1*5C
$GLGSV,1,1,03,84,59,187,20,73,54,021,,83,47,033,,1*49
$GAGSV,2,1,08,07,15,188,26,13,41,161,33,15,47,080,20,27,52,019,17,7*7E
$GAGSV,2,2,08,19,20,292,,21,30,309,,29,32,243,,30,22,077,,7*7E
$GQGSV,1,1,03,-190,63,045,24,-189,56,120,34,-188,18,168,30,1*42
$GBGSV,3,1,12,03,56,202,31,04,36,119,28,12,62,210,28,16,80,181,29,1*75
$GBGSV,3,2,12,26,60,091,30,01,49,135,,02,37,237,,06,82,265,,1*7B
$GBGSV,3,3,12,07,62,289,,09,68,312,,10,52,274,,24,53,336,,1*73
$GNGSA,A,3,01,02,04,,,,,,,,,,2.1,1.8,0.9,1*35
$GNGSA,A,3,07,13,,,,,,,,,,,2.1,1.8,0.9,3*35
$GNGSA,A,3,12,16,,,,,,,,,,,2.1,1.8,0.9,4*33
$GNGSA,A,3,02,03,04,,,,,,,,,,2.1,1.8,0.9,5*33
$GNVTG,,T,,M,0.0,N,0.0,K,A*3D
$GNDTM,P90,,0000.000020,S,00000.000001,W,0.991,W84*4E
$GNRMC,014230.00,A,2504.841507,N,12114.282603,E,0.0,,300325,3.2,W,A,V*69
$GNGNS,014230.00,2504.841507,N,12114.282603,E,ANAAA,10,1.8,39.4,16.4,,,V*5B
$GNGGA,014230.00,2504.841507,N,12114.282603,E,1,10,1.8,39.4,M,16.4,M,,*45
$GPGSV,3,1,10,01,30,177,31,02,57,154,32,04,21,208,26,07,42,316,,1*6B
$GPGSV,3,2,10,08,63,347,,09,23,243,,16,26,074,,26,10,095,,1*6D
$GPGSV,3,3,10,27,35,033,,30,09,319,,1*67
$GLGSV,1,1,03,84,59,187,20,73,54,021,,83,47,033,,1*49
$GAGSV,2,1,07,07,15,188,28,13,41,161,29,15,47,080,20,19,20,292,,7*7B
$GAGSV,2,2,07,21,30,309,,29,32,243,,30,22,077,,7*42
$GQGSV,1,1,03,-190,63,045,25,-189,56,120,32,-188,18,168,26,1*42
$GBGSV,3,1,12,03,56,202,31,04,36,119,30,12,62,210,26,16,80,181,25,1*7E
$GBGSV,3,2,12,26,60,091,31,01,49,135,,02,37,237,,06,82,265,,1*7A
$GBGSV,3,3,12,07,62,289,,09,68,312,,10,52,274,,24,53,336,,1*73
$GNGSA,A,3,01,02,04,,,,,,,,,,1.7,1.5,0.9,1*3D
$GNGSA,A,3,07,13,,,,,,,,,,,1.7,1.5,0.9,3*3D
$GNGSA,A,3,03,04,12,16,,,,,,,,,1.7,1.5,0.9,4*3C
$GNGSA,A,3,02,03,04,,,,,,,,,,1.7,1.5,0.9,5*3B
$GNVTG,,T,,M,0.0,N,0.0,K,A*3D
$GNDTM,P90,,0000.000020,S,00000.000001,W,0.991,W84*4E
$GNRMC,014231.00,A,2504.841447,N,12114.282408,E,0.0,,300325,3.2,W,A,V*64
$GNGNS,014231.00,2504.841447,N,12114.282408,E,ANAAA,12,1.5,39.9,16.4,,,V*54
$GNGGA,014231.00,2504.841447,N,12114.282408,E,1,12,1.5,39.9,M,16.4,M,,*4A
$GPGSV,3,1,10,01,30,177,32,02,57,154,34,04,21,208,26,07,42,316,,1*6E
$GPGSV,3,2,10,08,63,347,,09,23,243,,16,26,074,,26,10,095,,1*6D
$GPGSV,3,3,10,27,35,033,,30,09,319,,1*67
$GLGSV,1,1,03,84,59,187,20,73,54,021,,83,47,033,,1*49
$GAGSV,2,1,08,07,15,188,32,13,41,161,26,15,47,080,20,19,20,292,,7*70
$GAGSV,2,2,08,21,30,309,,27,52,019,,29,32,243,,30,22,077,,7*77
$GQGSV,1,1,03,-190,63,045,32,-189,56,120,37,-188,18,168,23,1*44
$GBGSV,3,1,12,01,49,135,31,03,56,202,31,04,36,119,30,12,62,210,34,1*74
$GBGSV,3,2,12,16,80,181,27,26,60,091,29,02,37,237,,06,82,265,,1*7A
$GBGSV,3,3,12,07,62,289,,09,68,312,,10,52,274,,24,53,336,,1*73
$GNGSA,A,3,01,02,04,,,,,,,,,,1.7,1.5,0.9,1*3D
$GNGSA,A,3,07,13,,,,,,,,,,,1.7,1.5,0.9,3*3D
$GNGSA,A,3,03,04,12,16,,,,,,,,,1.7,1.5,0.9,4*3C
$GNGSA,A,3,02,03,04,,,,,,,,,,1.7,1.5,0.9,5*3B
$GNVTG,,T,,M,0.0,N,0.0,K,A*3D
$GNDTM,P90,,0000.000020,S,00000.000001,W,0.991,W84*4E
$GNRMC,014232.00,A,2504.841282,N,12114.282492,E,0.0,,300325,3.2,W,A,V*6B
$GNGNS,014232.00,2504.841282,N,12114.282492,E,ANAAA,12,1.5,39.8,16.4,,,V*5A
$GNGGA,014232.00,2504.841282,N,12114.282492,E,1,12,1.5,39.8,M,16.4,M,,*44
$GPGSV,3,1,10,01,30,177,34,02,57,154,32,04,21,208,28,07,42,316,,1*60
$GPGSV,3,2,10,08,63,347,,09,23,243,,16,26,074,,26,10,095,,1*6D
$GPGSV,3,3,10,27,35,033,,30,09,319,,1*67
$GLGSV,1,1,03,84,59,187,20,73,54,021,,83,47,033,,1*49
$GAGSV,2,1,08,07,15,188,35,13,41,161,32,15,47,080,20,19,20,292,,7*72
$GAGSV,2,2,08,21,30,309,,27,52,019,,29,32,243,,30,22,077,,7*77
$GQGSV,1,1,03,-190,63,045,26,-189,56,120,34,-188,18,168,26,1*47
$GBGSV,3,1,12,01,49,135,31,03,56,202,31,04,36,119,30,12,62,210,34,1*74
$GBGSV,3,2,12,16,80,181,29,26,60,091,28,02,37,237,,06,82,265,,1*75
$GBGSV,3,3,12,07,62,289,,09,68,312,,10,52,274,,24,53,336,,1*73
$GNGSA,A,3,01,02,04,,,,,,,,,,1.7,1.5,0.9,1*3D
$GNGSA,A,3,07,13,,,,,,,,,,,1.7,1.5,0.9,3*3D
$GNGSA,A,3,03,04,12,16,,,,,,,,,1.7,1.5,0.9,4*3C
$GNGSA,A,3,02,03,04,,,,,,,,,,1.7,1.5,0.9,5*3B
$GNVTG,,T,,M,0.0,N,0.0,K,A*3D
$GNDTM,P90,,0000.000020,S,00000.000001,W,0.991,W84*4E
$GNRMC,014233.00,A,2504.841033,N,12114.282450,E,0.0,,300325,3.2,W,A,V*6C
$GNGNS,014233.00,2504.841033,N,12114.282450,E,ANAAA,12,1.5,40.0,16.4,,,V*5B
$GNGGA,014233.00,2504.841033,N,12114.282450,E,1,12,1.5,40.0,M,16.4,M,,*45
$GPGSV,3,1,10,01,30,177,34,02,57,154,29,04,21,208,29,07,42,316,,1*6B
$GPGSV,3,2,10,08,63,347,,09,23,243,,16,26,074,,26,10,095,,1*6D
$GPGSV,3,3,10,27,35,033,,30,09,319,,1*67
$GLGSV,1,1,03,84,59,187,16,73,54,021,,83,47,033,,1*4C
$GAGSV,2,1,08,07,15,188,34,13,41,161,32,15,47,080,20,19,20,292,,7*73
$GAGSV,2,2,08,21,30,309,,27,52,019,,29,32,243,,30,22,077,,7*77
$GQGSV,1,1,03,-190,63,045,25,-189,56,120,32,-188,18,168,23,1*47
$GBGSV,3,1,12,01,49,135,32,03,56,202,30,04,36,119,29,12,62,210,35,1*7F
$GBGSV,3,2,12,16,80,181,29,26,60,091,27,02,37,237,,06,82,265,,1*7A
$GBGSV,3,3,12,07,62,289,,09,68,312,,10,52,274,,24,53,336,,1*73
$GNGSA,A,3,01,02,04,,,,,,,,,,1.7,1.5,0.9,1*3D
$GNGSA,A,3,84,,,,,,,,,,,,1.7,1.5,0.9,2*35
$GNGSA,A,3,07,13,,,,,,,,,,,1.7,1.5,0.9,3*3D
$GNGSA,A,3,03,04,12,16,,,,,,,,,1.7,1.5,0.9,4*3C
$GNGSA,A,3,02,03,04,,,,,,,,,,1.7,1.5,0.9,5*3B
$GNVTG,,T,,M,0.0,N,0.0,K,A*3D
$GNDTM,P90,,0000.000020,S,00000.000001,W,0.991,W84*4E
$GNRMC,014234.00,A,2504.840873,N,12114.282348,E,0.0,,300325,3.2,W,A,V*68
$GNGNS,014234.00,2504.840873,N,12114.282348,E,AAAAA,13,1.5,40.3,16.4,,,V*52
$GNGGA,014234.00,2504.840873,N,12114.282348,E,1,12,1.5,40.3,M,16.4,M,,*42
$GPGSV,3,1,10,01,30,177,35,02,57,154,31,04,21,208,29,07,42,316,,1*63
$GPGSV,3,2,10,08,63,347,,09,23,243,,16,26,074,,26,10,095,,1*6D
$GPGSV,3,3,10,27,35,033,,30,09,319,,1*67
$GLGSV,1,1,03,84,59,187,16,73,54,021,,83,47,033,,1*4C
$GAGSV,2,1,08,07,15,188,35,13,41,161,34,15,47,080,20,19,20,292,,7*74
$GAGSV,2,2,08,21,30,309,,27,52,019,,29,32,243,,30,22,077,,7*77
$GQGSV,1,1,03,-190,63,045,26,-189,56,120,34,-188,18,168,24,1*45
$GBGSV,3,1,12,01,49,135,32,03,56,202,30,04,36,119,29,12,62,210,35,1*7F
$GBGSV,3,2,12,16,80,181,29,26,60,091,24,02,37,237,,06,82,265,,1*79
$GBGSV,3,3,12,07,62,289,,09,68,312,,10,52,274,,24,53,336,,1*73
$GNGSA,A,3,01,02,04,,,,,,,,,,1.7,1.5,0.9,1*3D
$GNGSA,A,3,84,,,,,,,,,,,,1.7,1.5,0.9,2*35
$GNGSA,A,3,07,13,,,,,,,,,,,1.7,1.5,0.9,3*3D
$GNGSA,A,3,03,04,12,16,,,,,,,,,1.7,1.5,0.9,4*3C
$GNGSA,A,3,02,03,04,,,,,,,,,,1.7,1.5,0.9,5*3B
$GNVTG,,T,,M,0.0,N,0.0,K,A*3D
$GNDTM,P90,,0000.000020,S,00000.000001,W,0.991,W84*4E
$GNRMC,014235.00,A,2504.840821,N,12114.282246,E,0.0,,300325,3.2,W,A,V*61
$GNGNS,014235.00,2504.840821,N,12114.282246,E,AAAAA,13,1.5,40.7,16.4,,,V*5F
$GNGGA,014235.00,2504.840821,N,12114.282246,E,1,12,1.5,40.7,M,16.4,M,,*4F
$GPGSV,3,1,10,01,30,177,35,02,57,154,30,04,21,208,30,16,26,074,21,1*6C
$GPGSV,3,2,10,07,42,316,,08,63,347,,09,23,243,,26,10,095,,1*68
$GPGSV,3,3,10,27,35,033,,30,09,319,,1*67
$GLGSV,1,1,03,84,59,187,16,73,54,021,,83,47,033,,1*4C
$GAGSV,2,1,08,07,15,188,35,13,41,161,31,15,47,080,,19,20,292,,7*73
$GAGSV,2,2,08,21,30,309,,27,52,019,,29,32,243,,30,22,077,,7*77
$GQGSV,1,1,03,-190,63,045,27,-189,56,120,33,-188,18,168,25,1*42
$GBGSV,3,1,12,01,49,135,33,03,56,202,30,04,36,119,29,12,62,210,34,1*7F
$GBGSV,3,2,12,16,80,181,26,26,60,091,24,02,37,237,,06,82,265,,1*76
$GBGSV,3,3,12,07,62,289,,09,68,312,,10,52,274,,24,53,336,,1*73
$GNGSA,A,3,01,02,04,16,,,,,,,,,1.6,1.4,0.8,1*3B
$GNGSA,A,3,84,,,,,,,,,,,,1.6,1.4,0.8,2*34
$GNGSA,A,3,07,13,,,,,,,,,,,1.6,1.4,0.8,3*3C
$GNGSA,A,3,03,04,12,16,,,,,,,,,1.6,1.4,0.8,4*3D
$GNGSA,A,3,02,03,04,,,,,,,,,,1.6,1.4,0.8,5*3A
$GNVTG,,T,,M,0.0,N,0.0,K,A*3D
$GNDTM,P90,,0000.000020,S,00000.000001,W,0.991,W84*4E
$GNRMC,014236.00,A,2504.840703,N,12114.282084,E,0.0,,300325,3.2,W,A,V*61
$GNGNS,014236.00,2504.840703,N,12114.282084,E,AAAAA,14,1.4,41.3,16.4,,,V*5C
$GNGGA,014236.00,2504.840703,N,12114.282084,E,1,12,1.4,41.3,M,16.4,M,,*4B
$GPGSV,3,1,10,01,30,177,35,02,57,154,30,04,21,208,31,16,26,074,21,1*6D
$GPGSV,3,2,10,07,42,316,,08,63,347,,09,23,243,,26,10,095,,1*68
$GPGSV,3,3,10,27,35,033,,30,09,319,,1*67
$GLGSV,1,1,03,84,59,187,19,73,54,021,,83,47,033,,1*43
$GAGSV,2,1,08,07,15,188,34,13,41,161,30,15,47,080,,19,20,292,,7*73
$GAGSV,2,2,08,21,30,309,,27,52,019,,29,32,243,,30,22,077,,7*77
$GQGSV,1,1,03,-190,63,045,26,-189,56,120,33,-188,18,168,24,1*42
$GBGSV,3,1,12,01,49,135,33,03,56,202,31,04,36,119,30,12,62,210,33,1*71
$GBGSV,3,2,12,16,80,181,27,26,60,091,27,02,37,237,,06,82,265,,1*74
$GBGSV,3,3,12,07,62,289,,09,68,312,,10,52,274,,24,53,336,,1*73
$GNGSA,A,3,01,02,04,16,,,,,,,,,1.6,1.4,0.8,1*3B
$GNGSA,A,3,84,,,,,,,,,,,,1.6,1.4,0.8,2*34
$GNGSA,A,3,07,13,,,,,,,,,,,1.6,1.4,0.8,3*3C
$GNGSA,A,3,03,04,12,16,,,,,,,,,1.6,1.4,0.8,4*3D
$GNGSA,A,3,02,03,04,,,,,,,,,,1.6,1.4,0.8,5*3A
$GNVTG,,T,,M,0.0,N,0.0,K,A*3D
$GNDTM,P90,,0000.000020,S,00000.000001,W,0.991,W84*4E
$GNRMC,014237.00,A,2504.840864,N,12114.281854,E,0.0,,300325,3.2,W,A,V*68
$GNGNS,014237.00,2504.840864,N,12114.281854,E,AAAAA,14,1.4,41.6,16.4,,,V*50
$GNGGA,014237.00,2504.840864,N,12114.281854,E,1,12,1.4,41.6,M,16.4,M,,*47
$GPGSV,3,1,10,01,30,177,34,02,57,154,31,04,21,208,30,16,26,074,21,1*6C
$GPGSV,3,2,10,07,42,316,,08,63,347,,09,23,243,,26,10,095,,1*68
$GPGSV,3,3,10,27,35,033,,30,09,319,,1*67
$GLGSV,1,1,03,84,59,187,22,73,54,021,,83,47,033,,1*4B
$GAGSV,2,1,08,07,15,188,35,13,41,161,33,15,47,080,,19,20,292,,7*71
$GAGSV,2,2,08,21,30,309,,27,52,019,,29,32,243,,30,22,077,,7*77
$GQGSV,1,1,03,-190,63,045,26,-189,56,120,34,-188,18,168,22,1*43
$GBGSV,3,1,12,01,49,135,32,03,56,202,31,04,36,119,30,12,62,210,34,1*77
$GBGSV,3,2,12,16,80,181,29,26,60,091,23,02,37,237,,06,82,265,,1*7E
$GBGSV,3,3,12,07,62,289,,09,68,312,,10,52,274,,24,53,336,,1*73
$GNGSA,A,3,01,02,04,16,,,,,,,,,1.6,1.4,0.8,1*3B
$GNGSA,A,3,84,,,,,,,,,,,,1.6,1.4,0.8,2*34
$GNGSA,A,3,07,13,,,,,,,,,,,1.6,1.4,0.8,3*3C
$GNGSA,A,3,03,04,12,16,,,,,,,,,1.6,1.4,0.8,4*3D
$GNGSA,A,3,02,03,04,,,,,,,,,,1.6,1.4,0.8,5*3A
$GNVTG,,T,,M,0.0,N,0.0,K,A*3D
$GNDTM,P90,,0000.000020,S,00000.000001,W,0.991,W84*4E
$GNRMC,014238.00,A,2504.840856,N,12114.281698,E,0.0,,300325,3.2,W,A,V*68
$GNGNS,014238.00,2504.840856,N,12114.281698,E,AAAAA,14,1.4,42.1,16.4,,,V*54
$GNGGA,014238.00,2504.840856,N,12114.281698,E,1,12,1.4,42.1,M,16.4,M,,*43
$GPGSV,3,1,10,01,30,177,34,02,57,154,32,04,21,208,28,16,26,074,20,1*67
$GPGSV,3,2,10,07,42,316,,08,63,347,,09,23,243,,26,10,095,,1*68
$GPGSV,3,3,10,27,35,033,,30,09,319,,1*67
$GLGSV,1,1,03,84,59,187,22,73,54,021,,83,47,033,,1*4B
$GAGSV,2,1,08,07,15,188,35,13,41,161,33,15,47,080,,19,20,292,,7*71
$GAGSV,2,2,08,21,30,309,,27,52,019,,29,32,243,,30,22,077,,7*77
$GQGSV,1,1,03,-190,63,045,26,-189,56,120,34,-188,18,168,22,1*43
$GBGSV,3,1,12,01,49,135,32,03,56,202,31,04,36,119,30,12,62,210,34,1*77
$GBGSV,3,2,12,16,80,181,30,26,60,091,27,02,37,237,,06,82,265,,1*72
$GBGSV,3,3,12,07,62,289,,09,68,312,,10,52,274,,24,53,336,,1*73
$GNGSA,A,3,01,02,04,16,,,,,,,,,1.6,1.4,0.8,1*3B
$GNGSA,A,3,84,,,,,,,,,,,,1.6,1.4,0.8,2*34
$GNGSA,A,3,07,13,,,,,,,,,,,1.6,1.4,0.8,3*3C
$GNGSA,A,3,03,04,12,16,,,,,,,,,1.6,1.4,0.8,4*3D
$GNGSA,A,3,02,03,04,,,,,,,,,,1.6,1.4,0.8,5*3A
$GNVTG,,T,,M,0.0,N,0.0,K,A*3D
$GNDTM,P90,,0000.000020,S,00000.000001,W,0.991,W84*4E
$GNRMC,014239.00,A,2504.840882,N,12114.281650,E,0.0,,300325,3.2,W,A,V*64
$GNGNS,014239.00,2504.840882,N,12114.281650,E,AAAAA,14,1.4,42.3,16.4,,,V*5A
$GNGGA,014239.00,2504.840882,N,12114.281650,E,1,12,1.4,42.3,M,16.4,M,,*4D
$GPGSV,3,1,10,01,30,177,33,02,57,154,32,04,21,208,27,16,26,074,22,1*6D
$GPGSV,3,2,10,07,42,316,,08,63,347,,09,23,243,,26,10,095,,1*68
$GPGSV,3,3,10,27,35,033,,30,09,319,,1*67
$GLGSV,1,1,03,84,59,187,22,73,54,021,,83,47,033,,1*4B
$GAGSV,2,1,08,07,15,188,35,13,41,161,31,15,47,080,24,19,20,292,,7*75
$GAGSV,2,2,08,21,30,309,,27,52,019,,29,32,243,,30,22,077,,7*77
$GQGSV,1,1,03,-190,63,045,25,-189,56,120,34,-188,18,168,24,1*46
$GBGSV,3,1,12,01,49,135,32,03,56,202,29,04,36,119,28,12,62,210,36,1*75
$GBGSV,3,2,12,16,80,181,33,26,60,091,28,02,37,237,,06,82,265,,1*7E
$GBGSV,3,3,12,07,62,289,,09,68,312,,10,52,274,,24,53,336,,1*73
$GNGSA,A,3,01,02,04,16,,,,,,,,,1.6,1.3,0.8,1*3C
$GNGSA,A,3,84,,,,,,,,,,,,1.6,1.3,0.8,2*33
$GNGSA,A,3,07,13,15,,,,,,,,,,1.6,1.3,0.8,3*3F
$GNGSA,A,3,03,04,12,16,,,,,,,,,1.6,1.3,0.8,4*3A
$GNGSA,A,3,02,03,04,,,,,,,,,,1.6,1.3,0.8,5*3D
$GNVTG,,T,,M,0.0,N,0.0,K,A*3D
$GNDTM,P90,,0000.000020,S,00000.000001,W,0.991,W84*4E
$GNRMC,014240.00,A,2504.840862,N,12114.281616,E,0.0,,300325,3.2,W,A,V*66
$GNGNS,014240.00,2504.840862,N,12114.281616,E,AAAAA,15,1.3,42.5,16.4,,,V*58
$GNGGA,014240.00,2504.840862,N,12114.281616,E,1,12,1.3,42.5,M,16.4,M,,*4E
$GPGSV,3,1,10,01,30,177,33,02,57,154,30,04,21,208,26,16,26,074,21,1*6D
$GPGSV,3,2,10,07,42,316,,08,63,347,,09,23,243,,26,10,095,,1*68
$GPGSV,3,3,10,27,35,033,,30,09,319,,1*67
$GLGSV,1,1,03,84,59,187,24,73,54,021,,83,47,033,,1*4D
$GAGSV,2,1,08,07,15,188,34,13,41,161,29,15,47,080,24,19,20,292,,7*7D
$GAGSV,2,2,08,21,30,309,,27,52,019,,29,32,243,,30,22,077,,7*77
$GQGSV,1,1,03,-190,63,045,26,-189,56,120,34,-188,18,168,24,1*45
$GBGSV,3,1,12,01,49,135,31,03,56,202,29,04,36,119,28,12,62,210,34,1*74
$GBGSV,3,2,12,16,80,181,32,26,60,091,29,02,37,237,,06,82,265,,1*7E
$GBGSV,3,3,12,07,62,289,,09,68,312,,10,52,274,,24,53,336,,1*73
$GNGSA,A,3,01,02,04,16,,,,,,,,,1.6,1.3,0.8,1*3C
$GNGSA,A,3,84,,,,,,,,,,,,1.6,1.3,0.8,2*33
$GNGSA,A,3,07,13,15,,,,,,,,,,1.6,1.3,0.8,3*3F
$GNGSA,A,3,03,04,12,16,,,,,,,,,1.6,1.3,0.8,4*3A
$GNGSA,A,3,02,03,04,,,,,,,,,,1.6,1.3,0.8,5*3D
$GNVTG,,T,,M,0.0,N,0.0,K,A*3D
$GNDTM,P90,,0000.000020,S,00000.000001,W,0.991,W84*4E
$GNRMC,014241.00,A,2504.840855,N,12114.281610,E,0.0,,300325,3.2,W,A,V*65
$GNGNS,014241.00,2504.840855,N,12114.281610,E,AAAAA,15,1.3,42.4,16.4,,,V*5A
$GNGGA,014241.00,2504.840855,N,12114.281610,E,1,12,1.3,42.4,M,16.4,M,,*4C
$GPGSV,3,1,10,01,30,177,34,02,57,154,26,04,21,208,28,09,23,243,16,1*6A
$GPGSV,3,2,10,16,26,074,21,07,42,316,,08,63,347,,26,10,095,,1*66
$GPGSV,3,3,10,27,35,033,,30,09,319,,1*67
$GLGSV,1,1,03,84,59,187,24,73,54,021,,83,47,033,,1*4D
$GAGSV,2,1,08,07,15,188,34,13,41,161,30,15,47,080,23,19,20,292,,7*72
$GAGSV,2,2,08,21,30,309,,27,52,019,,29,32,243,,30,22,077,,7*77
$GQGSV,1,1,03,-190,63,045,29,-189,56,120,34,-188,18,168,26,1*48
$GBGSV,3,1,12,01,49,135,31,03,56,202,29,04,36,119,28,12,62,210,35,1*75
$GBGSV,3,2,12,16,80,181,30,26,60,091,28,02,37,237,,06,82,265,,1*7D
$GBGSV,3,3,12,07,62,289,,09,68,312,,10,52,274,,24,53,336,,1*73
$GNGSA,A,3,01,02,04,09,16,,,,,,,,1.3,1.1,0.8,1*32
$GNGSA,A,3,84,,,,,,,,,,,,1.3,1.1,0.8,2*34
$GNGSA,A,3,07,13,15,,,,,,,,,,1.3,1.1,0.8,3*38
$GNGSA,A,3,03,04,12,16,,,,,,,,,1.3,1.1,0.8,4*3D
$GNGSA,A,3,02,03,04,,,,,,,,,,1.3,1.1,0.8,5*3A
$GNVTG,,T,,M,0.0,N,0.0,K,A*3D
$GNDTM,P90,,0000.000020,S,00000.000001,W,0.991,W84*4E
$GNRMC,014242.00,A,2504.840856,N,12114.281619,E,0.0,,300325,3.2,W,A,V*6C
$GNGNS,014242.00,2504.840856,N,12114.281619,E,AAAAA,16,1.1,42.4,16.4,,,V*52
$GNGGA,014242.00,2504.840856,N,12114.281619,E,1,12,1.1,42.4,M,16.4,M,,*47
$GPGSV,3,1,10,01,30,177,34,02,57,154,27,04,21,208,28,09,23,243,16,1*6B
$GPGSV,3,2,10,16,26,074,21,07,42,316,,08,63,347,,26,10,095,,1*66
$GPGSV,3,3,10,27,35,033,,30,09,319,,1*67
$GLGSV,1,1,03,84,59,187,23,73,54,021,,83,47,033,,1*4A
$GAGSV,2,1,08,07,15,188,35,13,41,161,31,15,47,080,25,19,20,292,,7*74
$GAGSV,2,2,08,21,30,309,,27,52,019,,29,32,243,,30,22,077,,7*77
$GQGSV,1,1,03,-190,63,045,28,-189,56,120,34,-188,18,168,26,1*49
$GBGSV,3,1,12,01,49,135,31,03,56,202,30,04,36,119,29,12,62,210,36,1*7F
$GBGSV,3,2,12,16,80,181,32,26,60,091,26,02,37,237,,06,82,265,,1*71
$GBGSV,3,3,12,07,62,289,,09,68,312,,10,52,274,,24,53,336,,1*73
$GNGSA,A,3,01,02,04,09,16,,,,,,,,1.3,1.1,0.8,1*32
$GNGSA,A,3,84,,,,,,,,,,,,1.3,1.1,0.8,2*34
$GNGSA,A,3,07,13,15,,,,,,,,,,1.3,1.1,0.8,3*38
$GNGSA,A,3,03,04,12,16,,,,,,,,,1.3,1.1,0.8,4*3D
$GNGSA,A,3,02,03,04,,,,,,,,,,1.3,1.1,0.8,5*3A
$GNVTG,,T,,M,0.0,N,0.0,K,A*3D
$GNDTM,P90,,0000.000020,S,00000.000001,W,0.991,W84*4E
$GNRMC,014243.00,A,2504.840839,N,12114.281571,E,0.0,,300325,3.2,W,A,V*69
$GNGNS,014243.00,2504.840839,N,12114.281571,E,AAAAA,16,1.1,42.7,16.4,,,V*54
$GNGGA,014243.00,2504.840839,N,12114.281571,E,1,12,1.1,42.7,M,16.4,M,,*41
$GPGSV,3,1,10,01,30,177,31,02,57,154,33,04,21,208,27,09,23,243,16,1*64
$GPGSV,3,2,10,16,26,074,21,07,42,316,,08,63,347,,26,10,095,,1*66
$GPGSV,3,3,10,27,35,033,,30,09,319,,1*67
$GLGSV,1,1,03,84,59,187,23,73,54,021,,83,47,033,,1*4A
$GAGSV,2,1,08,07,15,188,34,13,41,161,30,15,47,080,24,19,20,292,,7*75
$GAGSV,2,2,08,21,30,309,,27,52,019,,29,32,243,,30,22,077,,7*77
$GQGSV,1,1,03,-190,63,045,25,-189,56,120,34,-188,18,168,25,1*47
$GBGSV,3,1,12,01,49,135,31,03,56,202,30,04,36,119,29,12,62,210,35,1*7C
$GBGSV,3,2,12,16,80,181,33,26,60,091,27,02,37,237,,06,82,265,,1*71
$GBGSV,3,3,12,07,62,289,,09,68,312,,10,52,274,,24,53,336,,1*73
$GNGSA,A,3,01,02,04,09,16,,,,,,,,1.3,1.1,0.8,1*32
$GNGSA,A,3,84,,,,,,,,,,,,1.3,1.1,0.8,2*34
$GNGSA,A,3,07,13,15,,,,,,,,,,1.3,1.1,0.8,3*38
$GNGSA,A,3,03,04,12,16,,,,,,,,,1.3,1.1,0.8,4*3D
$GNGSA,A,3,02,03,04,,,,,,,,,,1.3,1.1,0.8,5*3A
$GNVTG,,T,,M,0.0,N,0.0,K,A*3D
$GNDTM,P90,,0000.000020,S,00000.000001,W,0.991,W84*4E
$GNRMC,014244.00,A,2504.840788,N,12114.281532,E,0.0,,300325,3.2,W,A,V*6C
$GNGNS,014244.00,2504.840788,N,12114.281532,E,AAAAA,16,1.1,42.8,16.4,,,V*5E
$GNGGA,014244.00,2504.840788,N,12114.281532,E,1,12,1.1,42.8,M,16.4,M,,*4B
$GPGSV,3,1,10,01,30,177,29,02,57,154,32,04,21,208,27,09,23,243,19,1*63
$GPGSV,3,2,10,16,26,074,20,07,42,316,,08,63,347,,26,10,095,,1*67
$GPGSV,3,3,10,27,35,033,,30,09,319,,1*67
$GLGSV,1,1,03,84,59,187,22,73,54,021,,83,47,033,,1*4B
$GAGSV,2,1,08,07,15,188,35,13,41,161,30,15,47,080,24,19,20,292,,7*74
$GAGSV,2,2,08,21,30,309,,27,52,019,,29,32,243,,30,22,077,,7*77
$GQGSV,1,1,03,-190,63,045,29,-189,56,120,35,-188,18,168,20,1*4F
$GBGSV,3,1,12,01,49,135,31,03,56,202,30,04,36,119,29,12,62,210,31,1*78
$GBGSV,3,2,12,16,80,181,30,26,60,091,31,02,37,237,,06,82,265,,1*75
$GBGSV,3,3,12,07,62,289,,09,68,312,,10,52,274,,24,53,336,,1*73
$GNGSA,A,3,01,02,04,09,16,,,,,,,,1.3,1.1,0.8,1*32
$GNGSA,A,3,84,,,,,,,,,,,,1.3,1.1,0.8,2*34
$GNGSA,A,3,07,13,15,,,,,,,,,,1.3,1.1,0.8,3*38
$GNGSA,A,3,03,04,12,16,,,,,,,,,1.3,1.1,0.8,4*3D
$GNGSA,A,3,02,03,04,,,,,,,,,,1.3,1.1,0.8,5*3A
$GNVTG,,T,,M,0.0,N,0.0,K,A*3D
$GNDTM,P90,,0000.000020,S,00000.000001,W,0.991,W84*4E
$GNRMC,014245.00,A,2504.840703,N,12114.281520,E,0.0,,300325,3.2,W,A,V*6D
$GNGNS,014245.00,2504.840703,N,12114.281520,E,AAAAA,16,1.1,43.0,16.4,,,V*56
$GNGGA,014245.00,2504.840703,N,12114.281520,E,1,12,1.1,43.0,M,16.4,M,,*43
$GPGSV,3,1,10,01,30,177,33,02,57,154,29,04,21,208,28,09,23,243,19,1*6D
$GPGSV,3,2,10,16,26,074,20,07,42,316,,08,63,347,,26,10,095,,1*67
$GPGSV,3,3,10,27,35,033,,30,09,319,,1*67
$GLGSV,1,1,03,84,59,187,22,73,54,021,,83,47,033,,1*4B
$GAGSV,2,1,08,07,15,188,35,13,41,161,33,15,47,080,24,19,20,292,,7*77
$GAGSV,2,2,08,21,30,309,,27,52,019,,29,32,243,,30,22,077,,7*77
$GQGSV,1,1,03,-190,63,045,26,-189,56,120,35,-188,18,168,20,1*40
$GBGSV,3,1,12,01,49,135,33,03,56,202,30,04,36,119,28,10,52,274,18,1*73
$GBGSV,3,2,12,12,62,210,31,16,80,181,31,26,60,091,29,02,37,237,,1*76
$GBGSV,3,3,12,06,82,265,,07,62,289,,09,68,312,,24,53,336,,1*79
$GNGSA,A,3,01,02,04,09,16,,,,,,,,1.2,0.9,0.8,1*3A
$GNGSA,A,3,84,,,,,,,,,,,,1.2,0.9,0.8,2*3C
$GNGSA,A,3,07,13,15,,,,,,,,,,1.2,0.9,0.8,3*30
$GNGSA,A,3,03,04,10,12,16,,,,,,,,1.2,0.9,0.8,4*34
$GNGSA,A,3,02,03,04,,,,,,,,,,1.2,0.9,0.8,5*32
$GNVTG,,T,,M,0.0,N,0.0,K,A*3D
$GNDTM,P90,,0000.000020,S,00000.000001,W,0.991,W84*4E
$GNRMC,014246.00,A,2504.840677,N,12114.281477,E,0.0,,300325,3.2,W,A,V*6F
$GNGNS,014246.00,2504.840677,N,12114.281477,E,AAAAA,17,0.9,43.1,16.4,,,V*5D
$GNGGA,014246.00,2504.840677,N,12114.281477,E,1,12,0.9,43.1,M,16.4,M,,*49
$GPGSV,3,1,10,01,30,177,28,02,57,154,31,04,21,208,27,09,23,243,19,1*61
$GPGSV,3,2,10,16,26,074,20,07,42,316,,08,63,347,,26,10,095,,1*67
$GPGSV,3,3,10,27,35,033,,30,09,319,,1*67
$GLGSV,1,1,03,84,59,187,22,73,54,021,,83,47,033,,1*4B
$GAGSV,2,1,08,07,15,188,35,13,41,161,32,15,47,080,22,19,20,292,,7*70
$GAGSV,2,2,08,21,30,309,,27,52,019,,29,32,243,,30,22,077,,7*77
$GQGSV,1,1,03,-190,63,045,25,-189,56,120,35,-188,18,168,20,1*43
$GBGSV,3,1,12,01,49,135,34,03,56,202,30,04,36,119,28,10,52,274,18,1*74
$GBGSV,3,2,12,12,62,210,33,16,80,181,30,26,60,091,27,02,37,237,,1*7B
$GBGSV,3,3,12,06,82,265,,07,62,289,,09,68,312,,24,53,336,,1*79
$GNGSA,A,3,01,02,04,09,16,,,,,,,,1.2,0.9,0.8,1*3A
$GNGSA,A,3,84,,,,,,,,,,,,1.2,0.9,0.8,2*3C
$GNGSA,A,3,07,13,15,,,,,,,,,,1.2,0.9,0.8,3*30
$GNGSA,A,3,03,04,10,12,16,,,,,,,,1.2,0.9,0.8,4*34
$GNGSA,A,3,02,03,04,,,,,,,,,,1.2,0.9,0.8,5*32
$GNVTG,,T,,M,0.0,N,0.0,K,A*3D
$GNDTM,P90,,0000.000020,S,00000.000001,W,0.991,W84*4E
$GNRMC,014247.00,A,2504.840665,N,12114.281464,E,0.0,,300325,3.2,W,A,V*6F
$GNGNS,014247.00,2504.840665,N,12114.281464,E,AAAAA,17,0.9,43.1,16.4,,,V*5D
$GNGGA,014247.00,2504.840665,N,12114.281464,E,1,12,0.9,43.1,M,16.4,M,,*49
$GPGSV,3,1,10,01,30,177,31,02,57,154,33,04,21,208,29,09,23,243,19,1*65
$GPGSV,3,2,10,16,26,074,18,07,42,316,,08,63,347,,26,10,095,,1*6C
$GPGSV,3,3,10,27,35,033,,30,09,319,,1*67
$GLGSV,1,1,03,84,59,187,21,73,54,021,,83,47,033,,1*48
$GAGSV,2,1,08,07,15,188,34,13,41,161,32,15,47,080,24,19,20,292,,7*77
$GAGSV,2,2,08,21,30,309,,27,52,019,,29,32,243,,30,22,077,,7*77
$GQGSV,1,1,03,-190,63,045,26,-189,56,120,34,-188,18,168,20,1*41
$GBGSV,3,1,12,01,49,135,34,03,56,202,30,04,36,119,28,10,52,274,18,1*74
$GBGSV,3,2,12,12,62,210,35,16,80,181,33,26,60,091,24,02,37,237,,1*7D
$GBGSV,3,3,12,06,82,265,,07,62,289,,09,68,312,,24,53,336,,1*79
$GNGSA,A,3,01,02,04,09,16,,,,,,,,1.2,0.9,0.8,1*3A
$GNGSA,A,3,84,,,,,,,,,,,,1.2,0.9,0.8,2*3C
$GNGSA,A,3,07,13,15,,,,,,,,,,1.2,0.9,0.8,3*30
$GNGSA,A,3,03,04,10,12,16,,,,,,,,1.2,0.9,0.8,4*34
$GNGSA,A,3,02,03,04,,,,,,,,,,1.2,0.9,0.8,5*32
$GNVTG,,T,,M,0.0,N,0.0,K,A*3D
$GNDTM,P90,,0000.000020,S,00000.000001,W,0.991,W84*4E
$GNRMC,014248.00,A,2504.840620,N,12114.281482,E,0.0,,300325,3.2,W,A,V*69
$GNGNS,014248.00,2504.840620,N,12114.281482,E,AAAAA,17,0.9,43.3,16.4,,,V*59
$GNGGA,014248.00,2504.840620,N,12114.281482,E,1,12,0.9,43.3,M,16.4,M,,*4D
$GPGSV,3,1,10,01,30,177,34,02,57,154,34,04,21,208,25,09,23,243,19,1*6B
$GPGSV,3,2,10,16,26,074,18,07,42,316,,08,63,347,,26,10,095,,1*6C
$GPGSV,3,3,10,27,35,033,,30,09,319,,1*67
$GLGSV,1,1,03,84,59,187,21,73,54,021,,83,47,033,,1*48
$GAGSV,2,1,08,07,15,188,35,13,41,161,29,15,47,080,25,19,20,292,,7*7D
$GAGSV,2,2,08,21,30,309,,27,52,019,,29,32,243,,30,22,077,,7*77
$GQGSV,1,1,03,-190,63,045,28,-189,56,120,36,-188,18,168,18,1*46
$GBGSV,3,1,12,01,49,135,32,03,56,202,29,04,36,119,29,10,52,274,18,1*7B
$GBGSV,3,2,12,12,62,210,36,16,80,181,31,26,60,091,25,02,37,237,,1*7D
$GBGSV,3,3,12,06,82,265,,07,62,289,,09,68,312,,24,53,336,,1*79
$GNGSA,A,3,01,02,04,09,16,,,,,,,,1.2,0.9,0.8,1*3A
$GNGSA,A,3,84,,,,,,,,,,,,1.2,0.9,0.8,2*3C
$GNGSA,A,3,07,13,15,,,,,,,,,,1.2,0.9,0.8,3*30
$GNGSA,A,3,03,04,10,12,16,,,,,,,,1.2,0.9,0.8,4*34
$GNGSA,A,3,02,03,04,,,,,,,,,,1.2,0.9,0.8,5*32
$GNVTG,,T,,M,0.0,N,0.0,K,A*3D
$GNDTM,P90,,0000.000020,S,00000.000001,W,0.991,W84*4E
$GNRMC,014249.00,A,2504.840601,N,12114.281510,E,0.0,,300325,3.2,W,A,V*61
$GNGNS,014249.00,2504.840601,N,12114.281510,E,AAAAA,17,0.9,43.2,16.4,,,V*50
$GNGGA,014249.00,2504.840601,N,12114.281510,E,1,12,0.9,43.2,M,16.4,M,,*44
$GPGSV,3,1,10,01,30,177,33,02,57,154,33,04,21,208,27,09,23,243,19,1*69
$GPGSV,3,2,10,16,26,074,21,07,42,316,,08,63,347,,26,10,095,,1*66
$GPGSV,3,3,10,27,35,033,,30,09,319,,1*67
$GLGSV,1,1,03,84,59,187,19,73,54,021,,83,47,033,,1*43
$GAGSV,2,1,08,07,15,188,35,13,41,161,30,15,47,080,27,19,20,292,,7*77
$GAGSV,2,2,08,21,30,309,,27,52,019,,29,32,243,,30,22,077,,7*77
$GQGSV,1,1,03,-190,63,045,30,-189,56,120,34,-188,18,168,25,1*43
$GBGSV,3,1,12,01,49,135,32,03,56,202,29,04,36,119,29,10,52,274,18,1*7B
$GBGSV,3,2,12,12,62,210,35,16,80,181,33,26,60,091,23,02,37,237,,1*7A
$GBGSV,3,3,12,06,82,265,,07,62,289,,09,68,312,,24,53,336,,1*79
$GNGSA,A,3,01,02,04,09,16,,,,,,,,1.2,0.9,0.8,1*3A
$GNGSA,A,3,84,,,,,,,,,,,,1.2,0.9,0.8,2*3C
$GNGSA,A,3,07,13,15,,,,,,,,,,1.2,0.9,0.8,3*30
$GNGSA,A,3,03,04,10,12,16,,,,,,,,1.2,0.9,0.8,4*34
$GNGSA,A,3,02,03,04,,,,,,,,,,1.2,0.9,0.8,5*32
$GNVTG,,T,,M,0.0,N,0.0,K,A*3D
$GNDTM,P90,,0000.000020,S,00000.000001,W,0.991,W84*4E
$GNRMC,014250.00,A,2504.840513,N,12114.281464,E,0.0,,300325,3.2,W,A,V*6B
$GNGNS,014250.00,2504.840513,N,12114.281464,E,AAAAA,17,0.9,43.5,16.4,,,V*5D
$GNGGA,014250.00,2504.840513,N,12114.281464,E,1,12,0.9,43.5,M,16.4,M,,*49
$GPGSV,3,1,10,01,30,177,32,02,57,154,33,04,21,208,26,16,26,074,22,1*6C
$GPGSV,3,2,10,07,42,316,,08,63,347,,09,23,243,,26,10,095,,1*68
$GPGSV,3,3,10,27,35,033,,30,09,319,,1*67
$GLGSV,1,1,03,84,59,187,23,73,54,021,,83,47,033,,1*4A
$GAGSV,2,1,08,07,15,188,36,13,41,161,30,15,47,080,27,19,20,292,,7*74
$GAGSV,2,2,08,21,30,309,,27,52,019,,29,32,243,,30,22,077,,7*77
$GQGSV,1,1,03,-190,63,045,30,-189,56,120,34,-188,18,168,27,1*41
$GBGSV,3,1,12,01,49,135,32,03,56,202,29,04,36,119,29,10,52,274,18,1*7B
$GBGSV,3,2,12,12,62,210,35,16,80,181,32,26,60,091,24,02,37,237,,1*7C
$GBGSV,3,3,12,06,82,265,,07,62,289,,09,68,312,,24,53,336,,1*79
$GNGSA,A,3,01,02,04,09,16,,,,,,,,1.2,0.9,0.8,1*3A
$GNGSA,A,3,84,,,,,,,,,,,,1.2,0.9,0.8,2*3C
$GNGSA,A,3,07,13,15,,,,,,,,,,1.2,0.9,0.8,3*30
$GNGSA,A,3,03,04,10,12,16,,,,,,,,1.2,0.9,0.8,4*34
$GNGSA,A,3,02,03,04,,,,,,,,,,1.2,0.9,0.8,5*32
$GNVTG,,T,,M,0.0,N,0.0,K,A*3D
$GNDTM,P90,,0000.000020,S,00000.000001,W,0.991,W84*4E
$GNRMC,014251.00,A,2504.840443,N,12114.281418,E,0.0,,300325,3.2,W,A,V*65
$GNGNS,014251.00,2504.840443,N,12114.281418,E,AAAAA,17,0.9,43.7,16.4,,,V*51
$GNGGA,014251.00,2504.840443,N,12114.281418,E,1,12,0.9,43.7,M,16.4,M,,*45
$GPGSV,3,1,10,01,30,177,31,02,57,154,34,04,21,208,26,16,26,074,23,1*69
$GPGSV,3,2,10,07,42,316,,08,63,347,,09,23,243,,26,10,095,,1*68
$GPGSV,3,3,10,27,35,033,,30,09,319,,1*67
$GLGSV,1,1,03,84,59,187,21,73,54,021,,83,47,033,,1*48
$GAGSV,2,1,08,07,15,188,35,13,41,161,31,15,47,080,26,19,20,292,,7*77
$GAGSV,2,2,08,21,30,309,,27,52,019,,29,32,243,,30,22,077,,7*77
$GQGSV,1,1,03,-190,63,045,30,-189,56,120,35,-188,18,168,26,1*41
$GBGSV,3,1,12,01,49,135,32,03,56,202,29,04,36,119,29,10,52,274,18,1*7B
$GBGSV,3,2,12,12,62,210,36,16,80,181,31,26,60,091,24,02,37,237,,1*7C
$GBGSV,3,3,12,06,82,265,,07,62,289,,09,68,312,,24,53,336,,1*79
$GNGSA,A,3,01,02,04,09,16,,,,,,,,1.3,1.1,0.8,1*32
$GNGSA,A,3,84,,,,,,,,,,,,1.3,1.1,0.8,2*34
$GNGSA,A,3,07,13,15,,,,,,,,,,1.3,1.1,0.8,3*38
$GNGSA,A,3,03,04,12,16,,,,,,,,,1.3,1.1,0.8,4*3D
$GNGSA,A,3,02,03,04,,,,,,,,,,1.3,1.1,0.8,5*3A
$GNVTG,,T,,M,0.0,N,0.0,K,A*3D
$GNDTM,P90,,0000.000020,S,00000.000001,W,0.991,W84*4E
$GNRMC,014252.00,A,2504.840388,N,12114.281381,E,0.0,,300325,3.2,W,A,V*61
$GNGNS,014252.00,2504.840388,N,12114.281381,E,AAAAA,16,1.1,43.9,16.4,,,V*53
$GNGGA,014252.00,2504.840388,N,12114.281381,E,1,12,1.1,43.9,M,16.4,M,,*46
$GPGSV,3,1,10,01,30,177,33,02,57,154,34,04,21,208,28,16,26,074,22,1*64
$GPGSV,3,2,10,07,42,316,,08,63,347,,09,23,243,,26,10,095,,1*68
$GPGSV,3,3,10,27,35,033,,30,09,319,,1*67
$GLGSV,1,1,03,84,59,187,21,73,54,021,,83,47,033,,1*48
$GAGSV,2,1,08,07,15,188,36,13,41,161,29,15,47,080,27,19,20,292,,7*7C
$GAGSV,2,2,08,21,30,309,,27,52,019,,29,32,243,,30,22,077,,7*77
$GQGSV,1,1,03,-190,63,045,31,-189,56,120,35,-188,18,168,23,1*45
$GBGSV,3,1,12,01,49,135,33,03,56,202,29,04,36,119,29,10,52,274,18,1*7A
$GBGSV,3,2,12,12,62,210,36,16,80,181,32,26,60,091,21,02,37,237,,1*7A
$GBGSV,3,3,12,06,82,265,,07,62,289,,09,68,312,,24,53,336,,1*79
$GNGSA,A,3,01,02,04,09,16,,,,,,,,1.3,1.1,0.8,1*32
$GNGSA,A,3,84,,,,,,,,,,,,1.3,1.1,0.8,2*34
$GNGSA,A,3,07,13,15,,,,,,,,,,1.3,1.1,0.8,3*38
$GNGSA,A,3,03,04,12,16,,,,,,,,,1.3,1.1,0.8,4*3D
$GNGSA,A,3,02,03,04,,,,,,,,,,1.3,1.1,0.8,5*3A
$GNVTG,,T,,M,0.0,N,0.0,K,A*3D
$GNDTM,P90,,0000.000020,S,00000.000001,W,0.991,W84*4E
$GNRMC,014253.00,A,2504.840351,N,12114.281357,E,0.0,,300325,3.2,W,A,V*6F
$GNGNS,014253.00,2504.840351,N,12114.281357,E,AAAAA,16,1.1,44.0,16.4,,,V*53
$GNGGA,014253.00,2504.840351,N,12114.281357,E,1,12,1.1,44.0,M,16.4,M,,*46
$GPGSV,3,1,10,01,30,177,31,02,57,154,34,04,21,208,28,16,26,074,22,1*66
$GPGSV,3,2,10,07,42,316,,08,63,347,,09,23,243,,26,10,095,,1*68
$GPGSV,3,3,10,27,35,033,,30,09,319,,1*67
$GLGSV,1,1,03,84,59,187,23,73,54,021,,83,47,033,,1*4A
$GAGSV,2,1,08,07,15,188,34,13,41,161,29,15,47,080,27,19,20,292,,7*7E
$GAGSV,2,2,08,21,30,309,,27,52,019,,29,32,243,,30,22,077,,7*77
$GQGSV,1,1,03,-190,63,045,30,-189,56,120,35,-188,18,168,27,1*40
$GBGSV,3,1,12,01,49,135,33,03,56,202,29,04,36,119,28,10,52,274,18,1*7B
$GBGSV,3,2,12,12,62,210,35,16,80,181,32,26,60,091,22,02,37,237,,1*7A
$GBGSV,3,3,12,06,82,265,,07,62,289,,09,68,312,,24,53,336,,1*79
$GNGSA,A,3,01,02,04,16,,,,,,,,,1.6,1.3,0.8,1*3C
$GNGSA,A,3,84,,,,,,,,,,,,1.6,1.3,0.8,2*33
$GNGSA,A,3,07,13,15,,,,,,,,,,1.6,1.3,0.8,3*3F
$GNGSA,A,3,03,04,12,16,,,,,,,,,1.6,1.3,0.8,4*3A
$GNGSA,A,3,02,03,04,,,,,,,,,,1.6,1.3,0.8,5*3D
$GNVTG,,T,,M,0.0,N,0.0,K,A*3D
$GNDTM,P90,,0000.000020,S,00000.000001,W,0.991,W84*4E
$GNRMC,014254.00,A,2504.840328,N,12114.281343,E,0.0,,300325,3.2,W,A,V*63
$GNGNS,014254.00,2504.840328,N,12114.281343,E,AAAAA,15,1.3,44.0,16.4,,,V*5E
$GNGGA,014254.00,2504.840328,N,12114.281343,E,1,12,1.3,44.0,M,16.4,M,,*48
$GPGSV,3,1,10,01,30,177,30,02,57,154,34,04,21,208,27,16,26,074,21,1*6B
$GPGSV,3,2,10,07,42,316,,08,63,347,,09,23,243,,26,10,095,,1*68
$GPGSV,3,3,10,27,35,033,,30,09,319,,1*67
$GLGSV,1,1,03,73,54,021,15,84,59,187,21,83,47,033,,1*4C
$GAGSV,2,1,08,07,15,188,34,13,41,161,29,15,47,080,28,19,20,292,,7*71
$GAGSV,2,2,08,21,30,309,,27,52,019,,29,32,243,,30,22,077,,7*77
$GQGSV,1,1,03,-190,63,045,29,-189,56,120,35,-188,18,168,28,1*47
$GBGSV,3,1,12,01,49,135,33,03,56,202,29,04,36,119,28,10,52,274,18,1*7B
$GBGSV,3,2,12,12,62,210,36,16,80,181,33,26,60,091,22,02,37,237,,1*78
$GBGSV,3,3,12,06,82,265,,07,62,289,,09,68,312,,24,53,336,,1*79
$GNGSA,A,3,01,02,04,16,,,,,,,,,1.5,1.2,0.8,1*3E
$GNGSA,A,3,73,84,,,,,,,,,,,1.5,1.2,0.8,2*35
$GNGSA,A,3,07,13,15,,,,,,,,,,1.5,1.2,0.8,3*3D
$GNGSA,A,3,04,12,16,,,,,,,,,,1.5,1.2,0.8,4*3B
$GNGSA,A,3,02,03,04,,,,,,,,,,1.5,1.2,0.8,5*3F
$GNVTG,,T,,M,0.0,N,0.0,K,A*3D
$GNDTM,P90,,0000.000020,S,00000.000001,W,0.991,W84*4E
$GNRMC,014255.00,A,2504.840319,N,12114.281331,E,0.0,,300325,3.2,W,A,V*65
$GNGNS,014255.00,2504.840319,N,12114.281331,E,AAAAA,15,1.2,44.1,16.4,,,V*58
$GNGGA,014255.00,2504.840319,N,12114.281331,E,1,12,1.2,44.1,M,16.4,M,,*4E
$GPGSV,3,1,10,01,30,177,31,02,57,154,33,04,21,208,27,16,26,074,22,1*6E
$GPGSV,3,2,10,07,42,316,,08,63,347,,09,23,243,,26,10,095,,1*68
$GPGSV,3,3,10,27,35,033,,30,09,319,,1*67
$GLGSV,1,1,03,73,54,021,15,84,59,187,21,83,47,033,,1*4C
$GAGSV,2,1,08,07,15,188,33,13,41,161,29,15,47,080,27,19,20,292,,7*79
$GAGSV,2,2,08,21,30,309,,27,52,019,,29,32,243,,30,22,077,,7*77
$GQGSV,1,1,03,-190,63,045,28,-189,56,120,34,-188,18,168,25,1*4A
$GBGSV,3,1,12,01,49,135,33,03,56,202,24,04,36,119,28,10,52,274,18,1*76
$GBGSV,3,2,12,12,62,210,35,16,80,181,33,26,60,091,22,02,37,237,,1*7B
$GBGSV,3,3,12,06,82,265,,07,62,289,,09,68,312,,24,53,336,,1*79
$GNGSA,A,3,01,02,04,16,,,,,,,,,1.5,1.2,0.8,1*3E
$GNGSA,A,3,73,84,,,,,,,,,,,1.5,1.2,0.8,2*35
$GNGSA,A,3,07,13,15,,,,,,,,,,1.5,1.2,0.8,3*3D
$GNGSA,A,3,03,04,12,16,,,,,,,,,1.5,1.2,0.8,4*38
$GNGSA,A,3,02,03,04,,,,,,,,,,1.5,1.2,0.8,5*3F
$GNVTG,,T,,M,0.0,N,0.0,K,A*3D
$GNDTM,P90,,0000.000020,S,00000.000001,W,0.991,W84*4E
$GNRMC,014256.00,A,2504.840316,N,12114.281331,E,0.0,,300325,3.2,W,A,V*69
$GNGNS,014256.00,2504.840316,N,12114.281331,E,AAAAA,16,1.2,44.0,16.4,,,V*56
$GNGGA,014256.00,2504.840316,N,12114.281331,E,1,12,1.2,44.0,M,16.4,M,,*43
$GPGSV,3,1,10,01,30,177,34,02,57,154,28,04,21,208,27,16,26,074,22,1*61
$GPGSV,3,2,10,07,42,316,,08,63,347,,09,23,243,,26,10,095,,1*68
$GPGSV,3,3,10,27,35,033,,30,09,319,,1*67
$GLGSV,1,1,03,73,54,021,15,84,59,187,21,83,47,033,,1*4C
$GAGSV,2,1,08,07,15,188,34,13,41,161,28,15,47,080,26,19,20,292,,7*7E
$GAGSV,2,2,08,21,30,309,,27,52,019,,29,32,243,,30,22,077,,7*77
$GQGSV,1,1,03,-190,63,045,29,-189,56,120,33,-188,18,168,26,1*4F
$GBGSV,3,1,12,01,49,135,33,03,56,202,24,04,36,119,28,10,52,274,18,1*76
$GBGSV,3,2,12,12,62,210,36,16,80,181,35,26,60,091,23,02,37,237,,1*7F
$GBGSV,3,3,12,06,82,265,,07,62,289,,09,68,312,,24,53,336,,1*79
$GNGSA,A,3,01,02,04,16,,,,,,,,,1.5,1.2,0.8,1*3E
$GNGSA,A,3,73,84,,,,,,,,,,,1.5,1.2,0.8,2*35
$GNGSA,A,3,07,13,15,,,,,,,,,,1.5,1.2,0.8,3*3D
$GNGSA,A,3,03,04,12,16,,,,,,,,,1.5,1.2,0.8,4*38
$GNGSA,A,3,02,03,04,,,,,,,,,,1.5,1.2,0.8,5*3F
$GNVTG,32.5,T,32.5,M,0.8,N,1.5,K,A*31
$GNDTM,P90,,0000.000020,S,00000.000001,W,0.991,W84*4E
$GNRMC,014257.00,A,2504.840660,N,12114.281214,E,0.8,32.5,300325,3.2,W,A,V*78
$GNGNS,014257.00,2504.840660,N,12114.281214,E,AAAAA,16,1.2,43.7,16.4,,,V*55
$GNGGA,014257.00,2504.840660,N,12114.281214,E,1,12,1.2,43.7,M,16.4,M,,*40
$GPGSV,3,1,10,01,30,177,32,02,57,154,31,04,21,208,21,16,26,074,22,1*69
$GPGSV,3,2,10,07,42,316,,08,63,347,,09,23,243,,26,10,095,,1*68
$GPGSV,3,3,10,27,35,033,,30,09,319,,1*67
$GLGSV,1,1,03,73,54,021,15,84,59,187,21,83,47,033,,1*4C
$GAGSV,2,1,08,07,15,188,33,13,41,161,28,15,47,080,29,19,20,292,,7*76
$GAGSV,2,2,08,21,30,309,,27,52,019,,29,32,243,,30,22,077,,7*77
$GQGSV,1,1,03,-190,63,045,30,-189,56,120,33,-188,18,168,31,1*41
$GBGSV,3,1,12,01,49,135,31,03,56,202,24,04,36,119,28,10,52,274,18,1*74
$GBGSV,3,2,12,12,62,210,35,16,80,181,35,26,60,091,23,02,37,237,,1*7C
$GBGSV,3,3,12,06,82,265,,07,62,289,,09,68,312,,24,53,336,,1*79
$GNGSA,A,3,01,02,04,16,,,,,,,,,1.5,1.2,0.8,1*3E
$GNGSA,A,3,73,84,,,,,,,,,,,1.5,1.2,0.8,2*35
$GNGSA,A,3,07,13,15,,,,,,,,,,1.5,1.2,0.8,3*3D
$GNGSA,A,3,03,04,12,16,,,,,,,,,1.5,1.2,0.8,4*38
$GNGSA,A,3,02,03,04,,,,,,,,,,1.5,1.2,0.8,5*3F
$GNVTG,,T,,M,0.0,N,0.0,K,A*3D
$GNDTM,P90,,0000.000020,S,00000.000001,W,0.991,W84*4E
$GNRMC,014258.00,A,2504.840962,N,12114.280862,E,0.0,,300325,3.2,W,A,V*62
$GNGNS,014258.00,2504.840962,N,12114.280862,E,AAAAA,16,1.2,43.8,16.4,,,V*52
$GNGGA,014258.00,2504.840962,N,12114.280862,E,1,12,1.2,43.8,M,16.4,M,,*47
$GPGSV,3,1,10,01,30,177,32,02,57,154,32,04,21,208,23,16,26,074,22,1*68
$GPGSV,3,2,10,07,42,316,,08,63,347,,09,23,243,,26,10,095,,1*68
$GPGSV,3,3,10,27,35,033,,30,09,319,,1*67
$GLGSV,1,1,03,73,54,021,15,84,59,187,21,83,47,033,,1*4C
$GAGSV,2,1,08,07,15,188,34,13,41,161,25,15,47,080,29,19,20,292,,7*7C
$GAGSV,2,2,08,21,30,309,,27,52,019,,29,32,243,,30,22,077,,7*77
$GQGSV,1,1,03,-190,63,045,31,-189,56,120,34,-188,18,168,24,1*43
$GBGSV,3,1,12,01,49,135,31,03,56,202,31,04,36,119,28,10,52,274,18,1*70
$GBGSV,3,2,12,12,62,210,35,16,80,181,34,26,60,091,23,02,37,237,,1*7D
$GBGSV,3,3,12,06,82,265,,07,62,289,,09,68,312,,24,53,336,,1*79
$GNGSA,A,3,01,02,04,16,,,,,,,,,1.5,1.2,0.8,1*3E
$GNGSA,A,3,73,84,,,,,,,,,,,1.5,1.2,0.8,2*35
$GNGSA,A,3,07,13,15,,,,,,,,,,1.5,1.2,0.8,3*3D
$GNGSA,A,3,03,04,12,16,,,,,,,,,1.5,1.2,0.8,4*38
$GNGSA,A,3,02,03,04,,,,,,,,,,1.5,1.2,0.8,5*3F
$GNVTG,32.5,T,32.5,M,0.8,N,1.4,K,A*30
$GNDTM,P90,,0000.000020,S,00000.000001,W,0.991,W84*4E
$GNRMC,014259.00,A,2504.840840,N,12114.280827,E,0.8,32.5,300325,3.2,W,A,V*71
$GNGNS,014259.00,2504.840840,N,12114.280827,E,AAAAA,16,1.2,44.4,16.4,,,V*58
$GNGGA,014259.00,2504.840840,N,12114.280827,E,1,12,1.2,44.4,M,16.4,M,,*4D
$GPGSV,3,1,10,01,30,177,28,02,57,154,33,04,21,208,30,16,26,074,22,1*60
$GPGSV,3,2,10,07,42,316,,08,63,347,,09,23,243,,26,10,095,,1*68
$GPGSV,3,3,10,27,35,033,,30,09,319,,1*67
$GLGSV,1,1,03,73,54,021,15,84,59,187,21,83,47,033,,1*4C
$GAGSV,2,1,08,07,15,188,35,13,41,161,25,15,47,080,30,19,20,292,,7*75
$GAGSV,2,2,08,21,30,309,,27,52,019,,29,32,243,,30,22,077,,7*77
$GQGSV,1,1,03,-190,63,045,31,-189,56,120,35,-188,18,168,24,1*42
$GBGSV,3,1,12,01,49,135,31,03,56,202,31,04,36,119,28,10,52,274,18,1*70
$GBGSV,3,2,12,12,62,210,35,16,80,181,35,26,60,091,25,02,37,237,,1*7A
$GBGSV,3,3,12,06,82,265,,07,62,289,,09,68,312,,24,53,336,,1*79
$GNGSA,A,3,01,02,04,16,,,,,,,,,1.7,1.4,0.8,1*3A
$GNGSA,A,3,73,84,,,,,,,,,,,1.7,1.4,0.8,2*31
$GNGSA,A,3,07,13,15,,,,,,,,,,1.7,1.4,0.8,3*39
$GNGSA,A,3,03,12,16,,,,,,,,,,1.7,1.4,0.8,4*38
$GNGSA,A,3,02,03,04,,,,,,,,,,1.7,1.4,0.8,5*3B
$GNVTG,32.6,T,32.6,M,0.7,N,1.3,K,A*38
$GNDTM,P90,,0000.000020,S,00000.000001,W,0.991,W84*4E
$GNRMC,014300.00,A,2504.840921,N,12114.280769,E,0.7,32.6,300325,3.2,W,A,V*73
$GNGNS,014300.00,2504.840921,N,12114.280769,E,AAAAA,15,1.4,44.0,16.4,,,V*57
$GNGGA,014300.00,2504.840921,N,12114.280769,E,1,12,1.4,44.0,M,16.4,M,,*41
$GPGSV,3,1,10,01,30,177,26,02,57,154,32,04,21,208,29,16,26,074,22,1*67
$GPGSV,3,2,10,07,42,316,,08,63,347,,09,23,243,,26,10,095,,1*68
$GPGSV,3,3,10,27,35,033,,30,09,319,,1*67
$GLGSV,1,1,03,73,54,021,15,84,59,187,16,83,47,033,,1*48
$GAGSV,2,1,08,07,15,188,31,13,41,161,25,15,47,080,30,19,20,292,,7*71
$GAGSV,2,2,08,21,30,309,,27,52,019,,29,32,243,,30,22,077,,7*77
$GQGSV,1,1,03,-190,63,045,31,-189,56,120,34,-188,18,168,22,1*45
$GBGSV,3,1,12,01,49,135,31,03,56,202,32,04,36,119,28,10,52,274,18,1*73
$GBGSV,3,2,12,12,62,210,36,16,80,181,35,26,60,091,25,02,37,237,,1*79
$GBGSV,3,3,12,06,82,265,,07,62,289,,09,68,312,,24,53,336,,1*79
$GNGSA,A,3,01,02,04,16,,,,,,,,,1.8,1.6,0.8,1*37
$GNGSA,A,3,84,,,,,,,,,,,,1.8,1.6,0.8,2*38
$GNGSA,A,3,07,13,15,,,,,,,,,,1.8,1.6,0.8,3*34
$GNGSA,A,3,03,12,16,,,,,,,,,,1.8,1.6,0.8,4*35
$GNGSA,A,3,02,03,04,,,,,,,,,,1.8,1.6,0.8,5*36
$GNVTG,32.6,T,32.6,M,0.5,N,0.9,K,A*31
$GNDTM,P90,,0000.000020,S,00000.000001,W,0.991,W84*4E
$GNRMC,014301.00,A,2504.840909,N,12114.280570,E,0.5,32.6,300325,3.2,W,A,V*70
$GNGNS,014301.00,2504.840909,N,12114.280570,E,AAAAA,14,1.6,43.1,16.4,,,V*53
$GNGGA,014301.00,2504.840909,N,12114.280570,E,1,12,1.6,43.1,M,16.4,M,,*44
$GPGSV,3,1,10,01,30,177,25,02,57,154,33,04,21,208,22,16,26,074,22,1*6E
$GPGSV,3,2,10,07,42,316,,08,63,347,,09,23,243,,26,10,095,,1*68
$GPGSV,3,3,10,27,35,033,,30,09,319,,1*67
$GLGSV,1,1,03,73,54,021,15,84,59,187,16,83,47,033,,1*48
$GAGSV,2,1,08,07,15,188,30,13,41,161,25,15,47,080,32,19,20,292,,7*72
$GAGSV,2,2,08,21,30,309,,27,52,019,,29,32,243,,30,22,077,,7*77
$GQGSV,1,1,03,-190,63,045,32,-189,56,120,34,-188,18,168,25,1*41
$GBGSV,3,1,12,01,49,135,31,03,56,202,32,04,36,119,28,10,52,274,18,1*73
$GBGSV,3,2,12,12,62,210,36,16,80,181,35,26,60,091,23,02,37,237,,1*7F
$GBGSV,3,3,12,06,82,265,,07,62,289,,09,68,312,,24,53,336,,1*79
$GNGSA,A,3,01,02,04,,,,,,,,,,2.0,1.7,0.9,1*3B
$GNGSA,A,3,84,,,,,,,,,,,,2.0,1.7,0.9,2*33
$GNGSA,A,3,07,13,15,,,,,,,,,,2.0,1.7,0.9,3*3F
$GNGSA,A,3,03,12,16,,,,,,,,,,2.0,1.7,0.9,4*3E
$GNGSA,A,3,02,03,04,,,,,,,,,,2.0,1.7,0.9,5*3D
$GNVTG,32.6,T,32.6,M,0.3,N,0.6,K,A*38
$GNDTM,P90,,0000.000020,S,00000.000001,W,0.991,W84*4E
$GNRMC,014302.00,A,2504.840723,N,12114.280386,E,0.3,32.6,300325,3.2,W,A,V*7C
$GNGNS,014302.00,2504.840723,N,12114.280386,E,AAAAA,13,1.7,44.4,16.4,,,V*5D
$GNGGA,014302.00,2504.840723,N,12114.280386,E,1,12,1.7,44.4,M,16.4,M,,*4D
$GPGSV,3,1,10,01,30,177,25,02,57,154,35,04,21,208,24,16,26,074,22,1*6E
$GPGSV,3,2,10,07,42,316,,08,63,347,,09,23,243,,26,10,095,,1*68
$GPGSV,3,3,10,27,35,033,,30,09,319,,1*67
$GLGSV,1,1,03,73,54,021,15,84,59,187,16,83,47,033,,1*48
$GAGSV,2,1,08,07,14,188,32,13,41,161,24,15,47,078,33,19,20,292,,7*76
$GAGSV,2,2,08,21,30,309,,27,52,019,,29,32,243,,30,22,077,,7*77
$GQGSV,1,1,03,-190,63,045,31,-189,56,120,35,-188,18,168,28,1*4E
$GBGSV,3,1,12,01,49,135,31,03,56,202,32,04,36,119,28,10,52,274,18,1*73
$GBGSV,3,2,12,12,62,210,37,16,80,181,35,26,60,091,26,02,37,237,,1*7B
$GBGSV,3,3,12,06,82,265,,07,62,289,,09,68,312,,24,53,336,,1*79
$GNGSA,A,3,01,02,04,,,,,,,,,,2.0,1.7,0.9,1*3B
$GNGSA,A,3,84,,,,,,,,,,,,2.0,1.7,0.9,2*33
$GNGSA,A,3,07,13,15,,,,,,,,,,2.0,1.7,0.9,3*3F
$GNGSA,A,3,03,12,16,,,,,,,,,,2.0,1.7,0.9,4*3E
$GNGSA,A,3,02,03,04,,,,,,,,,,2.0,1.7,0.9,5*3D
$GNVTG,,T,,M,0.0,N,0.0,K,A*3D
$GNDTM,P90,,0000.000020,S,00000.000001,W,0.991,W84*4E
$GNRMC,014303.00,A,2504.840078,N,12114.280072,E,0.0,,300325,3.2,W,A,V*66
$GNGNS,014303.00,2504.840078,N,12114.280072,E,AAAAA,13,1.7,45.0,16.4,,,V*58
$GNGGA,014303.00,2504.840078,N,12114.280072,E,1,12,1.7,45.0,M,16.4,M,,*48
$GPGSV,3,1,10,01,30,177,25,02,57,154,34,04,21,208,23,16,26,074,22,1*68
$GPGSV,3,2,10,07,42,316,,08,63,347,,09,23,243,,26,10,095,,1*68
$GPGSV,3,3,10,27,35,033,,30,09,319,,1*67
$GLGSV,1,1,03,73,54,021,15,84,59,187,16,83,47,033,,1*48
$GAGSV,2,1,08,07,14,188,29,13,41,161,29,15,47,078,33,19,20,292,,7*71
$GAGSV,2,2,08,21,30,309,,27,52,019,,29,32,243,,30,22,077,,7*77
$GQGSV,1,1,03,-190,63,045,28,-189,56,120,36,-188,18,168,31,1*4D
$GBGSV,3,1,12,01,49,135,28,03,56,202,31,04,36,119,23,10,52,274,18,1*73
$GBGSV,3,2,12,12,62,210,38,16,80,181,34,26,60,091,28,02,37,237,,1*7B
$GBGSV,3,3,12,06,82,265,,07,62,289,,09,68,312,,24,53,336,,1*79
$GNGSA,A,3,01,02,04,,,,,,,,,,1.7,1.4,0.9,1*3C
$GNGSA,A,3,84,,,,,,,,,,,,1.7,1.4,0.9,2*34
$GNGSA,A,3,07,13,15,,,,,,,,,,1.7,1.4,0.9,3*38
$GNGSA,A,3,03,04,12,16,,,,,,,,,1.7,1.4,0.9,4*3D
$GNGSA,A,3,02,03,04,,,,,,,,,,1.7,1.4,0.9,5*3A
$GNVTG,,T,,M,0.0,N,0.0,K,A*3D
$GNDTM,P90,,0000.000020,S,00000.000001,W,0.991,W84*4E
$GNRMC,014304.00,A,2504.839832,N,12114.280015,E,0.0,,300325,3.2,W,A,V*68
$GNGNS,014304.00,2504.839832,N,12114.280015,E,AAAAA,14,1.4,45.4,16.4,,,V*56
$GNGGA,014304.00,2504.839832,N,12114.280015,E,1,12,1.4,45.4,M,16.4,M,,*41
$GPGSV,3,1,10,01,30,177,31,02,57,154,37,04,21,208,31,16,26,074,22,1*6D
$GPGSV,3,2,10,26,10,095,17,07,42,316,,08,63,347,,09,23,243,,1*6E
$GPGSV,3,3,10,27,35,033,,30,09,319,,1*67
$GLGSV,1,1,03,73,54,021,15,84,59,187,16,83,47,033,,1*48
$GAGSV,2,1,08,07,14,188,28,13,41,161,30,15,47,078,26,19,20,292,,7*7C
$GAGSV,2,2,08,21,30,309,,27,52,019,,29,32,243,,30,22,077,,7*77
$GQGSV,1,1,03,-190,63,045,28,-189,56,120,40,-188,18,168,27,1*4B
$GBGSV,3,1,12,01,49,135,28,03,56,202,31,04,36,119,23,10,52,274,18,1*73
$GBGSV,3,2,12,12,62,210,35,16,80,181,34,26,60,091,33,02,37,237,,1*7C
$GBGSV,3,3,12,06,82,265,,07,62,289,,09,68,312,,24,53,336,,1*79
$GNGSA,A,3,01,02,04,,,,,,,,,,1.7,1.4,0.9,1*3C
$GNGSA,A,3,84,,,,,,,,,,,,1.7,1.4,0.9,2*34
$GNGSA,A,3,07,13,15,,,,,,,,,,1.7,1.4,0.9,3*38
$GNGSA,A,3,03,04,12,16,,,,,,,,,1.7,1.4,0.9,4*3D
$GNGSA,A,3,02,03,04,,,,,,,,,,1.7,1.4,0.9,5*3A
$GNVTG,,T,,M,0.0,N,0.0,K,A*3D
$GNDTM,P90,,0000.000020,S,00000.000001,W,0.991,W84*4E
$GNRMC,014305.00,A,2504.839668,N,12114.279947,E,0.0,,300325,3.2,W,A,V*60
$GNGNS,014305.00,2504.839668,N,12114.279947,E,AAAAA,14,1.4,45.9,16.4,,,V*53
$GNGGA,014305.00,2504.839668,N,12114.279947,E,1,12,1.4,45.9,M,16.4,M,,*44
$GPGSV,3,1,10,01,30,177,33,02,57,154,37,04,21,208,30,16,26,074,15,1*6A
$GPGSV,3,2,10,26,10,095,17,07,42,316,,08,63,347,,09,23,243,,1*6E
$GPGSV,3,3,10,27,35,033,,30,09,319,,1*67
$GLGSV,1,1,03,73,54,021,15,84,59,187,16,83,47,033,,1*48
$GAGSV,2,1,08,07,14,188,28,13,41,161,31,15,47,078,26,27,52,019,18,7*7D
$GAGSV,2,2,08,19,20,292,,21,30,309,,29,32,243,,30,22,077,,7*7E
$GQGSV,1,1,03,-190,63,045,28,-189,56,120,41,-188,18,168,27,1*4A
$GBGSV,3,1,11,01,49,135,32,03,56,202,31,04,36,119,23,12,62,210,35,1*77
$GBGSV,3,2,11,16,80,181,34,26,60,091,33,02,37,237,,06,82,265,,1*70
$GBGSV,3,3,11,07,62,289,,09,68,312,,24,53,336,,1*47
$GNGSA,A,3,01,02,04,,,,,,,,,,1.7,1.4,0.9,1*3C
$GNGSA,A,3,84,,,,,,,,,,,,1.7,1.4,0.9,2*34
$GNGSA,A,3,07,13,15,,,,,,,,,,1.7,1.4,0.9,3*38
$GNGSA,A,3,03,04,12,16,,,,,,,,,1.7,1.4,0.9,4*3D
$GNGSA,A,3,02,03,04,,,,,,,,,,1.7,1.4,0.9,5*3A
$GNVTG,,T,,M,0.0,N,0.0,K,A*3D
$GNDTM,P90,,0000.000020,S,00000.000001,W,0.991,W84*4E
$GNRMC,014306.00,A,2504.839610,N,12114.279846,E,0.0,,300325,3.2,W,A,V*6C
$GNGNS,014306.00,2504.839610,N,12114.279846,E,AAAAA,14,1.4,46.1,16.4,,,V*54
$GNGGA,014306.00,2504.839610,N,12114.279846,E,1,12,1.4,46.1,M,16.4,M,,*43
$GPGSV,3,1,10,01,30,177,31,02,57,154,37,04,21,208,29,16,26,074,15,1*60
$GPGSV,3,2,10,26,10,095,19,07,42,316,,08,63,347,,09,23,243,,1*60
$GPGSV,3,3,10,27,35,033,,30,09,319,,1*67
$GLGSV,1,1,03,73,54,021,15,84,59,187,16,83,47,033,,1*48
$GAGSV,2,1,08,07,14,188,24,13,41,161,29,15,47,078,28,27,52,019,18,7*76
$GAGSV,2,2,08,19,20,292,,21,30,309,,29,32,243,,30,22,077,,7*7E
$GQGSV,1,1,03,-190,63,045,29,-189,56,120,40,-188,18,168,27,1*4A
$GBGSV,3,1,12,01,49,135,32,03,56,202,31,04,36,119,23,12,62,210,34,1*75
$GBGSV,3,2,12,16,80,181,34,26,60,091,34,02,37,237,,06,82,265,,1*74
$GBGSV,3,3,12,07,62,289,,09,68,312,,10,52,274,,24,53,336,,1*73
$GNGSA,A,3,01,02,04,,,,,,,,,,1.7,1.4,0.9,1*3C
$GNGSA,A,3,07,13,15,,,,,,,,,,1.7,1.4,0.9,3*38
$GNGSA,A,3,03,04,12,16,,,,,,,,,1.7,1.4,0.9,4*3D
$GNGSA,A,3,02,03,04,,,,,,,,,,1.7,1.4,0.9,5*3A
$GNVTG,,T,,M,0.0,N,0.0,K,A*3D
$GNDTM,P90,,0000.000020,S,00000.000001,W,0.991,W84*4E
$GNRMC,014307.00,A,2504.839542,N,12114.279764,E,0.0,,300325,3.2,W,A,V*66
$GNGNS,014307.00,2504.839542,N,12114.279764,E,ANAAA,13,1.4,46.3,16.4,,,V*54
$GNGGA,014307.00,2504.839542,N,12114.279764,E,1,12,1.4,46.3,M,16.4,M,,*4B
$GPGSV,3,1,10,01,30,177,31,02,57,154,34,04,21,208,28,16,26,074,15,1*62
$GPGSV,3,2,10,26,10,095,19,07,42,316,,08,63,347,,09,23,243,,1*60
$GPGSV,3,3,10,27,35,033,,30,09,319,,1*67
$GLGSV,1,1,03,73,54,021,15,84,59,187,16,83,47,033,,1*48
$GAGSV,2,1,08,07,14,188,28,13,41,161,26,15,47,078,32,27,52,019,18,7*7E
$GAGSV,2,2,08,30,22,077,19,19,20,292,,21,30,309,,29,32,243,,7*76
$GQGSV,1,1,03,-190,63,045,29,-189,56,120,37,-188,18,168,30,1*4C
$GBGSV,3,1,12,01,49,135,32,03,56,202,29,04,36,119,23,12,62,210,37,1*7F
$GBGSV,3,2,12,16,80,181,33,26,60,091,30,02,37,237,,06,82,265,,1*77
$GBGSV,3,3,12,07,62,289,,09,68,312,,10,52,274,,24,53,336,,1*73
$GNGSA,A,3,01,02,04,,,,,,,,,,1.6,1.3,0.9,1*3A
$GNGSA,A,3,07,13,15,30,,,,,,,,,1.6,1.3,0.9,3*3D
$GNGSA,A,3,03,04,12,16,,,,,,,,,1.6,1.3,0.9,4*3B
$GNGSA,A,3,02,03,04,,,,,,,,,,1.6,1.3,0.9,5*3C
$GNVTG,,T,,M,0.0,N,0.0,K,A*3D
$GNDTM,P90,,0000.000020,S,00000.000001,W,0.991,W84*4E
$GNRMC,014308.00,A,2504.839368,N,12114.279722,E,0.0,,300325,3.2,W,A,V*65
$GNGNS,014308.00,2504.839368,N,12114.279722,E,ANAAA,14,1.3,46.9,16.4,,,V*5D
$GNGGA,014308.00,2504.839368,N,12114.279722,E,1,12,1.3,46.9,M,16.4,M,,*45
$GPGSV,3,1,10,01,30,177,21,02,57,154,34,04,21,208,27,16,26,074,15,1*6C
$GPGSV,3,2,10,26,10,095,20,07,42,316,,08,63,347,,09,23,243,,1*6A
$GPGSV,3,3,10,27,35,033,,30,09,319,,1*67
$GLGSV,1,1,03,73,54,021,15,84,59,187,16,83,47,033,,1*48
$GAGSV,2,1,08,07,14,188,31,13,41,161,26,15,47,078,33,27,52,019,18,7*77
$GAGSV,2,2,08,30,22,077,19,19,20,292,,21,30,309,,29,32,243,,7*76
$GQGSV,1,1,03,-190,63,045,33,-189,56,120,35,-188,18,168,27,1*43
$GBGSV,3,1,12,01,49,135,30,03,56,202,29,04,36,119,23,12,62,210,37,1*7D
$GBGSV,3,2,12,16,80,181,35,26,60,091,30,02,37,237,,06,82,265,,1*71
$GBGSV,3,3,12,07,62,289,,09,68,312,,10,52,274,,24,53,336,,1*73
$GNGSA,A,3,01,02,04,26,,,,,,,,,1.5,1.3,0.8,1*3C
$GNGSA,A,3,07,13,15,30,,,,,,,,,1.5,1.3,0.8,3*3F
$GNGSA,A,3,03,04,12,16,,,,,,,,,1.5,1.3,0.8,4*39
$GNGSA,A,3,02,03,04,,,,,,,,,,1.5,1.3,0.8,5*3E
$GNVTG,,T,,M,0.0,N,0.0,K,A*3D
$GNDTM,P90,,0000.000020,S,00000.000001,W,0.991,W84*4E
$GNRMC,014309.00,A,2504.839085,N,12114.279702,E,0.0,,300325,3.2,W,A,V*66
$GNGNS,014309.00,2504.839085,N,12114.279702,E,ANAAA,15,1.3,48.2,16.4,,,V*5A
$GNGGA,014309.00,2504.839085,N,12114.279702,E,1,12,1.3,48.2,M,16.4,M,,*43
$GPGSV,3,1,10,01,30,177,25,02,57,154,37,04,21,208,27,16,26,074,15,1*6B
$GPGSV,3,2,10,26,10,095,20,07,42,316,,08,63,347,,09,23,243,,1*6A
$GPGSV,3,3,10,27,35,033,,30,09,319,,1*67
$GLGSV,1,1,03,73,54,021,15,84,59,187,16,83,47,033,,1*48
$GAGSV,2,1,08,07,14,188,30,13,41,161,23,15,47,078,32,27,52,019,18,7*72
$GAGSV,2,2,08,30,22,077,19,19,20,292,,21,30,309,,29,32,243,,7*76
$GQGSV,1,1,03,-190,63,045,32,-189,56,120,34,-188,18,168,29,1*4D
$GBGSV,3,1,12,01,49,135,30,03,56,202,29,04,36,119,23,12,62,210,37,1*7D
$GBGSV,3,2,12,16,80,181,35,26,60,091,30,02,37,237,,06,82,265,,1*71
$GBGSV,3,3,12,07,62,289,,09,68,312,,10,52,274,,24,53,336,,1*73
$GNGSA,A,3,01,02,04,26,,,,,,,,,1.7,1.5,0.8,1*38
$GNGSA,A,3,07,13,15,30,,,,,,,,,1.7,1.5,0.8,3*3B
$GNGSA,A,3,03,12,16,,,,,,,,,,1.7,1.5,0.8,4*39
$GNGSA,A,3,02,03,04,,,,,,,,,,1.7,1.5,0.8,5*3A
$GNVTG,32.7,T,32.7,M,0.5,N,0.9,K,A*31
$GNDTM,P90,,0000.000020,S,00000.000001,W,0.991,W84*4E
$GNRMC,014310.00,A,2504.838992,N,12114.279671,E,0.5,32.7,300325,3.2,W,A,V*78
$GNGNS,014310.00,2504.838992,N,12114.279671,E,ANAAA,14,1.5,49.1,16.4,,,V*5C
$GNGGA,014310.00,2504.838992,N,12114.279671,E,1,12,1.5,49.1,M,16.4,M,,*44
$GPGSV,3,1,10,01,30,177,25,02,57,154,35,04,21,208,26,16,26,074,15,1*68
$GPGSV,3,2,10,26,10,095,20,07,42,316,,08,63,347,,09,23,243,,1*6A
$GPGSV,3,3,10,27,35,033,,30,09,319,,1*67
$GLGSV,1,1,03,73,54,021,15,84,59,187,16,83,47,033,,1*48
$GAGSV,2,1,08,07,14,188,31,13,41,161,27,15,47,078,33,27,52,019,18,7*76
$GAGSV,2,2,08,29,32,243,18,30,22,077,19,19,20,292,,21,30,309,,7*7F
$GQGSV,1,1,03,-190,63,045,33,-189,56,120,32,-188,18,168,30,1*42
$GBGSV,3,1,12,01,49,135,30,03,56,202,29,04,36,119,23,12,62,210,37,1*7D
$GBGSV,3,2,12,16,80,181,35,26,60,091,30,02,37,237,,06,82,265,,1*71
$GBGSV,3,3,12,07,62,289,,09,68,312,,10,52,274,,24,53,336,,1*73
$GNGSA,A,3,01,02,04,26,,,,,,,,,1.4,1.1,0.8,1*3F
$GNGSA,A,3,07,13,15,29,30,,,,,,,,1.4,1.1,0.8,3*37
$GNGSA,A,3,03,12,16,,,,,,,,,,1.4,1.1,0.8,4*3E
$GNGSA,A,3,02,03,04,,,,,,,,,,1.4,1.1,0.8,5*3D
$GNVTG,32.7,T,32.7,M,0.3,N,0.6,K,A*38
$GNDTM,P90,,0000.000020,S,00000.000001,W,0.991,W84*4E
$GNRMC,014311.00,A,2504.838775,N,12114.279687,E,0.3,32.7,300325,3.2,W,A,V*71
$GNGNS,014311.00,2504.838775,N,12114.279687,E,ANAAA,15,1.1,50.2,16.4,,,V*5D
$GNGGA,014311.00,2504.838775,N,12114.279687,E,1,12,1.1,50.2,M,16.4,M,,*44
$GPGSV,3,1,10,01,30,177,25,02,57,154,36,04,21,208,27,16,26,074,15,1*6A
$GPGSV,3,2,10,26,10,095,20,07,42,316,,08,63,347,,09,23,243,,1*6A
$GPGSV,3,3,10,27,35,033,,30,09,319,,1*67
$GLGSV,1,1,03,73,54,021,15,84,59,187,16,83,47,033,,1*48
$GAGSV,2,1,08,07,14,188,31,13,41,161,24,15,47,078,33,27,52,019,18,7*75
$GAGSV,2,2,08,29,32,243,18,30,22,077,19,19,20,292,,21,30,309,,7*7F
$GQGSV,1,1,03,-190,63,045,33,-189,56,120,33,-188,18,168,29,1*4B
$GBGSV,3,1,12,01,49,135,27,03,56,202,29,04,36,119,23,12,62,210,37,1*7B
$GBGSV,3,2,12,16,80,181,35,26,60,091,18,02,37,237,,06,82,265,,1*7B
$GBGSV,3,3,12,07,62,289,,09,68,312,,10,52,274,,24,53,336,,1*73
$GNGSA,A,3,01,02,04,26,,,,,,,,,1.4,1.1,0.8,1*3F
$GNGSA,A,3,07,13,15,29,30,,,,,,,,1.4,1.1,0.8,3*37
$GNGSA,A,3,03,12,16,,,,,,,,,,1.4,1.1,0.8,4*3E
$GNGSA,A,3,02,03,04,,,,,,,,,,1.4,1.1,0.8,5*3D
$GNVTG,,T,,M,0.0,N,0.0,K,A*3D
$GNDTM,P90,,0000.000020,S,00000.000001,W,0.991,W84*4E
$GNRMC,014312.00,A,2504.838195,N,12114.279831,E,0.0,,300325,3.2,W,A,V*62
$GNGNS,014312.00,2504.838195,N,12114.279831,E,ANAAA,15,1.1,50.7,16.4,,,V*50
$GNGGA,014312.00,2504.838195,N,12114.279831,E,1,12,1.1,50.7,M,16.4,M,,*49
$GPGSV,3,1,10,01,30,177,25,02,57,154,35,04,21,208,26,16,26,074,18,1*65
$GPGSV,3,2,10,26,10,095,20,07,42,316,,08,63,347,,09,23,243,,1*6A
$GPGSV,3,3,10,27,35,033,,30,09,319,,1*67
$GLGSV,1,1,03,73,54,021,15,84,59,187,16,83,47,033,,1*48
$GAGSV,2,1,08,07,14,188,26,13,41,161,24,15,47,078,32,27,52,019,18,7*72
$GAGSV,2,2,08,29,32,243,18,30,22,077,19,19,20,292,,21,30,309,,7*7F
$GQGSV,1,1,03,-190,63,045,32,-189,56,120,33,-188,18,168,30,1*42
$GBGSV,3,1,12,01,49,135,27,03,56,202,29,04,36,119,23,12,62,210,37,1*7B
$GBGSV,3,2,12,16,80,181,35,26,60,091,24,02,37,237,,06,82,265,,1*74
$GBGSV,3,3,12,07,62,289,,09,68,312,,10,52,274,,24,53,336,,1*73
$GNGSA,A,3,01,02,04,16,26,,,,,,,,1.4,1.1,0.8,1*38
$GNGSA,A,3,07,13,15,29,30,,,,,,,,1.4,1.1,0.8,3*37
$GNGSA,A,3,03,12,16,,,,,,,,,,1.4,1.1,0.8,4*3E
$GNGSA,A,3,02,03,04,,,,,,,,,,1.4,1.1,0.8,5*3D
$GNVTG,,T,,M,0.0,N,0.0,K,A*3D
$GNDTM,P90,,0000.000020,S,00000.000001,W,0.991,W84*4E
$GNRMC,014313.00,A,2504.838029,N,12114.279782,E,0.0,,300325,3.2,W,A,V*62
$GNGNS,014313.00,2504.838029,N,12114.279782,E,ANAAA,16,1.1,50.8,16.4,,,V*5C
$GNGGA,014313.00,2504.838029,N,12114.279782,E,1,12,1.1,50.8,M,16.4,M,,*46
$GPGSV,3,1,10,01,30,177,20,02,57,154,35,04,21,208,23,16,26,074,21,1*6F
$GPGSV,3,2,10,26,10,095,20,07,42,316,,08,63,347,,09,23,243,,1*6A
$GPGSV,3,3,10,27,35,033,,30,09,319,,1*67
$GLGSV,1,1,03,73,54,021,15,84,59,187,16,83,47,033,,1*48
$GAGSV,2,1,08,07,14,188,26,13,41,161,24,15,47,078,30,27,52,019,20,7*7B
$GAGSV,2,2,08,29,32,243,18,30,22,077,19,19,20,292,,21,30,309,,7*7F
$GQGSV,1,1,03,-190,63,045,30,-189,56,120,32,-188,18,168,31,1*40
$GBGSV,3,1,12,01,49,135,27,03,56,202,29,04,36,119,23,12,62,210,36,1*7A
$GBGSV,3,2,12,16,80,181,34,26,60,091,23,02,37,237,,06,82,265,,1*72
$GBGSV,3,3,12,07,62,289,,09,68,312,,10,52,274,,24,53,336,,1*73
$GNGSA,A,3,01,02,04,16,26,,,,,,,,1.3,1.0,0.8,1*3E
$GNGSA,A,3,07,13,15,27,29,,,,,,,,1.3,1.0,0.8,3*37
$GNGSA,A,3,03,12,16,,,,,,,,,,1.3,1.0,0.8,4*38
$GNGSA,A,3,02,03,04,,,,,,,,,,1.3,1.0,0.8,5*3B
$GNVTG,,T,,M,0.0,N,0.0,K,A*3D
$GNDTM,P90,,0000.000020,S,00000.000001,W,0.991,W84*4E
$GNRMC,014314.00,A,2504.837988,N,12114.279642,E,0.0,,300325,3.2,W,A,V*65
$GNGNS,014314.00,2504.837988,N,12114.279642,E,ANAAA,16,1.0,50.6,16.4,,,V*54
$GNGGA,014314.00,2504.837988,N,12114.279642,E,1,12,1.0,50.6,M,16.4,M,,*4E
$GPGSV,3,1,10,01,30,177,26,02,57,154,34,04,21,208,25,16,26,074,23,1*6C
$GPGSV,3,2,10,26,10,095,20,07,42,316,,08,63,347,,09,23,243,,1*6A
$GPGSV,3,3,10,27,35,033,,30,09,319,,1*67
$GLGSV,1,1,03,73,54,021,15,84,59,187,16,83,47,033,,1*48
$GAGSV,2,1,08,07,14,188,34,13,41,161,24,15,47,078,33,27,52,019,20,7*7B
$GAGSV,2,2,08,29,32,243,21,30,22,077,19,19,20,292,,21,30,309,,7*75
$GQGSV,1,1,03,-190,63,045,26,-189,56,120,30,-188,18,168,31,1*45
$GBGSV,3,1,12,01,49,135,28,03,56,202,29,04,36,119,23,12,63,210,36,1*74
$GBGSV,3,2,12,16,80,182,33,26,60,091,23,02,37,237,,06,82,265,,1*76
$GBGSV,3,3,12,07,62,289,,09,68,312,,10,52,274,,24,53,336,,1*73
$GNGSA,A,3,01,02,04,16,,,,,,,,,1.4,1.1,0.8,1*3C
$GNGSA,A,3,07,13,15,27,29,,,,,,,,1.4,1.1,0.8,3*31
$GNGSA,A,3,03,12,16,,,,,,,,,,1.4,1.1,0.8,4*3E
$GNGSA,A,3,02,03,04,,,,,,,,,,1.4,1.1,0.8,5*3D
$GNVTG,32.7,T,32.7,M,0.6,N,1.0,K,A*3A
$GNDTM,P90,,0000.000020,S,00000.000001,W,0.991,W84*4E
$GNRMC,014315.00,A,2504.838024,N,12114.279740,E,0.6,32.7,300325,3.2,W,A,V*79
$GNGNS,014315.00,2504.838024,N,12114.279740,E,ANAAA,15,1.1,51.1,16.4,,,V*52
$GNGGA,014315.00,2504.838024,N,12114.279740,E,1,12,1.1,51.1,M,16.4,M,,*4B
$GPGSV,3,1,10,01,30,177,29,02,57,154,37,04,21,208,31,16,26,074,23,1*65
$GPGSV,3,2,10,26,10,095,20,07,42,316,,08,63,347,,09,23,243,,1*6A
$GPGSV,3,3,10,27,35,033,,30,09,319,,1*67
$GLGSV,1,1,03,73,54,021,15,84,59,187,19,83,47,033,,1*47
$GAGSV,2,1,08,07,14,188,34,13,41,161,23,15,47,078,29,27,52,019,20,7*77
$GAGSV,2,2,08,29,32,243,21,30,22,077,19,19,20,292,,21,30,309,,7*75
$GQGSV,1,1,03,-190,63,045,26,-189,56,120,35,-188,18,168,26,1*46
$GBGSV,3,1,12,01,49,135,28,03,56,202,29,04,36,119,23,12,63,210,33,1*71
$GBGSV,3,2,12,16,80,182,31,26,60,091,30,02,37,237,,06,82,265,,1*76
$GBGSV,3,3,12,07,62,289,,09,68,312,,10,52,274,,24,53,336,,1*73
$GNGSA,A,3,01,02,04,16,,,,,,,,,1.3,1.0,0.8,1*3A
$GNGSA,A,3,73,84,,,,,,,,,,,1.3,1.0,0.8,2*31
$GNGSA,A,3,07,13,15,27,29,,,,,,,,1.3,1.0,0.8,3*37
$GNGSA,A,3,03,12,16,,,,,,,,,,1.3,1.0,0.8,4*38
$GNGSA,A,3,02,03,04,,,,,,,,,,1.3,1.0,0.8,5*3B
$GNVTG,37.4,T,37.4,M,0.8,N,1.5,K,A*31
$GNDTM,P90,,0000.000020,S,00000.000001,W,0.991,W84*4E
$GNRMC,014316.00,A,2504.838014,N,12114.280039,E,0.8,37.4,300325,3.2,W,A,V*7E
$GNGNS,014316.00,2504.838014,N,12114.280039,E,AAAAA,17,1.0,51.0,16.4,,,V*50
$GNGGA,014316.00,2504.838014,N,12114.280039,E,1,12,1.0,51.0,M,16.4,M,,*44
$GPGSV,3,1,10,01,30,177,31,02,57,154,33,04,21,208,35,08,63,347,17,1*66
$GPGSV,3,2,10,16,26,074,23,26,10,095,20,07,42,316,,09,23,243,,1*66
$GPGSV,3,3,10,27,35,033,,30,09,319,,1*67
$GLGSV,1,1,03,73,54,021,21,84,59,187,22,83,47,033,,1*48
$GAGSV,2,1,08,07,14,188,27,13,41,161,30,15,47,078,26,27,52,019,23,7*7B
$GAGSV,2,2,08,29,32,243,21,30,22,077,19,19,20,292,,21,30,309,,7*75
$GQGSV,1,1,03,-190,63,045,22,-189,56,120,32,-188,18,168,29,1*4A
$GBGSV,3,1,12,01,49,135,33,03,56,202,29,04,36,119,23,12,63,210,25,1*7C
$GBGSV,3,2,12,16,80,182,29,26,60,091,29,02,37,237,,06,82,265,,1*77
$GBGSV,3,3,12,07,62,289,,09,68,312,,10,52,274,,24,53,336,,1*73
$GNGSA,A,3,01,02,04,08,16,,,,,,,,1.2,0.9,0.8,1*3B
$GNGSA,A,3,73,84,,,,,,,,,,,1.2,0.9,0.8,2*38
$GNGSA,A,3,07,13,15,27,29,,,,,,,,1.2,0.9,0.8,3*3E
$GNGSA,A,3,03,12,16,,,,,,,,,,1.2,0.9,0.8,4*31
$GNGSA,A,3,02,03,04,,,,,,,,,,1.2,0.9,0.8,5*32
$GNVTG,51.3,T,51.3,M,2.9,N,5.4,K,A*37
$GNDTM,P90,,0000.000020,S,00000.000001,W,0.991,W84*4E
$GNRMC,014317.00,A,2504.838477,N,12114.280749,E,2.9,51.3,300325,3.2,W,A,V*7A
$GNGNS,014317.00,2504.838477,N,12114.280749,E,AAAAA,18,0.9,50.2,16.4,,,V*54
$GNGGA,014317.00,2504.838477,N,12114.280749,E,1,12,0.9,50.2,M,16.4,M,,*4F
$GPGSV,3,1,10,01,30,177,31,02,57,154,28,04,21,208,31,08,63,347,26,1*6A
$GPGSV,3,2,10,16,26,074,23,26,10,095,20,07,42,316,,09,23,243,,1*66
$GPGSV,3,3,10,27,35,033,,30,09,319,,1*67
$GLGSV,1,1,03,73,54,021,21,84,59,187,22,83,47,033,,1*48
$GAGSV,2,1,08,07,14,188,29,13,41,161,28,15,47,078,26,27,52,019,25,7*7A
$GAGSV,2,2,08,29,32,243,21,30,22,077,19,19,20,292,,21,30,309,,7*75
$GQGSV,1,1,03,-190,63,045,23,-189,56,120,26,-188,18,168,29,1*4E
$GBGSV,3,1,12,01,49,135,35,03,56,202,32,04,36,119,23,09,68,312,21,1*76
$GBGSV,3,2,12,12,63,210,27,16,80,182,25,26,60,091,31,02,37,237,,1*7F
$GBGSV,3,3,12,06,82,265,,07,62,289,,10,52,274,,24,53,336,,1*79
$GNGSA,A,3,01,02,04,08,16,,,,,,,,1.2,0.9,0.8,1*3B
$GNGSA,A,3,73,84,,,,,,,,,,,1.2,0.9,0.8,2*38
$GNGSA,A,3,07,13,15,27,29,,,,,,,,1.2,0.9,0.8,3*3E
$GNGSA,A,3,03,09,12,16,,,,,,,,,1.2,0.9,0.8,4*38
$GNGSA,A,3,02,03,04,,,,,,,,,,1.2,0.9,0.8,5*32
$GNVTG,57.1,T,57.1,M,2.3,N,4.2,K,A*3A
$GNDTM,P90,,0000.000020,S,00000.000001,W,0.991,W84*4E
$GNRMC,014318.00,A,2504.838818,N,12114.281306,E,2.3,57.1,300325,3.2,W,A,V*70
$GNGNS,014318.00,2504.838818,N,12114.281306,E,AAAAA,19,0.9,49.5,16.4,,,V*5E
$GNGGA,014318.00,2504.838818,N,12114.281306,E,1,12,0.9,49.5,M,16.4,M,,*44
$GPGSV,3,1,10,01,30,177,30,02,57,154,28,04,21,208,27,08,63,347,31,1*6A
$GPGSV,3,2,10,16,26,074,23,26,10,095,20,07,42,316,,09,23,243,,1*66
$GPGSV,3,3,10,27,35,033,,30,09,319,,1*67
$GLGSV,1,1,03,73,54,021,21,84,59,187,22,83,47,033,,1*48
$GAGSV,2,1,08,07,14,188,29,13,41,161,34,15,47,078,26,27,52,019,24,7*76
$GAGSV,2,2,08,29,32,243,21,30,22,077,19,19,20,292,,21,30,309,,7*75
$GQGSV,1,1,03,-190,63,045,23,-189,56,120,27,-188,18,168,30,1*47
$GBGSV,3,1,12,01,49,135,35,03,56,202,32,04,36,119,23,09,68,312,29,1*7E
$GBGSV,3,2,12,12,63,210,27,16,80,182,28,26,60,091,29,02,37,237,,1*7B
$GBGSV,3,3,12,06,82,265,,07,62,289,,10,52,274,,24,53,336,,1*79
$GNGSA,A,3,01,02,04,08,16,,,,,,,,1.2,0.9,0.8,1*3B
$GNGSA,A,3,73,84,,,,,,,,,,,1.2,0.9,0.8,2*38
$GNGSA,A,3,07,13,15,27,29,,,,,,,,1.2,0.9,0.8,3*3E
$GNGSA,A,3,03,09,12,16,,,,,,,,,1.2,0.9,0.8,4*38
$GNGSA,A,3,02,03,04,,,,,,,,,,1.2,0.9,0.8,5*32
$GNVTG,53.9,T,53.9,M,2.4,N,4.4,K,A*3B
$GNDTM,P90,,0000.000020,S,00000.000001,W,0.991,W84*4E
$GNRMC,014319.00,A,2504.838657,N,12114.282091,E,2.4,53.9,300325,3.2,W,A,V*71
$GNGNS,014319.00,2504.838657,N,12114.282091,E,AAAAA,19,0.9,50.4,16.4,,,V*5D
$GNGGA,014319.00,2504.838657,N,12114.282091,E,1,12,0.9,50.4,M,16.4,M,,*47
