$GPGSV,3,1,10,01,68,037,37,02,37,035,27,03,33,132,,07,42,209,,1*64
$GPGSV,3,2,10,08,23,061,,14,38,323,,17,30,292,,19,09,271,,1*6F
$GPGSV,3,3,10,22,20,319,,30,45,261,,1*6B
$GLGSV,2,1,06,77,75,139,24,88,56,288,18,87,31,018,26,78,39,331,,1*7E
$GLGSV,2,2,06,76,26,147,,81,16,237,,1*71
$GQGSV,1,1,02,-190,68,077,33,-189,71,073,36,1*66
$GPGSA,A,1,,,,,,,,,,,,,,,,*32
$GPVTG,,T,,M,,N,,K,N*2C
$GPDTM,,,,,,,,*4A
$GPRMC,,V,,,,,,,,,,N,V*29
$GPGNS,,,,,,N,,,,,,,V*79
$GPGGA,,,,,,0,,,,,,,,*66
$GPGSV,3,1,10,01,68,037,25,02,37,035,23,03,33,132,,07,42,209,,1*63
$GPGSV,3,2,10,08,23,061,,14,38,323,,17,30,292,,19,09,271,,1*6F
$GPGSV,3,3,10,22,20,319,,30,45,261,,1*6B
$GLGSV,2,1,06,77,75,139,24,88,56,288,17,87,31,018,23,78,39,331,,1*74
$GLGSV,2,2,06,76,26,147,,81,16,237,,1*71
$GQGSV,1,1,02,-190,68,077,28,-189,71,073,33,1*69
$GPGSA,A,1,,,,,,,,,,,,,,,,*32
$GPVTG,,T,,M,,N,,K,N*2C
$GPDTM,,,,,,,,*4A
$GPRMC,,V,,,,,,,,,,N,V*29
$GPGNS,,,,,,N,,,,,,,V*79
$GPGGA,,,,,,0,,,,,,,,*66
$GPGSV,3,1,10,01,68,037,31,02,37,035,25,03,33,132,,07,42,209,,1*60
$GPGSV,3,2,10,08,23,061,,14,38,323,,17,30,292,,19,09,271,,1*6F
$GPGSV,3,3,10,22,20,319,,30,45,261,,1*6B
$GLGSV,2,1,06,77,75,140,23,76,26,147,17,88,56,288,16,87,31,018,20,1*7A
$GLGSV,2,2,06,78,39,331,,81,16,237,,1*72
$GQGSV,1,1,02,-190,68,077,29,-189,71,073,30,1*6B
$GPGSA,A,1,,,,,,,,,,,,,,,,*32
$GPVTG,,T,,M,,N,,K,N*2C
$GPDTM,,,,,,,,*4A
$GPRMC,,V,,,,,,,,,,N,V*29
$GPGNS,,,,,,N,,,,,,,V*79
$GPGGA,,,,,,0,,,,,,,,*66
$GPGSV,3,1,10,01,68,037,30,02,37,035,25,03,33,132,22,07,42,209,,1*61
$GPGSV,3,2,10,08,23,061,,14,38,323,,17,30,292,,19,09,271,,1*6F
$GPGSV,3,3,10,22,20,319,,30,45,261,,1*6B
$GLGSV,2,1,06,77,75,140,23,76,26,147,17,88,56,288,16,87,31,018,20,1*7A
$GLGSV,2,2,06,78,39,331,,81,16,237,,1*72
$GQGSV,1,1,02,-190,68,077,30,-189,71,073,29,1*6B
$GPGSV,3,1,10,01,68,037,30,02,37,035,20,03,33,132,20,07,42,209,,1*66
$GPGSV,3,2,10,08,23,061,,14,38,323,,17,30,292,,19,09,271,,1*6F
$GPGSV,3,3,10,22,20,319,,30,45,261,,1*6B
$GLGSV,2,1,06,77,75,140,23,76,26,147,17,88,56,288,16,87,31,018,21,1*7B
$GLGSV,2,2,06,78,39,331,,81,16,237,,1*72
$GAGSV,2,1,08,21,53,099,25,23,58,344,25,26,78,035,28,13,24,035,,7*77
$GAGSV,2,2,08,19,00,000,,27,05,123,,31,12,314,,33,46,216,,7*73
$GQGSV,1,1,02,-190,68,077,30,-189,71,073,27,1*65
$GBGSV,4,1,16,29,52,285,20,30,47,023,24,01,49,135,,02,36,236,,1*79
$GBGSV,4,2,16,03,56,202,,04,37,118,,05,14,254,,06,47,215,,1*7F
$GBGSV,4,3,16,07,58,329,,08,16,172,,09,53,239,,10,49,312,,1*74
$GBGSV,4,4,16,13,09,184,,16,42,202,,20,06,147,,27,04,050,,1*74
$GPGSA,A,1,,,,,,,,,,,,,,,,*32
$GPVTG,,T,,M,,N,,K,N*2C
$GPDTM,,,,,,,,*4A
$GPRMC,,V,,,,,,,,,,N,V*29
$GPGNS,,,,,,N,,,,,,,V*79
$GPGGA,,,,,,0,,,,,,,,*66
$GPGSV,3,1,10,01,68,037,28,02,37,035,24,03,33,132,20,08,23,061,18,1*66
$GPGSV,3,2,10,17,30,292,20,07,42,209,,14,38,323,,19,09,271,,1*69
$GPGSV,3,3,10,22,20,319,,30,45,261,,1*6B
$GLGSV,2,1,06,77,75,140,23,76,26,147,17,88,56,288,17,87,31,018,21,1*7A
$GLGSV,2,2,06,78,39,331,,81,16,237,,1*72
$GAGSV,2,1,08,13,24,035,25,21,53,099,32,23,58,344,25,26,78,035,23,7*7D
$GAGSV,2,2,08,19,00,000,,27,05,123,,31,12,314,,33,46,216,,7*73
$GQGSV,1,1,02,-190,68,077,24,-189,71,073,24,1*63
$GBGSV,4,1,16,29,52,285,20,30,47,023,25,01,49,135,,02,36,236,,1*78
$GBGSV,4,2,16,03,56,202,,04,37,118,,05,14,254,,06,47,215,,1*7F
$GBGSV,4,3,16,07,58,329,,08,16,172,,09,53,239,,10,49,312,,1*74
$GBGSV,4,4,16,13,09,184,,16,42,202,,20,06,147,,27,04,050,,1*74
$GPGSA,A,1,,,,,,,,,,,,,,,,*32
$GPVTG,,T,,M,,N,,K,N*2C
$GPDTM,,,,,,,,*4A
$GPRMC,,V,,,,,,,,,,N,V*29
$GPGNS,,,,,,N,,,,,,,V*79
$GPGGA,,,,,,0,,,,,,,,*66
$GPGSV,3,1,10,01,68,037,31,02,37,035,24,03,33,132,21,08,23,061,19,1*6E
$GPGSV,3,2,10,17,30,292,22,30,45,261,18,07,42,209,,14,38,323,,1*60
$GPGSV,3,3,10,19,09,271,,22,20,319,,1*69
$GLGSV,2,1,06,77,75,140,22,76,26,147,16,88,56,288,15,87,31,018,21,1*78
$GLGSV,2,2,06,78,39,331,,81,16,237,,1*72
$GAGSV,2,1,08,13,24,035,25,21,53,099,28,23,58,344,25,26,78,035,26,7*73
$GAGSV,2,2,08,19,00,000,,27,05,123,,31,12,314,,33,46,216,,7*73
$GQGSV,1,1,02,-190,68,077,25,-189,71,073,29,1*6F
$GBGSV,4,1,16,29,52,285,20,30,47,023,28,01,49,135,,02,36,236,,1*75
$GBGSV,4,2,16,03,56,202,,04,37,118,,05,14,254,,06,47,215,,1*7F
$GBGSV,4,3,16,07,58,329,,08,16,172,,09,53,239,,10,49,312,,1*74
$GBGSV,4,4,16,13,09,184,,16,42,202,,20,06,147,,27,04,050,,1*74
$GPGSA,A,1,,,,,,,,,,,,,,,,*32
$GPVTG,,T,,M,,N,,K,N*2C
$GPDTM,,,,,,,,*4A
$GPRMC,,V,,,,,,,,,,N,V*29
$GPGNS,,,,,,N,,,,,,,V*79
$GPGGA,,,,,,0,,,,,,,,*66
$GPGSV,3,1,10,01,68,037,34,02,37,035,24,03,33,132,20,08,23,061,18,1*6B
$GPGSV,3,2,10,17,30,292,21,30,45,261,18,07,42,209,,14,38,323,,1*63
$GPGSV,3,3,10,19,09,271,,22,20,319,,1*69
$GLGSV,2,1,06,77,75,140,22,76,26,147,16,88,56,288,15,87,31,018,16,1*7C
$GLGSV,2,2,06,78,39,331,,81,16,237,,1*72
$GAGSV,2,1,08,13,24,035,24,21,53,099,33,23,58,344,25,26,78,035,29,7*77
$GAGSV,2,2,08,19,00,000,,27,05,123,,31,12,314,,33,46,216,,7*73
$GQGSV,1,1,02,-190,68,077,27,-189,71,073,29,1*6D
$GBGSV,4,1,16,29,52,285,20,30,47,023,29,01,49,135,,02,36,236,,1*74
$GBGSV,4,2,16,03,56,202,,04,37,118,,05,14,254,,06,47,215,,1*7F
$GBGSV,4,3,16,07,58,329,,08,16,172,,09,53,239,,10,49,312,,1*74
$GBGSV,4,4,16,13,09,184,,16,42,202,,20,06,147,,27,04,050,,1*74
$GNGSA,A,3,01,02,03,08,17,30,,,,,,,1.2,0.9,0.8,1*3E
$GNGSA,A,3,76,88,,,,,,,,,,,1.2,0.9,0.8,2*31
$GNGSA,A,3,13,21,23,26,,,,,,,,,1.2,0.9,0.8,3*35
$GNGSA,A,3,02,03,,,,,,,,,,,1.2,0.9,0.8,5*36
$GNVTG,,T,,M,0.0,N,0.0,K,A*3D
$GNDTM,P90,,0000.000020,S,00000.000001,W,0.991,W84*4E
$GNRMC,035756.00,A,2458.970795,N,12116.433626,E,0.0,,020425,3.1,W,A,V*61
$GNGNS,035756.00,2458.970795,N,12116.433626,E,AAANA,14,0.9,87.3,16.6,,,V*52
$GNGGA,035756.00,2458.970795,N,12116.433626,E,1,12,0.9,87.3,M,16.6,M,,*4A
$GPGSA,A,1,,,,,,,,,,,,,,,,*32
$GPVTG,,T,,M,,N,,K,N*2C
$GPDTM,,,,,,,,*4A
$GPRMC,,V,,,,,,,,,,N,V*29
$GPGNS,,,,,,N,,,,,,,V*79
$GPGGA,,,,,,0,,,,,,,,*66
$GPGSV,3,1,10,01,68,037,35,02,37,035,27,03,33,132,,07,41,209,,1*65
$GPGSV,3,2,10,08,23,061,,14,38,323,,17,30,292,,19,09,271,,1*6F
$GPGSV,3,3,10,22,20,319,,30,45,261,,1*6B
$GLGSV,2,1,06,78,39,331,,77,75,140,,76,26,147,,88,56,288,,1*78
$GLGSV,2,2,06,87,31,018,,81,16,237,,1*72
$GAGSV,2,1,08,13,24,035,,19,00,000,,21,53,099,,23,59,344,,7*79
$GAGSV,2,2,08,26,78,035,,27,05,123,,31,12,314,,33,46,216,,7*76
$GQGSV,1,1,02,-190,68,077,25,-189,71,073,,1*64
$GBGSV,4,1,16,01,49,135,,02,36,236,,03,56,202,,04,37,118,,1*77
$GBGSV,4,2,16,05,14,254,,06,47,215,,07,58,330,,08,16,172,,1*76
$GBGSV,4,3,16,09,53,239,,10,49,312,,13,09,184,,16,42,202,,1*7A
$GBGSV,4,4,16,20,06,147,,27,04,050,,29,52,285,,30,47,023,,1*71
$GPGSA,A,1,,,,,,,,,,,,,,,,*32
$GPVTG,,T,,M,,N,,K,N*2C
$GPDTM,,,,,,,,*4A
$GPRMC,,V,,,,,,,,,,N,V*29
$GPGNS,,,,,,N,,,,,,,V*79
$GPGGA,,,,,,0,,,,,,,,*66
$GPGSV,3,1,10,01,68,037,37,02,37,035,25,03,33,132,20,07,41,209,,1*67
$GPGSV,3,2,10,08,23,061,,14,38,323,,17,30,292,,19,09,271,,1*6F
$GPGSV,3,3,10,22,20,319,,30,45,261,,1*6B
$GLGSV,2,1,06,78,39,331,,77,75,140,,76,26,147,,88,56,288,,1*78
$GLGSV,2,2,06,87,31,018,,81,16,237,,1*72
$GAGSV,2,1,08,13,24,035,,19,00,000,,21,53,099,,23,59,344,,7*79
$GAGSV,2,2,08,26,78,035,,27,05,123,,31,12,314,,33,46,216,,7*76
$GQGSV,1,1,02,-190,68,077,26,-189,71,073,22,1*67
$GBGSV,4,1,16,01,49,135,,02,36,236,,03,56,202,,04,37,118,,1*77
$GBGSV,4,2,16,05,14,254,,06,47,215,,07,58,330,,08,16,172,,1*76
$GBGSV,4,3,16,09,53,239,,10,49,312,,13,09,184,,16,42,202,,1*7A
$GBGSV,4,4,16,20,06,147,,27,04,050,,29,52,285,,30,47,023,,1*71
$GNGSA,A,3,01,02,03,08,17,30,,,,,,,1.2,0.9,0.8,1*3E
$GNGSA,A,3,76,88,,,,,,,,,,,1.2,0.9,0.8,2*31
$GNGSA,A,3,13,21,26,,,,,,,,,,1.2,0.9,0.8,3*34
$GNGSA,A,3,02,03,,,,,,,,,,,1.2,0.9,0.8,5*36
$GNVTG,,T,,M,0.0,N,0.0,K,A*3D
$GNDTM,P90,,0000.000020,S,00000.000001,W,0.991,W84*4E
$GNRMC,035759.00,A,2458.969339,N,12116.434339,E,0.0,,020425,3.1,W,A,V*68
$GNGNS,035759.00,2458.969339,N,12116.434339,E,AAANA,13,0.9,96.9,16.6,,,V*56
$GNGGA,035759.00,2458.969339,N,12116.434339,E,1,12,0.9,96.9,M,16.6,M,,*49
$GPGSV,3,1,10,01,68,037,37,02,37,035,25,03,33,132,19,07,41,209,,1*6D
$GPGSV,3,2,10,08,23,061,,14,38,323,,17,30,292,,19,09,271,,1*6F
$GPGSV,3,3,10,22,20,319,,30,45,261,,1*6B
$GLGSV,2,1,06,78,39,331,,77,75,140,,76,26,147,,88,56,288,,1*78
$GLGSV,2,2,06,87,31,018,,81,16,237,,1*72
$GAGSV,2,1,08,21,53,099,25,26,78,035,33,13,24,035,,19,00,000,,7*7D
$GAGSV,2,2,08,23,59,344,,27,05,123,,31,12,314,,33,46,216,,7*75
$GQGSV,1,1,02,-190,68,077,23,-189,71,073,22,1*62
$GBGSV,4,1,16,01,49,135,,02,36,236,,03,56,202,,04,37,118,,1*77
$GBGSV,4,2,16,05,14,254,,06,47,215,,07,58,330,,08,16,172,,1*76
$GBGSV,4,3,16,09,53,239,,10,49,312,,13,09,184,,16,42,202,,1*7A
$GBGSV,4,4,16,20,06,147,,27,04,050,,29,52,285,,30,47,023,,1*71
$GNGSA,A,3,01,02,03,08,17,30,,,,,,,1.2,0.9,0.8,1*3E
$GNGSA,A,3,76,88,,,,,,,,,,,1.2,0.9,0.8,2*31
$GNGSA,A,3,13,21,26,,,,,,,,,,1.2,0.9,0.8,3*34
$GNGSA,A,3,02,03,,,,,,,,,,,1.2,0.9,0.8,5*36
$GNVTG,,T,,M,0.0,N,0.0,K,A*3D
$GNDTM,P90,,0000.000020,S,00000.000001,W,0.991,W84*4E
$GNRMC,035800.00,A,2458.975633,N,12116.446074,E,0.0,,020425,3.1,W,A,V*66
$GNGNS,035800.00,2458.975633,N,12116.446074,E,AAANA,13,0.9,129.6,16.6,,,V*62
$GNGGA,035800.00,2458.975633,N,12116.446074,E,1,12,0.9,129.6,M,16.6,M,,*7D
$GPGSV,3,1,10,01,68,037,37,02,37,035,25,03,33,132,20,07,41,209,,1*67
$GPGSV,3,2,10,08,23,061,,14,38,323,,17,30,292,,19,09,271,,1*6F
$GPGSV,3,3,10,22,20,319,,30,45,261,,1*6B
$GLGSV,2,1,06,78,39,331,,77,75,140,,76,26,147,,88,56,288,,1*78
$GLGSV,2,2,06,87,31,018,,81,16,237,,1*72
$GAGSV,2,1,08,21,53,099,26,26,78,035,33,13,24,035,,19,00,000,,7*7E
$GAGSV,2,2,08,23,59,344,,27,05,123,,31,12,314,,33,46,216,,7*75
$GQGSV,1,1,02,-190,68,077,26,-189,71,073,26,1*63
$GBGSV,4,1,16,01,49,135,,02,36,236,,03,56,202,,04,37,118,,1*77
$GBGSV,4,2,16,05,14,254,,06,47,215,,07,58,330,,08,16,172,,1*76
$GBGSV,4,3,16,09,53,239,,10,49,312,,13,09,184,,16,42,202,,1*7A
$GBGSV,4,4,16,20,06,147,,27,04,050,,29,52,285,,30,47,023,,1*71
$GNGSA,A,3,01,02,03,08,17,30,,,,,,,1.2,0.9,0.8,1*3E
$GNGSA,A,3,76,88,,,,,,,,,,,1.2,0.9,0.8,2*31
$GNGSA,A,3,13,21,26,,,,,,,,,,1.2,0.9,0.8,3*34
$GNGSA,A,3,02,03,,,,,,,,,,,1.2,0.9,0.8,5*36
$GNVTG,,T,,M,0.0,N,0.0,K,A*3D
$GNDTM,P90,,0000.000020,S,00000.000001,W,0.991,W84*4E
$GNRMC,035801.00,A,2458.975922,N,12116.450454,E,0.0,,020425,3.1,W,A,V*69
$GNGNS,035801.00,2458.975922,N,12116.450454,E,AAANA,13,0.9,146.2,16.6,,,V*60
$GNGGA,035801.00,2458.975922,N,12116.450454,E,1,12,0.9,146.2,M,16.6,M,,*7F
$GPGSV,3,1,10,01,68,037,34,02,37,035,25,03,33,132,19,07,41,209,,1*6E
$GPGSV,3,2,10,08,23,061,,14,38,323,,17,30,292,,19,09,271,,1*6F
$GPGSV,3,3,10,22,20,319,,30,45,261,,1*6B
$GLGSV,2,1,06,77,75,140,18,76,26,147,18,87,31,018,18,78,39,331,,1*74
$GLGSV,2,2,06,88,56,288,,81,16,237,,1*77
$GAGSV,2,1,08,21,53,099,26,26,78,035,29,13,24,035,,19,00,000,,7*75
$GAGSV,2,2,08,23,59,344,,27,05,123,,31,12,314,,33,46,216,,7*75
$GQGSV,1,1,02,-190,68,077,25,-189,71,073,26,1*60
$GBGSV,4,1,16,01,49,135,,02,36,236,,03,56,202,,04,37,118,,1*77
$GBGSV,4,2,16,05,14,254,,06,47,215,,07,58,330,,08,16,172,,1*76
$GBGSV,4,3,16,09,53,239,,10,49,312,,13,09,184,,16,42,202,,1*7A
$GBGSV,4,4,16,20,06,147,,27,04,050,,29,52,285,,30,47,023,,1*71
$GNGSA,A,3,01,02,03,,,,,,,,,,2.9,2.8,1.0,1*31
$GNGSA,A,3,76,,,,,,,,,,,,2.9,2.8,1.0,2*33
$GNGSA,A,3,21,26,,,,,,,,,,,2.9,2.8,1.0,3*34
$GNGSA,A,3,02,03,,,,,,,,,,,2.9,2.8,1.0,5*34
$GNVTG,,T,,M,0.0,N,0.0,K,A*3D
$GNDTM,P90,,0000.000020,S,00000.000001,W,0.991,W84*4E
$GNRMC,035802.00,A,2458.978152,N,12116.459054,E,0.0,,020425,3.1,W,A,V*65
$GNGNS,035802.00,2458.978152,N,12116.459054,E,AAANA,08,2.8,163.3,16.6,,,V*63
$GNGGA,035802.00,2458.978152,N,12116.459054,E,1,08,2.8,163.3,M,16.6,M,,*7D
$GPGSV,3,1,10,01,68,037,34,02,37,035,19,03,33,132,19,07,41,209,,1*61
$GPGSV,3,2,10,08,23,061,,14,38,323,,17,30,292,,19,09,271,,1*6F
$GPGSV,3,3,10,22,20,319,,30,45,261,,1*6B
$GLGSV,2,1,06,77,75,140,18,76,26,147,19,87,31,018,18,78,39,331,,1*75
$GLGSV,2,2,06,88,56,288,,81,16,237,,1*77
$GAGSV,2,1,08,21,53,099,25,26,78,035,27,13,24,035,,19,00,000,,7*78
$GAGSV,2,2,08,23,59,344,,27,05,123,,31,12,314,,33,46,216,,7*75
$GQGSV,1,1,02,-190,68,077,27,-189,71,073,31,1*64
$GBGSV,4,1,16,04,37,118,25,01,49,135,,02,36,236,,03,56,202,,1*70
$GBGSV,4,2,16,05,14,254,,06,47,215,,07,58,330,,08,16,172,,1*76
$GBGSV,4,3,16,09,53,239,,10,49,312,,13,09,184,,16,42,202,,1*7A
$GBGSV,4,4,16,20,06,147,,27,04,050,,29,52,285,,30,47,023,,1*71
$GNGSA,A,3,01,02,03,,,,,,,,,,2.9,2.8,1.0,1*31
$GNGSA,A,3,76,,,,,,,,,,,,2.9,2.8,1.0,2*33
$GNGSA,A,3,21,26,,,,,,,,,,,2.9,2.8,1.0,3*34
$GNGSA,A,3,02,03,,,,,,,,,,,2.9,2.8,1.0,5*34
$GNVTG,,T,,M,0.0,N,0.0,K,A*3D
$GNDTM,P90,,0000.000020,S,00000.000001,W,0.991,W84*4E
$GNRMC,035803.00,A,2458.978106,N,12116.460411,E,0.0,,020425,3.1,W,A,V*6A
$GNGNS,035803.00,2458.978106,N,12116.460411,E,AAANA,08,2.8,167.3,16.6,,,V*68
$GNGGA,035803.00,2458.978106,N,12116.460411,E,1,08,2.8,167.3,M,16.6,M,,*76
$GPGSV,3,1,10,01,68,037,36,02,37,035,23,03,33,132,19,07,41,209,,1*6A
$GPGSV,3,2,10,08,23,061,,14,38,323,,17,30,292,,19,09,271,,1*6F
$GPGSV,3,3,10,22,20,319,,30,45,261,,1*6B
$GLGSV,2,1,06,77,75,140,19,76,26,147,19,87,31,018,18,78,39,331,,1*74
$GLGSV,2,2,06,88,56,288,,81,16,237,,1*77
$GAGSV,2,1,08,21,53,099,24,26,78,035,27,13,24,035,,19,00,000,,7*79
$GAGSV,2,2,08,23,59,344,,27,05,123,,31,12,314,,33,46,216,,7*75
$GQGSV,1,1,02,-190,68,077,28,-189,71,073,31,1*6B
$GBGSV,4,1,16,04,37,118,26,01,49,135,,02,36,236,,03,56,202,,1*73
$GBGSV,4,2,16,05,14,254,,06,47,215,,07,58,330,,08,16,172,,1*76
$GBGSV,4,3,16,09,53,239,,10,49,312,,13,09,184,,16,42,202,,1*7A
$GBGSV,4,4,16,20,06,147,,27,04,050,,29,52,285,,30,47,023,,1*71
$GNGSA,A,3,01,02,03,,,,,,,,,,2.9,2.8,1.0,1*31
$GNGSA,A,3,76,,,,,,,,,,,,2.9,2.8,1.0,2*33
$GNGSA,A,3,21,26,,,,,,,,,,,2.9,2.8,1.0,3*34
$GNGSA,A,3,02,03,,,,,,,,,,,2.9,2.8,1.0,5*34
$GNVTG,,T,,M,0.0,N,0.0,K,A*3D
$GNDTM,P90,,0000.000020,S,00000.000001,W,0.991,W84*4E
$GNRMC,035804.00,A,2458.978634,N,12116.458716,E,0.0,,020425,3.1,W,A,V*64
$GNGNS,035804.00,2458.978634,N,12116.458716,E,AAANA,08,2.8,156.3,16.6,,,V*64
$GNGGA,035804.00,2458.978634,N,12116.458716,E,1,08,2.8,156.3,M,16.6,M,,*7A
$GPGSV,3,1,10,01,68,037,36,02,37,035,24,03,33,132,20,08,23,061,17,1*66
$GPGSV,3,2,10,07,41,209,,14,38,323,,17,30,292,,19,09,271,,1*68
$GPGSV,3,3,10,22,20,319,,30,45,261,,1*6B
$GLGSV,2,1,06,77,75,140,19,76,26,147,19,87,31,018,19,78,39,331,,1*75
$GLGSV,2,2,06,88,56,288,,81,16,237,,1*77
$GAGSV,2,1,08,21,53,099,24,26,78,035,30,13,24,035,,19,00,000,,7*7F
$GAGSV,2,2,08,23,59,344,,27,05,123,,31,12,314,,33,46,216,,7*75
$GQGSV,1,1,02,-190,68,077,25,-189,71,073,30,1*67
$GBGSV,4,1,16,04,37,118,26,08,16,172,19,01,49,135,,02,36,236,,1*70
$GBGSV,4,2,16,03,56,202,,05,14,254,,06,47,215,,07,58,330,,1*7D
$GBGSV,4,3,16,09,53,239,,10,49,312,,13,09,184,,16,42,202,,1*7A
$GBGSV,4,4,16,20,06,147,,27,04,050,,29,52,285,,30,47,023,,1*71
$GNGSA,A,3,01,02,03,08,,,,,,,,,2.3,2.1,1.0,1*3A
$GNGSA,A,3,76,,,,,,,,,,,,2.3,2.1,1.0,2*30
$GNGSA,A,3,21,26,,,,,,,,,,,2.3,2.1,1.0,3*37
$GNGSA,A,3,02,03,,,,,,,,,,,2.3,2.1,1.0,5*37
$GNVTG,,T,,M,0.0,N,0.0,K,A*3D
$GNDTM,P90,,0000.000020,S,00000.000001,W,0.991,W84*4E
$GNRMC,035805.00,A,2458.978143,N,12116.458855,E,0.0,,020425,3.1,W,A,V*6A
$GNGNS,035805.00,2458.978143,N,12116.458855,E,AAANA,09,2.1,160.1,16.6,,,V*65
$GNGGA,035805.00,2458.978143,N,12116.458855,E,1,09,2.1,160.1,M,16.6,M,,*7B
$GPGSV,3,1,10,01,68,037,35,02,37,035,23,03,33,132,20,08,23,061,17,1*62
$GPGSV,3,2,10,07,41,209,,14,38,323,,17,30,292,,19,09,271,,1*68
$GPGSV,3,3,10,22,20,319,,30,45,261,,1*6B
$GLGSV,2,1,06,77,75,140,19,76,26,147,19,87,31,018,20,78,39,331,,1*7F
$GLGSV,2,2,06,88,56,288,,81,16,237,,1*77
$GAGSV,2,1,08,21,53,099,23,26,78,035,30,13,24,035,,19,00,000,,7*78
$GAGSV,2,2,08,23,59,344,,27,05,123,,31,12,314,,33,46,216,,7*75
$GQGSV,1,1,02,-190,68,077,25,-189,71,073,27,1*61
$GBGSV,4,1,16,04,37,118,26,08,16,172,19,01,49,135,,02,36,236,,1*70
$GBGSV,4,2,16,03,56,202,,05,14,254,,06,47,215,,07,58,330,,1*7D
$GBGSV,4,3,16,09,53,239,,10,49,312,,13,09,184,,16,42,202,,1*7A
$GBGSV,4,4,16,20,06,147,,27,04,050,,29,52,285,,30,47,023,,1*71
$GNGSA,A,3,01,02,03,08,,,,,,,,,2.3,2.1,1.0,1*3A
$GNGSA,A,3,76,,,,,,,,,,,,2.3,2.1,1.0,2*30
$GNGSA,A,3,21,26,,,,,,,,,,,2.3,2.1,1.0,3*37
$GNGSA,A,3,02,03,,,,,,,,,,,2.3,2.1,1.0,5*37
$GNVTG,,T,,M,0.0,N,0.0,K,A*3D
$GNDTM,P90,,0000.000020,S,00000.000001,W,0.991,W84*4E
$GNRMC,035806.00,A,2458.978732,N,12116.459986,E,0.0,,020425,3.1,W,A,V*67
$GNGNS,035806.00,2458.978732,N,12116.459986,E,AAANA,09,2.1,162.0,16.6,,,V*6B
$GNGGA,035806.00,2458.978732,N,12116.459986,E,1,09,2.1,162.0,M,16.6,M,,*75
$GPGSV,3,1,10,01,68,037,36,02,37,035,23,03,33,132,21,08,23,061,17,1*60
$GPGSV,3,2,10,07,41,209,,14,38,323,,17,30,292,,19,09,271,,1*68
$GPGSV,3,3,10,22,20,319,,30,45,261,,1*6B
$GLGSV,2,1,06,77,75,140,18,76,26,147,19,87,31,018,20,78,39,331,,1*7E
$GLGSV,2,2,06,88,56,288,,81,16,237,,1*77
$GAGSV,2,1,08,21,53,099,23,26,78,035,29,13,24,035,,19,00,000,,7*70
$GAGSV,2,2,08,23,59,344,,27,05,123,,31,12,314,,33,46,216,,7*75
$GQGSV,1,1,02,-190,68,077,24,-189,71,073,30,1*66
$GBGSV,4,1,16,04,37,118,27,08,16,172,19,01,49,135,,02,36,236,,1*71
$GBGSV,4,2,16,03,56,202,,05,14,254,,06,47,215,,07,58,330,,1*7D
$GBGSV,4,3,16,09,53,239,,10,49,312,,13,09,184,,16,42,202,,1*7A
$GBGSV,4,4,16,20,06,147,,27,04,050,,29,52,285,,30,47,023,,1*71
$GNGSA,A,3,01,02,03,08,,,,,,,,,2.3,2.1,1.0,1*3A
$GNGSA,A,3,76,,,,,,,,,,,,2.3,2.1,1.0,2*30
$GNGSA,A,3,21,26,,,,,,,,,,,2.3,2.1,1.0,3*37
$GNGSA,A,3,02,03,,,,,,,,,,,2.3,2.1,1.0,5*37
$GNVTG,,T,,M,0.0,N,0.0,K,A*3D
$GNDTM,P90,,0000.000020,S,00000.000001,W,0.991,W84*4E
$GNRMC,035807.00,A,2458.978549,N,12116.459735,E,0.0,,020425,3.1,W,A,V*6E
$GNGNS,035807.00,2458.978549,N,12116.459735,E,AAANA,09,2.1,161.6,16.6,,,V*67
$GNGGA,035807.00,2458.978549,N,12116.459735,E,1,09,2.1,161.6,M,16.6,M,,*79
$GPGSV,3,1,10,01,68,037,36,02,37,035,20,03,33,132,21,08,23,061,17,1*63
$GPGSV,3,2,10,17,30,292,16,07,41,209,,14,38,323,,19,09,271,,1*6F
$GPGSV,3,3,10,22,20,319,,30,45,261,,1*6B
$GLGSV,2,1,06,77,75,140,18,76,26,147,19,88,56,288,17,87,31,018,20,1*7D
$GLGSV,2,2,06,78,39,331,,81,16,237,,1*72
$GAGSV,2,1,08,21,53,099,23,26,78,035,30,13,24,035,,19,00,000,,7*78
$GAGSV,2,2,08,23,59,344,,27,05,123,,31,12,314,,33,46,216,,7*75
$GQGSV,1,1,02,-190,68,077,28,-189,71,073,31,1*6B
$GBGSV,4,1,16,04,37,118,27,08,16,172,19,01,49,135,,02,36,236,,1*71
$GBGSV,4,2,16,03,56,202,,05,14,254,,06,47,215,,07,58,330,,1*7D
$GBGSV,4,3,16,09,53,239,,10,49,312,,13,09,184,,16,42,202,,1*7A
$GBGSV,4,4,16,20,06,147,,27,04,050,,29,52,285,,30,47,023,,1*71
$GNGSA,A,3,01,02,03,08,17,,,,,,,,1.3,1.0,0.8,1*34
$GNGSA,A,3,76,88,,,,,,,,,,,1.3,1.0,0.8,2*38
$GNGSA,A,3,21,26,,,,,,,,,,,1.3,1.0,0.8,3*3F
$GNGSA,A,3,04,08,,,,,,,,,,,1.3,1.0,0.8,4*33
$GNGSA,A,3,02,03,,,,,,,,,,,1.3,1.0,0.8,5*3F
$GNVTG,,T,,M,0.0,N,0.0,K,A*3D
$GNDTM,P90,,0000.000020,S,00000.000001,W,0.991,W84*4E
$GNRMC,035808.00,A,2458.978199,N,12116.459124,E,0.0,,020425,3.1,W,A,V*6E
$GNGNS,035808.00,2458.978199,N,12116.459124,E,AAAAA,13,1.0,160.4,16.6,,,V*62
$GNGGA,035808.00,2458.978199,N,12116.459124,E,1,12,1.0,160.4,M,16.6,M,,*72
$GPGSV,3,1,10,01,68,037,37,02,37,035,21,03,33,132,22,08,23,061,17,1*60
$GPGSV,3,2,10,17,30,292,23,07,41,209,,14,38,323,,19,09,271,,1*69
$GPGSV,3,3,10,22,20,319,,30,45,261,,1*6B
$GLGSV,2,1,06,77,75,140,18,76,26,147,19,88,56,288,17,87,31,018,22,1*7F
$GLGSV,2,2,06,78,39,331,,81,16,237,,1*72
$GAGSV,2,1,08,21,53,099,23,26,78,035,30,13,24,035,,19,00,000,,7*78
$GAGSV,2,2,08,23,59,344,,27,05,123,,31,12,314,,33,46,216,,7*75
$GQGSV,1,1,02,-190,68,077,29,-189,71,073,31,1*6A
$GBGSV,4,1,16,04,37,118,27,08,16,172,18,01,49,135,,02,36,236,,1*70
$GBGSV,4,2,16,03,56,202,,05,14,254,,06,47,215,,07,58,330,,1*7D
$GBGSV,4,3,16,09,53,239,,10,49,312,,13,09,184,,16,42,202,,1*7A
$GBGSV,4,4,16,20,06,147,,27,04,050,,29,52,285,,30,47,023,,1*71
$GNGSA,A,3,01,02,03,08,17,,,,,,,,1.3,1.0,0.8,1*34
$GNGSA,A,3,76,88,,,,,,,,,,,1.3,1.0,0.8,2*38
$GNGSA,A,3,21,26,,,,,,,,,,,1.3,1.0,0.8,3*3F
$GNGSA,A,3,04,08,,,,,,,,,,,1.3,1.0,0.8,4*33
$GNGSA,A,3,02,03,,,,,,,,,,,1.3,1.0,0.8,5*3F
$GNVTG,,T,,M,0.0,N,0.0,K,A*3D
$GNDTM,P90,,0000.000020,S,00000.000001,W,0.991,W84*4E
$GNRMC,035809.00,A,2458.975573,N,12116.453627,E,0.0,,020425,3.1,W,A,V*6C
$GNGNS,035809.00,2458.975573,N,12116.453627,E,AAAAA,13,1.0,146.7,16.6,,,V*67
$GNGGA,035809.00,2458.975573,N,12116.453627,E,1,12,1.0,146.7,M,16.6,M,,*77
$GPGSV,3,1,10,01,68,037,37,02,37,035,21,03,33,132,22,08,23,061,17,1*60
$GPGSV,3,2,10,17,30,292,23,07,41,209,,14,38,323,,19,09,271,,1*69
$GPGSV,3,3,10,22,20,319,,30,45,261,,1*6B
$GLGSV,2,1,06,77,75,140,22,76,26,147,19,88,56,288,17,87,31,018,23,1*77
$GLGSV,2,2,06,78,39,331,,81,16,237,,1*72
$GAGSV,2,1,08,21,53,099,23,26,78,035,31,13,24,035,,19,00,000,,7*79
$GAGSV,2,2,08,23,59,344,,27,05,123,,31,12,314,,33,46,216,,7*75
$GQGSV,1,1,02,-190,68,077,28,-189,71,073,29,1*62
$GBGSV,4,1,16,04,37,118,27,08,16,172,18,01,49,135,,02,36,236,,1*70
$GBGSV,4,2,16,03,56,202,,05,14,254,,06,47,215,,07,58,330,,1*7D
$GBGSV,4,3,16,09,53,239,,10,49,312,,13,09,184,,16,42,202,,1*7A
$GBGSV,4,4,16,20,06,147,,27,04,050,,29,52,285,,30,47,023,,1*71
$GNGSA,A,3,01,02,03,08,17,,,,,,,,1.3,1.0,0.8,1*34
$GNGSA,A,3,76,88,,,,,,,,,,,1.3,1.0,0.8,2*38
$GNGSA,A,3,21,26,,,,,,,,,,,1.3,1.0,0.8,3*3F
$GNGSA,A,3,04,08,,,,,,,,,,,1.3,1.0,0.8,4*33
$GNGSA,A,3,02,03,,,,,,,,,,,1.3,1.0,0.8,5*3F
$GNVTG,,T,,M,0.0,N,0.0,K,A*3D
$GNDTM,P90,,0000.000020,S,00000.000001,W,0.991,W84*4E
$GNRMC,035810.00,A,2458.974769,N,12116.451726,E,0.0,,020425,3.1,W,A,V*6E
$GNGNS,035810.00,2458.974769,N,12116.451726,E,AAAAA,13,1.0,142.1,16.6,,,V*67
$GNGGA,035810.00,2458.974769,N,12116.451726,E,1,12,1.0,142.1,M,16.6,M,,*77
$GPGSV,3,1,10,01,68,037,36,02,37,035,18,03,33,132,20,08,23,061,17,1*69
$GPGSV,3,2,10,17,30,292,21,07,41,209,,14,38,323,,19,09,271,,1*6B
$GPGSV,3,3,10,22,20,319,,30,45,261,,1*6B
$GLGSV,2,1,06,77,75,140,21,76,26,147,19,88,56,288,20,87,31,018,25,1*76
$GLGSV,2,2,06,78,39,331,,81,16,237,,1*72
$GAGSV,2,1,08,21,53,099,23,26,78,035,31,13,24,035,,19,00,000,,7*79
$GAGSV,2,2,08,23,59,344,,27,05,123,,31,12,314,,33,46,216,,7*75
$GQGSV,1,1,02,-190,68,077,27,-189,71,073,30,1*65
$GBGSV,4,1,16,04,37,118,27,08,16,172,18,01,49,135,,02,36,236,,1*70
$GBGSV,4,2,16,03,56,202,,05,14,254,,06,47,215,,07,58,330,,1*7D
$GBGSV,4,3,16,09,53,239,,10,49,312,,13,09,184,,16,42,202,,1*7A
$GBGSV,4,4,16,20,06,147,,27,04,050,,29,52,285,,30,47,023,,1*71
$GNGSA,A,3,01,02,03,08,17,,,,,,,,1.3,1.0,0.8,1*34
$GNGSA,A,3,76,88,,,,,,,,,,,1.3,1.0,0.8,2*38
$GNGSA,A,3,21,26,,,,,,,,,,,1.3,1.0,0.8,3*3F
$GNGSA,A,3,04,08,,,,,,,,,,,1.3,1.0,0.8,4*33
$GNGSA,A,3,02,03,,,,,,,,,,,1.3,1.0,0.8,5*3F
$GNVTG,,T,,M,0.0,N,0.0,K,A*3D
$GNDTM,P90,,0000.000020,S,00000.000001,W,0.991,W84*4E
$GNRMC,035811.00,A,2458.974116,N,12116.450340,E,0.0,,020425,3.1,W,A,V*64
$GNGNS,035811.00,2458.974116,N,12116.450340,E,AAAAA,13,1.0,138.5,16.6,,,V*64
$GNGGA,035811.00,2458.974116,N,12116.450340,E,1,12,1.0,138.5,M,16.6,M,,*74
$GPGSV,3,1,10,01,68,037,36,02,37,035,20,03,33,132,20,08,23,061,17,1*62
$GPGSV,3,2,10,17,30,292,21,07,41,209,,14,38,323,,19,09,271,,1*6B
$GPGSV,3,3,10,22,20,319,,30,45,261,,1*6B
$GLGSV,2,1,06,77,75,140,21,76,26,147,19,88,56,288,22,87,31,018,24,1*75
$GLGSV,2,2,06,78,39,331,,81,16,237,,1*72
$GAGSV,2,1,07,21,53,099,23,26,78,035,32,13,24,035,,19,00,000,,7*75
$GAGSV,2,2,07,23,59,344,,27,05,123,,31,12,314,,7*4D
$GQGSV,1,1,02,-190,68,077,27,-189,71,073,30,1*65
$GBGSV,4,1,16,04,37,118,27,08,16,172,18,01,49,135,,02,36,236,,1*70
$GBGSV,4,2,16,03,56,202,,05,14,254,,06,47,215,,07,58,330,,1*7D
$GBGSV,4,3,16,09,53,239,,10,49,312,,13,09,184,,16,42,202,,1*7A
$GBGSV,4,4,16,20,06,147,,27,04,050,,29,52,285,,30,47,023,,1*71
$GNGSA,A,3,01,02,03,08,17,,,,,,,,1.3,1.0,0.8,1*34
$GNGSA,A,3,76,88,,,,,,,,,,,1.3,1.0,0.8,2*38
$GNGSA,A,3,21,26,,,,,,,,,,,1.3,1.0,0.8,3*3F
$GNGSA,A,3,04,08,,,,,,,,,,,1.3,1.0,0.8,4*33
$GNGSA,A,3,02,03,,,,,,,,,,,1.3,1.0,0.8,5*3F
$GNVTG,,T,,M,0.0,N,0.0,K,A*3D
$GNDTM,P90,,0000.000020,S,00000.000001,W,0.991,W84*4E
$GNRMC,035812.00,A,2458.975176,N,12116.451773,E,0.0,,020425,3.1,W,A,V*65
$GNGNS,035812.00,2458.975176,N,12116.451773,E,AAAAA,13,1.0,141.4,16.6,,,V*6A
$GNGGA,035812.00,2458.975176,N,12116.451773,E,1,12,1.0,141.4,M,16.6,M,,*7A
$GPGSV,3,1,10,01,68,037,37,02,37,035,21,03,33,132,20,08,23,061,19,1*6C
$GPGSV,3,2,10,17,30,292,21,07,41,209,,14,38,323,,19,09,271,,1*6B
$GPGSV,3,3,10,22,20,319,,30,45,261,,1*6B
$GLGSV,2,1,06,77,75,140,20,76,26,147,22,88,56,288,22,87,31,018,24,1*7C
$GLGSV,2,2,06,78,39,331,,81,16,237,,1*72
$GAGSV,2,1,07,21,53,099,23,26,78,035,32,13,24,035,,19,00,000,,7*75
$GAGSV,2,2,07,23,59,344,,27,05,123,,31,12,314,,7*4D
$GQGSV,1,1,02,-190,68,077,29,-189,71,073,31,1*6A
$GBGSV,4,1,16,04,37,118,27,08,16,172,18,01,49,135,,02,36,236,,1*70
$GBGSV,4,2,16,03,56,202,,05,14,254,,06,47,215,,07,58,330,,1*7D
$GBGSV,4,3,16,09,53,239,,10,49,312,,13,09,184,,16,42,202,,1*7A
$GBGSV,4,4,16,20,06,147,,27,04,050,,29,52,285,,30,47,023,,1*71
$GNGSA,A,3,01,02,03,08,17,,,,,,,,1.3,1.0,0.8,1*34
$GNGSA,A,3,76,88,,,,,,,,,,,1.3,1.0,0.8,2*38
$GNGSA,A,3,21,26,,,,,,,,,,,1.3,1.0,0.8,3*3F
$GNGSA,A,3,04,08,,,,,,,,,,,1.3,1.0,0.8,4*33
$GNGSA,A,3,02,03,,,,,,,,,,,1.3,1.0,0.8,5*3F
$GNVTG,,T,,M,0.0,N,0.0,K,A*3D
$GNDTM,P90,,0000.000020,S,00000.000001,W,0.991,W84*4E
$GNRMC,035813.00,A,2458.975165,N,12116.451977,E,0.0,,020425,3.1,W,A,V*6C
$GNGNS,035813.00,2458.975165,N,12116.451977,E,AAAAA,13,1.0,140.7,16.6,,,V*61
$GNGGA,035813.00,2458.975165,N,12116.451977,E,1,12,1.0,140.7,M,16.6,M,,*71
$GPGSV,3,1,10,01,68,037,33,02,37,035,21,03,33,132,20,08,23,061,19,1*68
$GPGSV,3,2,10,17,30,292,18,07,41,209,,14,38,323,,19,09,271,,1*61
$GPGSV,3,3,10,22,20,319,,30,45,261,,1*6B
$GLGSV,2,1,06,77,75,140,20,76,26,147,22,88,56,288,19,87,31,018,23,1*73
$GLGSV,2,2,06,78,39,331,,81,16,237,,1*72
$GAGSV,2,1,07,21,53,099,23,26,78,035,30,13,24,035,,19,00,000,,7*77
$GAGSV,2,2,07,23,59,344,,27,05,123,,31,12,314,,7*4D
$GQGSV,1,1,02,-190,68,077,24,-189,71,073,30,1*66
$GBGSV,4,1,16,04,37,118,27,08,16,172,18,01,49,135,,02,36,236,,1*70
$GBGSV,4,2,16,03,56,202,,05,14,254,,06,47,215,,07,58,330,,1*7D
$GBGSV,4,3,16,09,53,239,,10,49,312,,13,09,184,,16,42,202,,1*7A
$GBGSV,4,4,16,20,06,147,,27,04,050,,29,52,285,,30,47,023,,1*71
$GNGSA,A,3,01,02,03,08,17,,,,,,,,1.3,1.0,0.8,1*34
$GNGSA,A,3,76,88,,,,,,,,,,,1.3,1.0,0.8,2*38
$GNGSA,A,3,21,26,,,,,,,,,,,1.3,1.0,0.8,3*3F
$GNGSA,A,3,04,08,,,,,,,,,,,1.3,1.0,0.8,4*33
$GNGSA,A,3,02,03,,,,,,,,,,,1.3,1.0,0.8,5*3F
$GNVTG,,T,,M,0.0,N,0.0,K,A*3D
$GNDTM,P90,,0000.000020,S,00000.000001,W,0.991,W84*4E
$GNRMC,035814.00,A,2458.974707,N,12116.450738,E,0.0,,020425,3.1,W,A,V*6C
$GNGNS,035814.00,2458.974707,N,12116.450738,E,AAAAA,13,1.0,139.0,16.6,,,V*68
$GNGGA,035814.00,2458.974707,N,12116.450738,E,1,12,1.0,139.0,M,16.6,M,,*78
$GPGSV,3,1,10,01,68,037,35,02,37,035,21,03,33,132,20,08,23,061,21,1*65
$GPGSV,3,2,10,17,30,292,18,07,41,209,,14,38,323,,19,09,271,,1*61
$GPGSV,3,3,10,22,20,319,,30,45,261,,1*6B
$GLGSV,2,1,06,77,75,140,20,76,26,147,19,88,56,288,19,87,31,018,20,1*78
$GLGSV,2,2,06,78,39,331,,81,16,237,,1*72
$GAGSV,2,1,07,21,53,099,22,26,78,035,32,13,24,035,,19,00,000,,7*74
$GAGSV,2,2,07,23,59,344,,27,05,123,,31,12,314,,7*4D
$GQGSV,1,1,02,-190,68,077,28,-189,71,073,31,1*6B
$GBGSV,4,1,16,04,37,118,30,08,16,172,18,01,49,135,,02,36,236,,1*76
$GBGSV,4,2,16,03,56,202,,05,14,254,,06,47,215,,07,58,330,,1*7D
$GBGSV,4,3,16,09,53,239,,10,49,312,,13,09,184,,16,42,202,,1*7A
$GBGSV,4,4,16,20,06,147,,27,04,050,,29,52,285,,30,47,023,,1*71
$GNGSA,A,3,01,02,03,08,17,,,,,,,,1.4,1.1,0.8,1*32
$GNGSA,A,3,76,88,,,,,,,,,,,1.4,1.1,0.8,2*3E
$GNGSA,A,3,21,26,,,,,,,,,,,1.4,1.1,0.8,3*39
$GNGSA,A,3,04,,,,,,,,,,,,1.4,1.1,0.8,4*3D
$GNGSA,A,3,02,03,,,,,,,,,,,1.4,1.1,0.8,5*39
$GNVTG,,T,,M,0.0,N,0.0,K,A*3D
$GNDTM,P90,,0000.000020,S,00000.000001,W,0.991,W84*4E
$GNRMC,035815.00,A,2458.975387,N,12116.450649,E,0.0,,020425,3.1,W,A,V*67
$GNGNS,035815.00,2458.975387,N,12116.450649,E,AAAAA,12,1.1,140.2,16.6,,,V*6F
$GNGGA,035815.00,2458.975387,N,12116.450649,E,1,12,1.1,140.2,M,16.6,M,,*7E
$GPGSV,3,1,10,01,68,037,34,02,37,035,20,03,33,132,22,08,23,061,21,1*67
$GPGSV,3,2,10,17,30,292,18,30,45,261,19,07,41,209,,14,38,323,,1*6B
$GPGSV,3,3,10,19,09,271,,22,20,319,,1*69
$GLGSV,2,1,06,77,75,140,18,76,26,147,21,88,56,288,20,87,31,018,21,1*73
$GLGSV,2,2,06,78,39,331,,81,16,237,,1*72
$GAGSV,2,1,07,21,53,099,25,26,78,035,33,13,24,035,,19,00,000,,7*72
$GAGSV,2,2,07,23,59,344,,27,05,123,,31,12,314,,7*4D
$GQGSV,1,1,02,-190,68,077,30,-189,71,073,32,1*61
$GBGSV,4,1,16,04,37,118,30,08,16,172,18,01,49,135,,02,36,236,,1*76
$GBGSV,4,2,16,03,56,202,,05,14,254,,06,47,215,,07,58,330,,1*7D
$GBGSV,4,3,16,09,53,239,,10,49,312,,13,09,184,,16,42,202,,1*7A
$GBGSV,4,4,16,20,06,147,,27,04,050,,29,52,285,,30,47,023,,1*71
$GNGSA,A,3,01,02,03,08,17,30,,,,,,,1.3,1.0,0.8,1*37
$GNGSA,A,3,76,88,,,,,,,,,,,1.3,1.0,0.8,2*38
$GNGSA,A,3,21,26,,,,,,,,,,,1.3,1.0,0.8,3*3F
$GNGSA,A,3,04,,,,,,,,,,,,1.3,1.0,0.8,4*3B
$GNGSA,A,3,02,03,,,,,,,,,,,1.3,1.0,0.8,5*3F
$GNVTG,,T,,M,0.0,N,0.0,K,A*3D
$GNDTM,P90,,0000.000020,S,00000.000001,W,0.991,W84*4E
$GNRMC,035816.00,A,2458.975627,N,12116.450670,E,0.0,,020425,3.1,W,A,V*61
$GNGNS,035816.00,2458.975627,N,12116.450670,E,AAAAA,13,1.0,140.9,16.6,,,V*62
$GNGGA,035816.00,2458.975627,N,12116.450670,E,1,12,1.0,140.9,M,16.6,M,,*72
$GPGSV,3,1,10,01,68,037,33,02,37,035,20,03,33,132,25,08,23,061,21,1*67
$GPGSV,3,2,10,17,30,292,19,30,45,261,22,07,41,209,,14,38,323,,1*62
$GPGSV,3,3,10,19,09,271,,22,20,319,,1*69
$GLGSV,2,1,06,77,75,140,18,76,26,147,21,88,56,288,20,87,31,018,21,1*73
$GLGSV,2,2,06,78,39,331,,81,16,237,,1*72
$GAGSV,2,1,07,21,53,099,25,26,78,035,33,13,24,035,,19,00,000,,7*72
$GAGSV,2,2,07,23,59,344,,27,05,123,,31,12,314,,7*4D
$GQGSV,1,1,02,-190,68,077,30,-189,71,073,26,1*64
$GBGSV,4,1,16,04,37,118,30,08,16,172,18,09,53,239,21,01,49,135,,1*72
$GBGSV,4,2,16,02,36,236,,03,56,202,,05,14,254,,06,47,215,,1*77
$GBGSV,4,3,16,07,58,330,,10,49,312,,13,09,184,,16,42,202,,1*77
$GBGSV,4,4,16,20,06,147,,27,04,050,,29,52,285,,30,47,023,,1*71
$GNGSA,A,3,01,02,03,08,17,30,,,,,,,1.3,1.0,0.8,1*37
$GNGSA,A,3,76,88,,,,,,,,,,,1.3,1.0,0.8,2*38
$GNGSA,A,3,21,26,,,,,,,,,,,1.3,1.0,0.8,3*3F
$GNGSA,A,3,04,09,,,,,,,,,,,1.3,1.0,0.8,4*32
$GNGSA,A,3,02,03,,,,,,,,,,,1.3,1.0,0.8,5*3F
$GNVTG,,T,,M,0.0,N,0.0,K,A*3D
$GNDTM,P90,,0000.000020,S,00000.000001,W,0.991,W84*4E
$GNRMC,035817.00,A,2458.975561,N,12116.450012,E,0.0,,020425,3.1,W,A,V*63
$GNGNS,035817.00,2458.975561,N,12116.450012,E,AAAAA,14,1.0,139.1,16.6,,,V*61
$GNGGA,035817.00,2458.975561,N,12116.450012,E,1,12,1.0,139.1,M,16.6,M,,*76
$GPGSV,3,1,10,01,68,037,33,02,37,035,22,03,33,132,25,08,23,061,21,1*65
$GPGSV,3,2,10,17,30,292,19,30,45,261,22,07,41,209,,14,38,323,,1*62
$GPGSV,3,3,10,19,09,271,,22,20,319,,1*69
$GLGSV,2,1,06,77,75,140,18,76,26,147,20,88,56,288,20,87,31,018,23,1*70
$GLGSV,2,2,06,78,39,331,,81,16,237,,1*72
$GAGSV,2,1,07,21,53,099,27,26,78,035,32,13,24,035,,19,00,000,,7*71
$GAGSV,2,2,07,23,59,344,,27,05,123,,31,12,314,,7*4D
$GQGSV,1,1,02,-190,68,077,19,-189,71,073,29,1*60
$GBGSV,4,1,16,04,37,118,31,08,16,172,18,09,53,239,21,01,49,135,,1*73
$GBGSV,4,2,16,02,36,236,,03,56,202,,05,14,254,,06,47,215,,1*77
$GBGSV,4,3,16,07,58,330,,10,49,312,,13,09,184,,16,42,202,,1*77
$GBGSV,4,4,16,20,06,147,,27,04,050,,29,52,285,,30,47,023,,1*71
$GNGSA,A,3,01,02,03,08,17,30,,,,,,,1.3,1.0,0.8,1*37
$GNGSA,A,3,76,88,,,,,,,,,,,1.3,1.0,0.8,2*38
$GNGSA,A,3,21,26,,,,,,,,,,,1.3,1.0,0.8,3*3F
$GNGSA,A,3,04,09,,,,,,,,,,,1.3,1.0,0.8,4*32
$GNGSA,A,3,02,03,,,,,,,,,,,1.3,1.0,0.8,5*3F
$GNVTG,,T,,M,0.0,N,0.0,K,A*3D
$GNDTM,P90,,0000.000020,S,00000.000001,W,0.991,W84*4E
$GNRMC,035818.00,A,2458.975265,N,12116.450108,E,0.0,,020425,3.1,W,A,V*65
$GNGNS,035818.00,2458.975265,N,12116.450108,E,AAAAA,14,1.0,138.4,16.6,,,V*63
$GNGGA,035818.00,2458.975265,N,12116.450108,E,1,12,1.0,138.4,M,16.6,M,,*74
$GPGSV,3,1,10,01,68,037,34,02,37,035,25,03,33,132,27,08,23,061,17,1*62
$GPGSV,3,2,10,14,38,323,17,17,30,292,23,30,45,261,22,07,41,209,,1*6D
$GPGSV,3,3,10,19,09,271,,22,20,319,,1*69
$GLGSV,2,1,06,77,75,140,18,76,26,147,20,88,56,288,20,87,31,018,24,1*77
$GLGSV,2,2,06,78,39,331,,81,16,237,,1*72
$GAGSV,2,1,07,21,53,099,26,26,78,035,35,13,24,035,,19,00,000,,7*77
$GAGSV,2,2,07,23,59,344,,27,05,123,,31,12,314,,7*4D
$GQGSV,1,1,02,-190,68,077,21,-189,71,073,32,1*61
$GBGSV,4,1,16,04,37,118,31,08,16,172,18,09,53,239,21,01,49,135,,1*73
$GBGSV,4,2,16,02,36,236,,03,56,202,,05,14,254,,06,47,215,,1*77
$GBGSV,4,3,16,07,58,330,,10,49,312,,13,09,184,,16,42,202,,1*77
$GBGSV,4,4,16,20,06,147,,27,04,050,,29,52,285,,30,47,023,,1*71
$GNGSA,A,3,01,02,03,08,14,17,30,,,,,,1.2,0.9,0.8,1*3B
$GNGSA,A,3,76,88,,,,,,,,,,,1.2,0.9,0.8,2*31
$GNGSA,A,3,21,26,,,,,,,,,,,1.2,0.9,0.8,3*36
$GNGSA,A,3,04,09,,,,,,,,,,,1.2,0.9,0.8,4*3B
$GNGSA,A,3,02,03,,,,,,,,,,,1.2,0.9,0.8,5*36
$GNVTG,,T,,M,0.0,N,0.0,K,A*3D
$GNDTM,P90,,0000.000020,S,00000.000001,W,0.991,W84*4E
$GNRMC,035819.00,A,2458.975189,N,12116.449867,E,0.0,,020425,3.1,W,A,V*6D
$GNGNS,035819.00,2458.975189,N,12116.449867,E,AAAAA,15,0.9,138.1,16.6,,,V*67
$GNGGA,035819.00,2458.975189,N,12116.449867,E,1,12,0.9,138.1,M,16.6,M,,*71
$GPGSV,3,1,10,01,68,037,35,02,37,035,28,03,33,132,27,07,41,209,16,1*68
$GPGSV,3,2,10,08,23,061,17,14,38,323,17,17,30,292,24,30,45,261,22,1*6B
$GPGSV,3,3,10,19,09,271,,22,20,319,,1*69
$GLGSV,2,1,06,77,75,140,18,76,26,147,20,88,56,288,20,87,31,018,26,1*75
$GLGSV,2,2,06,78,39,331,,81,16,237,,1*72
$GAGSV,2,1,07,21,53,099,24,26,78,035,36,13,24,035,,19,00,000,,7*76
$GAGSV,2,2,07,23,59,344,,27,05,123,,31,12,314,,7*4D
$GQGSV,1,1,02,-190,68,077,21,-189,71,073,32,1*61
$GBGSV,4,1,16,04,37,118,31,08,16,172,18,09,53,239,21,01,49,135,,1*73
$GBGSV,4,2,16,02,36,236,,03,56,202,,05,14,254,,06,47,215,,1*77
$GBGSV,4,3,16,07,58,330,,10,49,312,,13,09,184,,16,42,202,,1*77
$GBGSV,4,4,16,20,06,147,,27,04,050,,29,52,285,,30,47,023,,1*71
$GNGSA,A,3,01,02,03,07,08,14,17,30,,,,,1.2,0.8,0.8,1*3D
$GNGSA,A,3,76,88,,,,,,,,,,,1.2,0.8,0.8,2*30
$GNGSA,A,3,21,26,,,,,,,,,,,1.2,0.8,0.8,3*37
$GNGSA,A,3,04,09,,,,,,,,,,,1.2,0.8,0.8,4*3A
$GNGSA,A,3,02,03,,,,,,,,,,,1.2,0.8,0.8,5*37
$GNVTG,,T,,M,0.0,N,0.0,K,A*3D
$GNDTM,P90,,0000.000020,S,00000.000001,W,0.991,W84*4E
$GNRMC,035820.00,A,2458.975225,N,12116.448969,E,0.0,,020425,3.1,W,A,V*6C
$GNGNS,035820.00,2458.975225,N,12116.448969,E,AAAAA,16,0.8,136.0,16.6,,,V*6B
$GNGGA,035820.00,2458.975225,N,12116.448969,E,1,12,0.8,136.0,M,16.6,M,,*7E
$GPGSV,3,1,10,01,68,037,34,02,37,035,28,03,33,132,26,07,41,209,16,1*68
$GPGSV,3,2,10,08,23,061,17,14,38,323,17,17,30,292,24,30,45,261,22,1*6B
$GPGSV,3,3,10,19,09,271,,22,20,319,,1*69
$GLGSV,2,1,06,77,75,140,20,76,26,147,20,88,56,288,20,87,31,018,25,1*7D
$GLGSV,2,2,06,78,39,331,,81,16,237,,1*72
$GAGSV,2,1,07,21,53,099,23,26,78,035,35,13,24,035,,19,00,000,,7*72
$GAGSV,2,2,07,23,59,344,,27,05,123,,31,12,314,,7*4D
$GQGSV,1,1,02,-190,68,077,21,-189,71,073,31,1*62
$GBGSV,4,1,16,04,37,118,29,08,16,172,18,09,53,239,21,01,49,135,,1*7A
$GBGSV,4,2,16,02,36,236,,03,56,202,,05,14,254,,06,47,215,,1*77
$GBGSV,4,3,16,07,58,330,,10,49,312,,13,09,184,,16,42,202,,1*77
$GBGSV,4,4,16,20,06,147,,27,04,050,,29,52,285,,30,47,023,,1*71
$GNGSA,A,3,01,02,03,07,08,14,17,30,,,,,1.2,0.8,0.8,1*3D
$GNGSA,A,3,76,88,,,,,,,,,,,1.2,0.8,0.8,2*30
$GNGSA,A,3,21,26,,,,,,,,,,,1.2,0.8,0.8,3*37
$GNGSA,A,3,04,09,,,,,,,,,,,1.2,0.8,0.8,4*3A
$GNGSA,A,3,02,03,,,,,,,,,,,1.2,0.8,0.8,5*37
$GNVTG,,T,,M,0.0,N,0.0,K,A*3D
$GNDTM,P90,,0000.000020,S,00000.000001,W,0.991,W84*4E
$GNRMC,035821.00,A,2458.975998,N,12116.448454,E,0.0,,020425,3.1,W,A,V*63
$GNGNS,035821.00,2458.975998,N,12116.448454,E,AAAAA,16,0.8,137.4,16.6,,,V*61
$GNGGA,035821.00,2458.975998,N,12116.448454,E,1,12,0.8,137.4,M,16.6,M,,*74
$GPGSV,3,1,10,01,68,037,33,02,37,035,22,03,33,132,24,07,41,209,16,1*67
$GPGSV,3,2,10,08,23,061,18,14,38,323,17,17,30,292,24,22,20,319,15,1*6E
$GPGSV,3,3,10,30,45,261,22,19,09,271,,1*67
$GLGSV,2,1,06,77,75,140,22,76,26,147,20,88,56,288,20,87,31,018,23,1*79
$GLGSV,2,2,06,78,39,331,,81,16,237,,1*72
$GAGSV,2,1,07,21,53,099,27,26,78,035,34,13,24,035,,19,00,000,,7*77
$GAGSV,2,2,07,23,59,344,,27,05,123,,31,12,314,,7*4D
$GQGSV,1,1,02,-190,68,077,18,-189,71,073,34,1*6D
$GBGSV,4,1,16,04,37,118,29,08,16,172,18,09,53,239,21,01,49,135,,1*7A
$GBGSV,4,2,16,02,36,236,,03,56,202,,05,14,254,,06,47,215,,1*77
$GBGSV,4,3,16,07,58,330,,10,49,312,,13,09,184,,16,42,202,,1*77
$GBGSV,4,4,16,20,06,147,,27,04,050,,29,52,285,,30,47,023,,1*71
$GNGSA,A,3,01,02,03,07,08,14,17,22,30,,,,1.1,0.8,0.8,1*3E
$GNGSA,A,3,76,,,,,,,,,,,,1.1,0.8,0.8,2*33
$GNGSA,A,3,21,26,,,,,,,,,,,1.1,0.8,0.8,3*34
$GNGSA,A,3,04,09,,,,,,,,,,,1.1,0.8,0.8,4*39
$GNGSA,A,3,02,03,,,,,,,,,,,1.1,0.8,0.8,5*34
$GNVTG,,T,,M,0.0,N,0.0,K,A*3D
$GNDTM,P90,,0000.000020,S,00000.000001,W,0.991,W84*4E
$GNRMC,035822.00,A,2458.976063,N,12116.448587,E,0.0,,020425,3.1,W,A,V*61
$GNGNS,035822.00,2458.976063,N,12116.448587,E,AAAAA,16,0.8,137.3,16.6,,,V*64
$GNGGA,035822.00,2458.976063,N,12116.448587,E,1,12,0.8,137.3,M,16.6,M,,*71
$GPGSV,3,1,10,01,68,037,37,02,37,035,27,03,33,132,25,07,41,209,16,1*67
$GPGSV,3,2,10,08,23,061,18,14,38,323,17,17,30,292,24,22,20,319,15,1*6E
$GPGSV,3,3,10,30,45,261,22,19,09,271,,1*67
$GLGSV,2,1,06,77,75,140,22,76,26,147,17,88,56,288,20,87,31,018,23,1*7D
$GLGSV,2,2,06,78,39,331,,81,16,237,,1*72
$GAGSV,2,1,07,21,53,099,27,26,78,035,34,13,24,035,,19,00,000,,7*77
$GAGSV,2,2,07,23,59,344,,27,05,123,,31,12,314,,7*4D
$GQGSV,1,1,02,-190,68,077,27,-189,71,073,34,1*61
$GBGSV,4,1,16,04,37,118,29,08,16,172,18,09,53,239,21,01,49,135,,1*7A
$GBGSV,4,2,16,02,36,236,,03,56,202,,05,14,254,,06,47,215,,1*77
$GBGSV,4,3,16,07,58,330,,10,49,312,,13,09,184,,16,42,202,,1*77
$GBGSV,4,4,16,20,06,147,,27,04,050,,29,52,285,,30,47,023,,1*71
$GNGSA,A,3,01,02,03,07,08,14,17,22,,,,,1.2,0.9,0.8,1*3F
$GNGSA,A,3,76,,,,,,,,,,,,1.2,0.9,0.8,2*31
$GNGSA,A,3,21,26,,,,,,,,,,,1.2,0.9,0.8,3*36
$GNGSA,A,3,04,,,,,,,,,,,,1.2,0.9,0.8,4*32
$GNGSA,A,3,02,03,,,,,,,,,,,1.2,0.9,0.8,5*36
$GNVTG,,T,,M,0.0,N,0.0,K,A*3D
$GNDTM,P90,,0000.000020,S,00000.000001,W,0.991,W84*4E
$GNRMC,035823.00,A,2458.976074,N,12116.448605,E,0.0,,020425,3.1,W,A,V*6F
$GNGNS,035823.00,2458.976074,N,12116.448605,E,AAAAA,14,0.9,137.4,16.6,,,V*6E
$GNGGA,035823.00,2458.976074,N,12116.448605,E,1,12,0.9,137.4,M,16.6,M,,*79
$GPGSV,3,1,10,01,68,037,37,02,37,035,23,03,33,132,26,07,41,209,16,1*60
$GPGSV,3,2,10,08,23,061,18,14,38,323,17,17,30,292,18,22,20,319,15,1*61
$GPGSV,3,3,10,30,45,261,22,19,09,271,,1*67
$GLGSV,2,1,06,77,75,140,22,76,26,147,17,88,56,288,20,87,31,018,24,1*7A
$GLGSV,2,2,06,78,39,331,,81,16,237,,1*72
$GAGSV,2,1,07,13,24,035,18,21,53,099,29,26,78,035,35,19,00,000,,7*71
$GAGSV,2,2,07,23,59,344,,27,05,123,,31,12,314,,7*4D
$GQGSV,1,1,02,-190,68,077,28,-189,71,073,33,1*69
$GBGSV,4,1,16,04,37,118,31,08,16,172,18,09,53,239,21,01,49,135,,1*73
$GBGSV,4,2,16,02,36,236,,03,56,202,,05,14,254,,06,47,215,,1*77
$GBGSV,4,3,16,07,58,330,,10,49,312,,13,09,184,,16,42,202,,1*77
$GBGSV,4,4,16,20,06,147,,27,04,050,,29,52,285,,30,47,023,,1*71
$GNGSA,A,3,01,02,03,07,08,14,17,22,,,,,1.1,0.8,0.8,1*3D
$GNGSA,A,3,76,,,,,,,,,,,,1.1,0.8,0.8,2*33
$GNGSA,A,3,13,21,26,,,,,,,,,,1.1,0.8,0.8,3*36
$GNGSA,A,3,04,,,,,,,,,,,,1.1,0.8,0.8,4*30
$GNGSA,A,3,02,03,,,,,,,,,,,1.1,0.8,0.8,5*34
$GNVTG,,T,,M,0.0,N,0.0,K,A*3D
$GNDTM,P90,,0000.000020,S,00000.000001,W,0.991,W84*4E
$GNRMC,035824.00,A,2458.975949,N,12116.448642,E,0.0,,020425,3.1,W,A,V*6F
$GNGNS,035824.00,2458.975949,N,12116.448642,E,AAAAA,15,0.8,137.2,16.6,,,V*68
$GNGGA,035824.00,2458.975949,N,12116.448642,E,1,12,0.8,137.2,M,16.6,M,,*7E
$GPGSV,3,1,10,01,68,037,37,02,37,035,21,03,33,132,25,07,41,209,16,1*61
$GPGSV,3,2,10,08,23,061,18,14,38,323,17,17,30,292,18,22,20,319,15,1*61
$GPGSV,3,3,10,30,45,261,16,19,09,271,,1*60
$GLGSV,2,1,06,77,75,140,22,76,26,147,17,88,56,288,20,87,31,018,25,1*7B
$GLGSV,2,2,06,78,39,331,,81,16,237,,1*72
$GAGSV,2,1,07,13,24,035,18,21,53,099,28,26,78,035,35,19,00,000,,7*70
$GAGSV,2,2,07,23,59,344,,27,05,123,,31,12,314,,7*4D
$GQGSV,1,1,02,-190,68,077,28,-189,71,073,33,1*69
$GBGSV,4,1,16,04,37,118,31,08,16,172,18,09,53,239,21,01,49,135,,1*73
$GBGSV,4,2,16,02,36,236,,03,56,202,,05,14,254,,06,47,215,,1*77
$GBGSV,4,3,16,07,58,330,,10,49,312,,13,09,184,,16,42,202,,1*77
$GBGSV,4,4,16,20,06,147,,27,04,050,,29,52,285,,30,47,023,,1*71
$GNGSA,A,3,01,02,03,07,08,17,22,30,,,,,1.1,0.8,0.8,1*3B
$GNGSA,A,3,76,,,,,,,,,,,,1.1,0.8,0.8,2*33
$GNGSA,A,3,13,21,26,,,,,,,,,,1.1,0.8,0.8,3*36
$GNGSA,A,3,04,,,,,,,,,,,,1.1,0.8,0.8,4*30
$GNGSA,A,3,02,03,,,,,,,,,,,1.1,0.8,0.8,5*34
$GNVTG,,T,,M,0.0,N,0.0,K,A*3D
$GNDTM,P90,,0000.000020,S,00000.000001,W,0.991,W84*4E
$GNRMC,035825.00,A,2458.975978,N,12116.448678,E,0.0,,020425,3.1,W,A,V*65
$GNGNS,035825.00,2458.975978,N,12116.448678,E,AAAAA,15,0.8,137.3,16.6,,,V*63
$GNGGA,035825.00,2458.975978,N,12116.448678,E,1,12,0.8,137.3,M,16.6,M,,*75
$GPGSV,3,1,10,01,68,037,37,02,37,035,23,03,33,132,24,07,41,209,16,1*62
$GPGSV,3,2,10,08,23,061,18,14,38,323,17,17,30,292,18,22,20,319,15,1*61
$GPGSV,3,3,10,30,45,261,16,19,09,271,,1*60
$GLGSV,2,1,06,77,75,140,22,76,26,147,20,88,56,288,20,87,31,018,26,1*7C
$GLGSV,2,2,06,78,39,331,,81,16,237,,1*72
$GAGSV,2,1,07,13,24,035,24,21,53,099,30,26,78,035,36,19,00,000,,7*75
$GAGSV,2,2,07,23,59,344,,27,05,123,,31,12,314,,7*4D
$GQGSV,1,1,02,-190,68,077,25,-189,71,073,32,1*65
$GBGSV,4,1,16,04,37,118,31,08,16,172,18,09,53,239,21,01,49,135,,1*73
$GBGSV,4,2,16,02,36,236,,03,56,202,,05,14,254,,06,47,215,,1*77
$GBGSV,4,3,16,07,58,330,,10,49,312,,13,09,184,,16,42,202,,1*77
$GBGSV,4,4,16,20,06,147,,27,04,050,,29,52,285,,30,47,023,,1*71
$GNGSA,A,3,01,02,03,08,17,22,30,,,,,,1.2,0.9,0.8,1*3E
$GNGSA,A,3,76,,,,,,,,,,,,1.2,0.9,0.8,2*31
$GNGSA,A,3,13,21,26,,,,,,,,,,1.2,0.9,0.8,3*34
$GNGSA,A,3,04,,,,,,,,,,,,1.2,0.9,0.8,4*32
$GNGSA,A,3,02,03,,,,,,,,,,,1.2,0.9,0.8,5*36
$GNVTG,,T,,M,0.0,N,0.0,K,A*3D
$GNDTM,P90,,0000.000020,S,00000.000001,W,0.991,W84*4E
$GNRMC,035826.00,A,2458.975483,N,12116.448434,E,0.0,,020425,3.1,W,A,V*65
$GNGNS,035826.00,2458.975483,N,12116.448434,E,AAAAA,14,0.9,138.0,16.6,,,V*6F
$GNGGA,035826.00,2458.975483,N,12116.448434,E,1,12,0.9,138.0,M,16.6,M,,*78
$GPGSV,3,1,10,01,68,037,38,02,37,035,25,03,33,132,22,07,41,209,16,1*6D
$GPGSV,3,2,10,08,23,061,18,14,38,323,17,17,30,292,18,22,20,319,15,1*61
$GPGSV,3,3,10,30,45,261,16,19,09,271,,1*60
$GLGSV,2,1,06,77,75,140,22,76,26,147,20,88,56,288,20,87,31,018,27,1*7D
$GLGSV,2,2,06,78,39,331,,81,16,237,,1*72
$GAGSV,2,1,07,13,24,035,24,21,53,099,31,26,78,035,36,19,00,000,,7*74
$GAGSV,2,2,07,23,59,344,,27,05,123,,31,12,314,,7*4D
$GQGSV,1,1,02,-190,68,077,25,-189,71,073,29,1*6F
$GBGSV,4,1,16,04,37,118,29,08,16,172,18,09,53,239,21,01,49,135,,1*7A
$GBGSV,4,2,16,02,36,236,,03,56,202,,05,14,254,,06,47,215,,1*77
$GBGSV,4,3,16,07,58,330,,10,49,312,,13,09,184,,16,42,202,,1*77
$GBGSV,4,4,16,20,06,147,,27,04,050,,29,52,285,,30,47,023,,1*71
$GNGSA,A,3,01,02,03,08,17,22,30,,,,,,1.2,0.9,0.8,1*3E
$GNGSA,A,3,76,,,,,,,,,,,,1.2,0.9,0.8,2*31
$GNGSA,A,3,13,21,26,,,,,,,,,,1.2,0.9,0.8,3*34
$GNGSA,A,3,04,,,,,,,,,,,,1.2,0.9,0.8,4*32
$GNGSA,A,3,02,03,,,,,,,,,,,1.2,0.9,0.8,5*36
$GNVTG,,T,,M,0.0,N,0.0,K,A*3D
$GNDTM,P90,,0000.000020,S,00000.000001,W,0.991,W84*4E
$GNRMC,035827.00,A,2458.975168,N,12116.448531,E,0.0,,020425,3.1,W,A,V*60
$GNGNS,035827.00,2458.975168,N,12116.448531,E,AAAAA,14,0.9,137.5,16.6,,,V*60
$GNGGA,035827.00,2458.975168,N,12116.448531,E,1,12,0.9,137.5,M,16.6,M,,*77
$GPGSV,3,1,10,01,68,037,38,02,37,035,27,03,33,132,23,07,41,209,16,1*6E
$GPGSV,3,2,10,08,23,061,18,14,38,323,17,17,30,292,18,22,20,319,15,1*61
$GPGSV,3,3,10,30,45,261,16,19,09,271,,1*60
$GLGSV,2,1,06,77,75,140,22,76,26,147,20,88,56,288,15,87,31,018,27,1*7B
$GLGSV,2,2,06,78,39,331,,81,16,237,,1*72
$GAGSV,2,1,07,13,24,035,24,21,53,099,29,26,78,035,36,19,00,000,,7*7D
$GAGSV,2,2,07,23,59,344,,27,05,123,,31,12,314,,7*4D
$GQGSV,1,1,02,-190,68,077,23,-189,71,073,32,1*63
$GBGSV,4,1,16,04,37,118,29,08,16,172,18,09,53,239,21,01,49,135,,1*7A
$GBGSV,4,2,16,02,36,236,,03,56,202,,05,14,254,,06,47,215,,1*77
$GBGSV,4,3,16,07,58,330,,10,49,312,,13,09,184,,16,42,202,,1*77
$GBGSV,4,4,16,20,06,147,,27,04,050,,29,52,285,,30,47,023,,1*71
$GNGSA,A,3,01,02,03,08,17,30,,,,,,,1.2,0.9,0.8,1*3E
$GNGSA,A,3,76,88,,,,,,,,,,,1.2,0.9,0.8,2*31
$GNGSA,A,3,13,21,26,,,,,,,,,,1.2,0.9,0.8,3*34
$GNGSA,A,3,04,,,,,,,,,,,,1.2,0.9,0.8,4*32
$GNGSA,A,3,02,03,,,,,,,,,,,1.2,0.9,0.8,5*36
$GNVTG,,T,,M,0.0,N,0.0,K,A*3D
$GNDTM,P90,,0000.000020,S,00000.000001,W,0.991,W84*4E
$GNRMC,035828.00,A,2458.974965,N,12116.448435,E,0.0,,020425,3.1,W,A,V*6E
$GNGNS,035828.00,2458.974965,N,12116.448435,E,AAAAA,14,0.9,137.7,16.6,,,V*6C
$GNGGA,035828.00,2458.974965,N,12116.448435,E,1,12,0.9,137.7,M,16.6,M,,*7B
$GPGSV,3,1,10,01,68,037,37,02,37,035,27,03,33,132,25,07,41,209,16,1*67
$GPGSV,3,2,10,08,23,061,18,14,38,323,17,17,30,292,22,22,20,319,15,1*68
$GPGSV,3,3,10,30,45,261,16,19,09,271,,1*60
$GLGSV,2,1,06,77,75,140,22,76,26,147,20,88,56,288,15,87,31,018,24,1*78
$GLGSV,2,2,06,78,39,331,,81,16,237,,1*72
$GAGSV,2,1,07,13,24,035,25,21,53,099,30,26,78,035,36,19,00,000,,7*74
$GAGSV,2,2,07,23,59,344,,27,05,123,,31,12,314,,7*4D
$GQGSV,1,1,02,-190,68,077,25,-189,71,073,31,1*66
$GBGSV,4,1,16,04,37,118,29,09,53,239,17,01,49,135,,02,36,236,,1*7D
$GBGSV,4,2,16,03,56,202,,05,14,254,,06,47,215,,07,58,330,,1*7D
$GBGSV,4,3,16,08,16,172,,10,49,312,,13,09,184,,16,42,202,,1*76
$GBGSV,4,4,16,20,06,147,,27,04,050,,29,52,285,,30,47,023,,1*71
$GNGSA,A,3,01,02,03,08,17,30,,,,,,,1.2,0.9,0.8,1*3E
$GNGSA,A,3,76,88,,,,,,,,,,,1.2,0.9,0.8,2*31
$GNGSA,A,3,13,21,26,,,,,,,,,,1.2,0.9,0.8,3*34
$GNGSA,A,3,04,09,,,,,,,,,,,1.2,0.9,0.8,4*3B
$GNGSA,A,3,02,03,,,,,,,,,,,1.2,0.9,0.8,5*36
$GNVTG,,T,,M,0.0,N,0.0,K,A*3D
$GNDTM,P90,,0000.000020,S,00000.000001,W,0.991,W84*4E
$GNRMC,035829.00,A,2458.974851,N,12116.448368,E,0.0,,020425,3.1,W,A,V*66
$GNGNS,035829.00,2458.974851,N,12116.448368,E,AAAAA,15,0.9,137.7,16.6,,,V*65
$GNGGA,035829.00,2458.974851,N,12116.448368,E,1,12,0.9,137.7,M,16.6,M,,*73
$GPGSV,3,1,10,01,68,037,36,02,37,035,26,03,33,132,26,07,41,209,16,1*64
$GPGSV,3,2,10,08,23,061,18,14,38,323,17,17,30,292,23,22,20,319,15,1*69
$GPGSV,3,3,10,30,45,261,16,19,09,271,,1*60
$GLGSV,2,1,06,77,75,140,22,76,26,147,20,88,56,288,15,87,31,018,21,1*7D
$GLGSV,2,2,06,78,39,331,,81,16,237,,1*72
$GAGSV,2,1,07,13,24,035,25,21,53,099,30,26,78,035,35,19,00,000,,7*77
$GAGSV,2,2,07,23,59,344,,27,05,123,,31,12,314,,7*4D
$GQGSV,1,1,02,-190,68,077,28,-189,71,073,31,1*6B
$GBGSV,4,1,16,04,37,118,28,09,53,239,17,01,49,135,,02,36,236,,1*7C
$GBGSV,4,2,16,03,56,202,,05,14,254,,06,47,215,,07,58,330,,1*7D
$GBGSV,4,3,16,08,16,172,,10,49,312,,13,09,184,,16,42,202,,1*76
$GBGSV,4,4,16,20,06,147,,27,04,050,,29,52,285,,30,47,023,,1*71
$GNGSA,A,3,01,02,03,08,17,30,,,,,,,1.2,0.9,0.8,1*3E
$GNGSA,A,3,76,88,,,,,,,,,,,1.2,0.9,0.8,2*31
$GNGSA,A,3,13,21,26,,,,,,,,,,1.2,0.9,0.8,3*34
$GNGSA,A,3,04,09,,,,,,,,,,,1.2,0.9,0.8,4*3B
$GNGSA,A,3,02,03,,,,,,,,,,,1.2,0.9,0.8,5*36
$GNVTG,,T,,M,0.0,N,0.0,K,A*3D
$GNDTM,P90,,0000.000020,S,00000.000001,W,0.991,W84*4E
$GNRMC,035830.00,A,2458.974772,N,12116.448379,E,0.0,,020425,3.1,W,A,V*60
$GNGNS,035830.00,2458.974772,N,12116.448379,E,AAAAA,15,0.9,137.6,16.6,,,V*62
$GNGGA,035830.00,2458.974772,N,12116.448379,E,1,12,0.9,137.6,M,16.6,M,,*74
$GPGSV,3,1,10,01,68,037,36,02,37,035,24,03,33,132,23,07,41,209,16,1*63
$GPGSV,3,2,10,08,23,061,18,14,38,323,17,17,30,292,22,22,20,319,15,1*68
$GPGSV,3,3,10,30,45,261,16,19,09,271,,1*60
$GLGSV,2,1,06,77,75,140,22,76,26,147,20,88,56,288,15,87,31,018,25,1*79
$GLGSV,2,2,06,78,39,331,,81,16,237,,1*72
$GAGSV,2,1,07,13,24,035,25,21,53,099,29,26,78,035,34,19,00,000,,7*7E
$GAGSV,2,2,07,23,59,344,,27,05,123,,31,12,314,,7*4D
$GQGSV,1,1,02,-190,68,077,28,-189,71,073,32,1*68
$GBGSV,4,1,16,04,37,118,28,09,53,239,17,01,49,135,,02,36,236,,1*7C
$GBGSV,4,2,16,03,56,202,,05,14,254,,06,47,215,,07,58,330,,1*7D
$GBGSV,4,3,16,08,16,172,,10,49,312,,13,09,184,,16,42,202,,1*76
$GBGSV,4,4,16,20,06,147,,27,04,050,,29,52,285,,30,47,023,,1*71
$GNGSA,A,3,01,02,03,08,17,,,,,,,,1.2,0.9,0.8,1*3D
$GNGSA,A,3,76,88,,,,,,,,,,,1.2,0.9,0.8,2*31
$GNGSA,A,3,13,21,26,,,,,,,,,,1.2,0.9,0.8,3*34
$GNGSA,A,3,04,09,,,,,,,,,,,1.2,0.9,0.8,4*3B
$GNGSA,A,3,02,03,,,,,,,,,,,1.2,0.9,0.8,5*36
$GNVTG,,T,,M,0.0,N,0.0,K,A*3D
$GNDTM,P90,,0000.000020,S,00000.000001,W,0.991,W84*4E
$GNRMC,035831.00,A,2458.974775,N,12116.448400,E,0.0,,020425,3.1,W,A,V*6F
$GNGNS,035831.00,2458.974775,N,12116.448400,E,AAAAA,14,0.9,137.7,16.6,,,V*6D
$GNGGA,035831.00,2458.974775,N,12116.448400,E,1,12,0.9,137.7,M,16.6,M,,*7A
$GPGSV,3,1,10,01,68,037,37,02,37,035,22,03,33,132,23,07,41,209,16,1*64
$GPGSV,3,2,10,08,23,061,17,14,38,323,17,17,30,292,22,22,20,319,15,1*67
$GPGSV,3,3,10,30,45,261,16,19,09,271,,1*60
$GLGSV,2,1,06,77,75,140,22,76,26,147,20,88,56,288,15,87,31,018,25,1*79
$GLGSV,2,2,06,78,39,331,,81,16,237,,1*72
$GAGSV,2,1,07,13,24,035,22,21,53,099,29,26,78,035,35,19,00,000,,7*78
$GAGSV,2,2,07,23,59,344,,27,05,123,,31,12,314,,7*4D
$GQGSV,1,1,02,-190,68,077,25,-189,71,073,33,1*64
$GBGSV,4,1,16,04,37,118,28,09,53,239,17,01,49,135,,02,36,236,,1*7C
$GBGSV,4,2,16,03,56,202,,05,14,254,,06,47,215,,07,58,330,,1*7D
$GBGSV,4,3,16,08,16,172,,10,49,312,,13,09,184,,16,42,202,,1*76
$GBGSV,4,4,16,20,06,147,,27,04,050,,29,52,285,,30,47,023,,1*71
$GNGSA,A,3,01,02,03,08,17,,,,,,,,1.3,1.1,0.8,1*35
$GNGSA,A,3,88,,,,,,,,,,,,1.3,1.1,0.8,2*38
$GNGSA,A,3,13,21,26,,,,,,,,,,1.3,1.1,0.8,3*3C
$GNGSA,A,3,04,09,,,,,,,,,,,1.3,1.1,0.8,4*33
$GNGSA,A,3,02,03,,,,,,,,,,,1.3,1.1,0.8,5*3E
$GNVTG,,T,,M,0.0,N,0.0,K,A*3D
$GNDTM,P90,,0000.000020,S,00000.000001,W,0.991,W84*4E
$GNRMC,035832.00,A,2458.974846,N,12116.448438,E,0.0,,020425,3.1,W,A,V*68
$GNGNS,035832.00,2458.974846,N,12116.448438,E,AAAAA,13,1.1,137.6,16.6,,,V*65
$GNGGA,035832.00,2458.974846,N,12116.448438,E,1,12,1.1,137.6,M,16.6,M,,*75
$GPGSV,3,1,10,01,68,037,36,02,37,035,22,03,33,132,22,07,41,209,16,1*64
$GPGSV,3,2,10,08,23,061,17,14,38,323,17,17,30,292,21,22,20,319,16,1*67
$GPGSV,3,3,10,30,45,261,16,19,09,271,,1*60
$GLGSV,2,1,06,77,75,140,22,76,26,147,15,88,56,288,15,87,31,018,25,1*7F
$GLGSV,2,2,06,78,39,331,,81,16,237,,1*72
$GAGSV,2,1,07,13,24,035,22,21,53,099,29,26,78,035,35,19,00,000,,7*78
$GAGSV,2,2,07,23,59,344,,27,05,123,,31,12,314,,7*4D
$GQGSV,1,1,02,-190,68,077,24,-189,71,073,30,1*66
$GBGSV,4,1,16,04,37,118,28,09,53,239,21,01,49,135,,02,36,236,,1*79
$GBGSV,4,2,16,03,56,202,,05,14,254,,06,47,215,,07,58,330,,1*7D
$GBGSV,4,3,16,08,16,172,,10,49,312,,13,09,184,,16,42,202,,1*76
$GBGSV,4,4,16,20,06,147,,27,04,050,,29,52,285,,30,47,023,,1*71
$GNGSA,A,3,01,02,03,08,17,22,30,,,,,,1.1,0.8,0.8,1*3C
$GNGSA,A,3,76,88,,,,,,,,,,,1.1,0.8,0.8,2*33
$GNGSA,A,3,13,21,26,,,,,,,,,,1.1,0.8,0.8,3*36
$GNGSA,A,3,04,09,,,,,,,,,,,1.1,0.8,0.8,4*39
$GNGSA,A,3,02,03,,,,,,,,,,,1.1,0.8,0.8,5*34
$GNVTG,,T,,M,0.0,N,0.0,K,A*3D
$GNDTM,P90,,0000.000020,S,00000.000001,W,0.991,W84*4E
$GNRMC,035833.00,A,2458.974329,N,12116.448413,E,0.0,,020425,3.1,W,A,V*62
$GNGNS,035833.00,2458.974329,N,12116.448413,E,AAAAA,16,0.8,136.9,16.6,,,V*6C
$GNGGA,035833.00,2458.974329,N,12116.448413,E,1,12,0.8,136.9,M,16.6,M,,*79
$GPGSV,3,1,10,01,68,037,35,02,37,035,20,03,33,132,22,07,41,209,16,1*65
$GPGSV,3,2,10,08,23,061,17,14,38,323,17,17,30,292,22,22,20,319,16,1*64
$GPGSV,3,3,10,30,45,261,21,19,09,271,,1*64
$GLGSV,2,1,06,77,75,140,22,76,26,147,23,88,56,288,15,87,31,018,27,1*78
$GLGSV,2,2,06,78,39,331,,81,16,237,,1*72
$GAGSV,2,1,07,13,24,035,23,21,53,099,25,26,78,035,35,19,00,000,,7*75
$GAGSV,2,2,07,23,59,344,,27,05,123,,31,12,314,,7*4D
$GQGSV,1,1,02,-190,68,077,22,-189,71,073,31,1*61
$GBGSV,4,1,16,04,37,118,28,09,53,239,25,01,49,135,,02,36,236,,1*7D
$GBGSV,4,2,16,03,56,202,,05,14,254,,06,47,215,,07,58,330,,1*7D
$GBGSV,4,3,16,08,16,172,,10,49,312,,13,09,184,,16,42,202,,1*76
$GBGSV,4,4,16,20,06,147,,27,04,050,,29,52,285,,30,47,023,,1*71
$GNGSA,A,3,01,02,03,08,17,22,30,,,,,,1.2,0.9,0.8,1*3E
$GNGSA,A,3,76,,,,,,,,,,,,1.2,0.9,0.8,2*31
$GNGSA,A,3,13,21,26,,,,,,,,,,1.2,0.9,0.8,3*34
$GNGSA,A,3,04,09,,,,,,,,,,,1.2,0.9,0.8,4*3B
$GNGSA,A,3,02,03,,,,,,,,,,,1.2,0.9,0.8,5*36
$GNVTG,,T,,M,0.0,N,0.0,K,A*3D
$GNDTM,P90,,0000.000020,S,00000.000001,W,0.991,W84*4E
$GNRMC,035834.00,A,2458.974929,N,12116.448992,E,0.0,,020425,3.1,W,A,V*6B
$GNGNS,035834.00,2458.974929,N,12116.448992,E,AAAAA,15,0.9,136.6,16.6,,,V*68
$GNGGA,035834.00,2458.974929,N,12116.448992,E,1,12,0.9,136.6,M,16.6,M,,*7E
$GPGSV,3,1,10,01,68,037,35,02,37,035,23,03,33,132,21,07,41,209,19,1*6A
$GPGSV,3,2,10,08,23,061,17,14,38,323,17,17,30,292,22,22,20,319,16,1*64
$GPGSV,3,3,10,30,45,261,21,19,09,271,,1*64
$GLGSV,2,1,06,77,75,140,22,76,26,147,22,88,56,288,15,87,31,018,25,1*7B
$GLGSV,2,2,06,78,39,331,,81,16,237,,1*72
$GAGSV,2,1,07,13,24,035,23,21,53,099,28,26,78,035,35,19,00,000,,7*78
$GAGSV,2,2,07,23,59,344,,27,05,123,,31,12,314,,7*4D
$GQGSV,1,1,02,-190,68,077,22,-189,71,073,30,1*60
$GBGSV,4,1,16,04,37,118,28,09,53,239,25,01,49,135,,02,36,236,,1*7D
$GBGSV,4,2,16,03,56,202,,05,14,254,,06,47,215,,07,58,330,,1*7D
$GBGSV,4,3,16,08,16,172,,10,49,312,,13,09,184,,16,42,202,,1*76
$GBGSV,4,4,16,20,06,147,,27,04,050,,29,52,285,,30,47,023,,1*71
$GNGSA,A,3,01,02,03,07,08,17,22,30,,,,,1.1,0.8,0.8,1*3B
$GNGSA,A,3,76,,,,,,,,,,,,1.1,0.8,0.8,2*33
$GNGSA,A,3,13,21,26,,,,,,,,,,1.1,0.8,0.8,3*36
$GNGSA,A,3,04,09,,,,,,,,,,,1.1,0.8,0.8,4*39
$GNGSA,A,3,02,03,,,,,,,,,,,1.1,0.8,0.8,5*34
$GNVTG,,T,,M,0.0,N,0.0,K,A*3D
$GNDTM,P90,,0000.000020,S,00000.000001,W,0.991,W84*4E
$GNRMC,035835.00,A,2458.974502,N,12116.448478,E,0.0,,020425,3.1,W,A,V*66
$GNGNS,035835.00,2458.974502,N,12116.448478,E,AAAAA,16,0.8,135.9,16.6,,,V*6B
$GNGGA,035835.00,2458.974502,N,12116.448478,E,1,12,0.8,135.9,M,16.6,M,,*7E
$GPGSV,3,1,10,01,68,037,37,02,37,035,23,03,33,132,23,07,41,209,21,1*61
$GPGSV,3,2,10,08,23,061,17,14,38,323,17,17,30,292,21,22,20,319,16,1*67
$GPGSV,3,3,10,30,45,261,22,19,09,271,,1*67
$GLGSV,2,1,06,77,75,140,22,76,26,147,22,88,56,288,15,87,31,018,26,1*78
$GLGSV,2,2,06,78,39,331,,81,16,237,,1*72
$GAGSV,2,1,07,13,24,035,24,21,53,099,25,23,59,344,17,26,78,035,36,7*71
$GAGSV,2,2,07,19,00,000,,27,05,123,,31,12,314,,7*4B
$GQGSV,1,1,02,-190,68,077,24,-189,71,073,31,1*67
$GBGSV,4,1,16,04,37,118,31,09,53,239,22,01,49,135,,02,36,236,,1*72
$GBGSV,4,2,16,03,56,202,,05,14,254,,06,47,215,,07,58,330,,1*7D
$GBGSV,4,3,16,08,16,172,,10,49,312,,13,09,184,,16,42,202,,1*76
$GBGSV,4,4,16,20,06,147,,27,04,050,,29,52,285,,30,47,023,,1*71
$GNGSA,A,3,01,02,03,07,08,17,22,30,,,,,1.1,0.8,0.8,1*3B
$GNGSA,A,3,76,,,,,,,,,,,,1.1,0.8,0.8,2*33
$GNGSA,A,3,13,21,23,26,,,,,,,,,1.1,0.8,0.8,3*37
$GNGSA,A,3,04,09,,,,,,,,,,,1.1,0.8,0.8,4*39
$GNGSA,A,3,02,03,,,,,,,,,,,1.1,0.8,0.8,5*34
$GNVTG,,T,,M,0.0,N,0.0,K,A*3D
$GNDTM,P90,,0000.000020,S,00000.000001,W,0.991,W84*4E
$GNRMC,035836.00,A,2458.974977,N,12116.449468,E,0.0,,020425,3.1,W,A,V*6B
$GNGNS,035836.00,2458.974977,N,12116.449468,E,AAAAA,17,0.8,136.6,16.6,,,V*6B
$GNGGA,035836.00,2458.974977,N,12116.449468,E,1,12,0.8,136.6,M,16.6,M,,*7F
$GPGSV,3,1,10,01,68,037,36,02,37,035,20,03,33,132,23,07,41,209,21,1*63
$GPGSV,3,2,10,08,23,061,17,14,38,323,17,17,30,292,21,22,20,319,16,1*67
$GPGSV,3,3,10,30,45,261,22,19,09,271,,1*67
$GLGSV,2,1,06,77,75,140,22,76,26,147,19,88,56,288,17,87,31,018,25,1*71
$GLGSV,2,2,06,78,39,331,,81,16,237,,1*72
$GAGSV,2,1,07,13,24,035,24,21,53,099,25,23,59,344,17,26,78,035,33,7*74
$GAGSV,2,2,07,19,00,000,,27,05,123,,31,12,314,,7*4B
$GQGSV,1,1,02,-190,68,077,24,-189,71,073,31,1*67
$GBGSV,4,1,16,04,37,118,31,09,53,239,22,01,49,135,,02,36,236,,1*72
$GBGSV,4,2,16,03,56,202,,05,14,254,,06,47,215,,07,58,330,,1*7D
$GBGSV,4,3,16,08,16,172,,10,49,312,,13,09,184,,16,42,202,,1*76
$GBGSV,4,4,16,20,06,147,,27,04,050,,29,52,285,,30,47,023,,1*71
$GNGSA,A,3,01,02,03,07,08,17,22,30,,,,,1.1,0.7,0.8,1*34
$GNGSA,A,3,76,88,,,,,,,,,,,1.1,0.7,0.8,2*3C
$GNGSA,A,3,13,21,23,26,,,,,,,,,1.1,0.7,0.8,3*38
$GNGSA,A,3,04,09,,,,,,,,,,,1.1,0.7,0.8,4*36
$GNGSA,A,3,02,03,,,,,,,,,,,1.1,0.7,0.8,5*3B
$GNVTG,,T,,M,0.0,N,0.0,K,A*3D
$GNDTM,P90,,0000.000020,S,00000.000001,W,0.991,W84*4E
$GNRMC,035837.00,A,2458.974944,N,12116.449458,E,0.0,,020425,3.1,W,A,V*69
$GNGNS,035837.00,2458.974944,N,12116.449458,E,AAAAA,18,0.7,136.5,16.6,,,V*6A
$GNGGA,035837.00,2458.974944,N,12116.449458,E,1,12,0.7,136.5,M,16.6,M,,*71
$GPGSV,3,1,10,01,68,037,34,02,37,035,22,03,33,132,22,07,41,209,21,1*62
$GPGSV,3,2,10,08,23,061,17,14,38,323,17,17,30,292,20,22,20,319,16,1*66
$GPGSV,3,3,10,30,45,261,22,19,09,271,,1*67
$GLGSV,2,1,06,77,75,140,22,76,26,147,20,88,56,288,17,87,31,018,26,1*78
$GLGSV,2,2,06,78,39,331,,81,16,237,,1*72
$GAGSV,2,1,07,13,24,035,24,21,53,099,25,23,59,344,17,26,78,035,27,7*71
$GAGSV,2,2,07,19,00,000,,27,05,123,,31,12,314,,7*4B
$GQGSV,1,1,02,-190,68,077,22,-189,71,073,30,1*60
$GBGSV,4,1,16,04,37,118,31,09,53,239,22,01,49,135,,02,36,236,,1*72
$GBGSV,4,2,16,03,56,202,,05,14,254,,06,47,215,,07,58,330,,1*7D
$GBGSV,4,3,16,08,16,172,,10,49,312,,13,09,184,,16,42,202,,1*76
$GBGSV,4,4,16,20,06,147,,27,04,050,,29,52,285,,30,47,023,,1*71
$GNGSA,A,3,01,02,03,07,17,22,30,,,,,,1.1,0.8,0.8,1*33
$GNGSA,A,3,76,88,,,,,,,,,,,1.1,0.8,0.8,2*33
$GNGSA,A,3,13,21,23,26,,,,,,,,,1.1,0.8,0.8,3*37
$GNGSA,A,3,04,09,,,,,,,,,,,1.1,0.8,0.8,4*39
$GNGSA,A,3,02,03,,,,,,,,,,,1.1,0.8,0.8,5*34
$GNVTG,,T,,M,0.0,N,0.0,K,A*3D
$GNDTM,P90,,0000.000020,S,00000.000001,W,0.991,W84*4E
$GNRMC,035838.00,A,2458.974940,N,12116.449460,E,0.0,,020425,3.1,W,A,V*69
$GNGNS,035838.00,2458.974940,N,12116.449460,E,AAAAA,17,0.8,136.4,16.6,,,V*6B
$GNGGA,035838.00,2458.974940,N,12116.449460,E,1,12,0.8,136.4,M,16.6,M,,*7F
$GPGSV,3,1,10,01,68,037,36,02,37,035,22,03,33,132,22,07,41,209,21,1*60
$GPGSV,3,2,10,08,23,061,17,14,38,323,17,17,30,292,20,22,20,319,16,1*66
$GPGSV,3,3,10,30,45,261,22,19,09,271,,1*67
$GLGSV,2,1,06,77,75,140,22,76,26,147,20,88,56,288,17,87,31,018,24,1*7A
$GLGSV,2,2,06,78,39,331,,81,16,237,,1*72
$GAGSV,2,1,07,13,24,035,24,21,53,099,23,23,59,344,17,26,78,035,31,7*70
$GAGSV,2,2,07,19,00,000,,27,05,123,,31,12,314,,7*4B
$GQGSV,1,1,02,-190,68,077,25,-189,71,073,32,1*65
$GBGSV,4,1,15,04,37,118,31,09,53,239,22,02,36,236,,03,56,202,,1*7A
$GBGSV,4,2,15,05,14,254,,06,47,215,,07,58,330,,08,16,172,,1*75
$GBGSV,4,3,15,10,49,312,,13,09,184,,16,42,202,,20,06,147,,1*78
$GBGSV,4,4,15,27,04,050,,29,52,285,,30,47,023,,1*44
$GNGSA,A,3,01,02,03,07,17,30,,,,,,,1.2,0.8,0.8,1*30
$GNGSA,A,3,76,88,,,,,,,,,,,1.2,0.8,0.8,2*30
$GNGSA,A,3,13,21,23,26,,,,,,,,,1.2,0.8,0.8,3*34
$GNGSA,A,3,04,09,,,,,,,,,,,1.2,0.8,0.8,4*3A
$GNGSA,A,3,02,03,,,,,,,,,,,1.2,0.8,0.8,5*37
$GNVTG,,T,,M,0.0,N,0.0,K,A*3D
$GNDTM,P90,,0000.000020,S,00000.000001,W,0.991,W84*4E
$GNRMC,035839.00,A,2458.974827,N,12116.449536,E,0.0,,020425,3.1,W,A,V*6A
$GNGNS,035839.00,2458.974827,N,12116.449536,E,AAAAA,16,0.8,136.2,16.6,,,V*6F
$GNGGA,035839.00,2458.974827,N,12116.449536,E,1,12,0.8,136.2,M,16.6,M,,*7A
$GPGSV,3,1,10,01,68,037,34,02,37,035,22,03,33,132,22,07,41,209,21,1*62
$GPGSV,3,2,10,08,23,061,17,14,38,323,17,17,30,292,21,22,20,319,16,1*67
$GPGSV,3,3,10,30,45,261,22,19,09,271,,1*67
$GLGSV,2,1,06,77,75,140,17,76,26,147,20,88,56,288,17,87,31,018,22,1*7A
$GLGSV,2,2,06,78,39,331,,81,16,237,,1*72
$GAGSV,2,1,07,13,24,035,24,21,53,099,23,23,59,344,17,26,78,035,32,7*73
$GAGSV,2,2,07,19,00,000,,27,05,123,,31,12,314,,7*4B
$GQGSV,1,1,02,-190,68,077,22,-189,71,073,30,1*60
$GBGSV,4,1,15,04,37,118,31,09,53,239,22,02,36,236,,03,56,202,,1*7A
$GBGSV,4,2,15,05,14,254,,06,47,215,,07,58,330,,08,16,172,,1*75
$GBGSV,4,3,15,10,49,312,,13,09,184,,16,42,202,,20,06,147,,1*78
$GBGSV,4,4,15,27,04,050,,29,52,285,,30,47,023,,1*44
$GNGSA,A,3,01,02,03,07,17,30,,,,,,,1.2,0.8,0.8,1*30
$GNGSA,A,3,76,88,,,,,,,,,,,1.2,0.8,0.8,2*30
$GNGSA,A,3,13,21,23,26,,,,,,,,,1.2,0.8,0.8,3*34
$GNGSA,A,3,04,09,,,,,,,,,,,1.2,0.8,0.8,4*3A
$GNGSA,A,3,02,03,,,,,,,,,,,1.2,0.8,0.8,5*37
$GNVTG,,T,,M,0.0,N,0.0,K,A*3D
$GNDTM,P90,,0000.000020,S,00000.000001,W,0.991,W84*4E
$GNRMC,035840.00,A,2458.974821,N,12116.449530,E,0.0,,020425,3.1,W,A,V*64
$GNGNS,035840.00,2458.974821,N,12116.449530,E,AAAAA,16,0.8,136.2,16.6,,,V*61
